{"version": 0.6, "generator": "Overpass API 0.7.62.10 2d4cfc48", "osm3s": {"timestamp_osm_base": "2026-02-08T12:32:00Z", "copyright": "The data included in this document is from www.openstreetmap.org. The data is made available under ODbL."}, "elements": [{"type": "node", "id": 269026743, "lat": 45.883229, "lon": 11.0863447, "tags": {"bus": "yes", "highway": "bus_stop", "name": "Cisterna", "public_transport": "platform"}}, {"type": "node", "id": 409500196, "lat": 45.8796925, "lon": 11.0351947, "tags": {"highway": "bus_stop", "name": "Via Benacense/Scuole elementare Dante Alighieri", "public_transport": "platform", "shelter": "yes"}}, {"type": "node", "id": 409500199, "lat": 45.8641006, "lon": 11.0289617, "tags": {"bench": "no", "bus": "yes", "highway": "bus_stop", "name": "Lizzana SS12 Rovercenter", "public_transport": "platform", "shelter": "yes"}}, {"type": "node", "id": 409504868, "lat": 45.9185566, "lon": 11.0351511, "tags": {"highway": "bus_stop", "public_transport": "platform"}}, {"type": "node", "id": 409504869, "lat": 45.9186223, "lon": 11.0352198, "tags": {"highway": "bus_stop", "public_transport": "platform"}}, {"type": "node", "id": 412367735, "lat": 45.8818965, "lon": 11.0381521, "tags": {"highway": "bus_stop", "name": "Via Benacense/Via Fume/Campo sportivo \"Pr\u00e0 de le m\u00f2neghe\"", "public_transport": "platform", "shelter": "yes"}}, {"type": "node", "id": 412367736, "lat": 45.8795363, "lon": 11.0348436, "tags": {"highway": "bus_stop", "name": "Via Benacense/Scuole Dante", "public_transport": "platform", "shelter": "yes"}}, {"type": "node", "id": 417675981, "lat": 46.0281252, "lon": 11.2270107, "tags": {"fixme": "According my informations this bus stop is not used (deleting??)", "highway": "bus_stop", "public_transport": "platform"}}, {"type": "node", "id": 417676057, "lat": 46.0292287, "lon": 11.224014, "tags": {"fixme": "According my informations this bus stop is not used (deleting??)", "highway": "bus_stop", "public_transport": "platform"}}, {"type": "node", "id": 417676122, "lat": 46.0269882, "lon": 11.2222178, "tags": {"fixme": "According my informations this bus stop is not used (deleting??)", "highway": "bus_stop", "public_transport": "platform"}}, {"type": "node", "id": 427524176, "lat": 45.931524, "lon": 10.89646, "tags": {"bench": "no", "bin": "no", "bus": "yes", "highway": "bus_stop", "lit": "yes", "name": "Arco Moletta", "public_transport": "platform", "shelter": "no", "source": "survey", "tactile_paving": "no"}}, {"type": "node", "id": 427524179, "lat": 45.9701502, "lon": 10.9235212, "tags": {"highway": "bus_stop", "name": "Dro SS45 Htl. Eden", "public_transport": "platform", "shelter": "no", "source": "survey"}}, {"type": "node", "id": 427524180, "lat": 45.9825542, "lon": 10.9249504, "tags": {"bench": "yes", "bus": "yes", "highway": "bus_stop", "name": "Dro Al Lago", "public_transport": "platform", "shelter": "yes", "source": "survey"}}, {"type": "node", "id": 427524181, "lat": 45.9833313, "lon": 10.9257226, "tags": {"bench": "yes", "bus": "yes", "highway": "bus_stop", "name": "Dro Al Lago", "public_transport": "platform", "shelter": "yes", "source": "survey"}}, {"type": "node", "id": 427524182, "lat": 45.9868332, "lon": 10.9268974, "tags": {"bench": "no", "bin": "no", "bus": "yes", "highway": "bus_stop", "lit": "no", "name": "Centrale Fies", "public_transport": "platform", "shelter": "no", "source": "survey", "tactile_paving": "no"}}, {"type": "node", "id": 427524184, "lat": 45.9931553, "lon": 10.9266615, "tags": {"bench": "no", "bin": "no", "bus": "yes", "highway": "bus_stop", "name": "Gaggiolo", "public_transport": "platform", "shelter": "no", "source": "survey", "tactile_paving": "no"}}, {"type": "node", "id": 427524185, "lat": 46.0093928, "lon": 10.9359032, "tags": {"bench": "no", "bin": "yes", "bus": "yes", "highway": "bus_stop", "name": "Isoletta", "public_transport": "platform", "shelter": "no", "source": "survey", "tactile_paving": "no"}}, {"type": "node", "id": 427524186, "lat": 46.0165144, "lon": 10.9416929, "tags": {"bench": "yes", "bin": "no", "bus": "yes", "check_date:shelter": "2024-08-04", "highway": "bus_stop", "lit": "yes", "public_transport": "platform", "shelter": "yes", "source": "survey", "tactile_paving": "no"}}, {"type": "node", "id": 427524187, "lat": 46.017892, "lon": 10.9419041, "tags": {"bench": "yes", "bin": "no", "bus": "yes", "highway": "bus_stop", "lit": "yes", "name": "Pietramurata", "public_transport": "platform", "shelter": "yes", "source": "survey", "tactile_paving": "no"}}, {"type": "node", "id": 427524191, "lat": 46.0339308, "lon": 10.9477963, "tags": {"bench": "no", "bin": "no", "bus": "yes", "highway": "bus_stop", "lit": "no", "name": "Maso del Gobbo", "public_transport": "platform", "shelter": "no", "source": "survey", "tactile_paving": "no"}}, {"type": "node", "id": 432828644, "lat": 45.7523282, "lon": 11.2260339, "tags": {"highway": "bus_stop", "public_transport": "platform"}}, {"type": "node", "id": 442927434, "lat": 45.8740263, "lon": 10.9063421, "tags": {"bench": "no", "bin": "no", "bus": "yes", "highway": "bus_stop", "lit": "no", "name": "Passo S. Giovanni", "public_transport": "platform", "shelter": "no", "tactile_paving": "no"}}, {"type": "node", "id": 449657276, "lat": 45.9168238, "lon": 11.1351329, "tags": {"bus": "yes", "highway": "bus_stop", "name": "Mezzomonte di Sotto", "public_transport": "platform"}}, {"type": "node", "id": 449657872, "lat": 45.9165168, "lon": 11.1388285, "tags": {"bench": "yes", "bin": "yes", "highway": "bus_stop", "lit": "no", "name": "Mezzomonte (di Sopra)", "public_transport": "platform", "shelter": "yes", "tactile_paving": "no"}}, {"type": "node", "id": 453343186, "lat": 45.9109286, "lon": 10.9002499, "tags": {"bench": "no", "bin": "yes", "bus": "yes", "highway": "bus_stop", "lit": "yes", "name": "Bolognano Bivio", "public_transport": "platform", "shelter": "no", "tactile_paving": "no"}}, {"type": "node", "id": 474970467, "lat": 45.9823453, "lon": 11.0923405, "tags": {"bus": "yes", "highway": "bus_stop", "name": "Aldeno - Cimitero", "public_transport": "platform"}}, {"type": "node", "id": 474970468, "lat": 45.9822744, "lon": 11.0924664, "tags": {"bus": "yes", "highway": "bus_stop", "name": "Aldeno - Cimitero", "public_transport": "platform"}}, {"type": "node", "id": 474970478, "lat": 45.9825407, "lon": 11.0934842, "tags": {"bus": "yes", "highway": "bus_stop", "name": "Aldeno Viale Europa", "public_transport": "platform"}}, {"type": "node", "id": 474970479, "lat": 45.9824468, "lon": 11.0934622, "tags": {"bus": "yes", "highway": "bus_stop", "name": "Aldeno Viale Europa", "public_transport": "platform"}}, {"type": "node", "id": 484853724, "lat": 45.9790992, "lon": 11.2371281, "tags": {"bench": "no", "bin": "yes", "bus": "yes", "highway": "bus_stop", "lit": "yes", "name": "Pian dei Pradi", "public_transport": "platform", "shelter": "no", "tactile_paving": "no"}}, {"type": "node", "id": 524599100, "lat": 45.8815293, "lon": 11.0106353, "tags": {"bench": "yes", "bin": "yes", "bus": "yes", "highway": "bus_stop", "lit": "yes", "name": "Cornal\u00e8", "operator": "Trentino Trasporti", "public_transport": "platform", "shelter": "yes", "tactile_paving": "no", "wheelchair": "yes"}}, {"type": "node", "id": 568433885, "lat": 46.0165296, "lon": 11.3312429, "tags": {"highway": "bus_stop", "name": "Levico T. SP228", "public_transport": "platform"}}, {"type": "node", "id": 570193910, "lat": 46.0062586, "lon": 11.2915911, "tags": {"bus": "yes", "highway": "bus_stop", "name": "Levico T. (Rist. Brenta)", "public_transport": "platform", "shelter": "no"}}, {"type": "node", "id": 570193911, "lat": 46.0062729, "lon": 11.2918298, "tags": {"bus": "yes", "highway": "bus_stop", "name": "Levico T. (Rist. Brenta)", "public_transport": "platform", "shelter": "no"}}, {"type": "node", "id": 570193913, "lat": 46.0092546, "lon": 11.3082678, "tags": {"bus": "yes", "highway": "bus_stop", "name": "Levico T. (Via Rovigo)", "public_transport": "platform"}}, {"type": "node", "id": 617534980, "lat": 46.0233041, "lon": 10.9436976, "tags": {"bench": "no", "bin": "no", "bus": "yes", "highway": "bus_stop", "lit": "no", "name": "Daino", "public_transport": "platform", "shelter": "no", "source": "survey", "tactile_paving": "no"}}, {"type": "node", "id": 635772598, "lat": 45.8959848, "lon": 11.043211, "tags": {"addr:city": "Rovereto", "addr:postcode": "38068", "addr:street": "Corso Bettini", "highway": "bus_stop", "name": "Corso Bettini/Liceo Rosmini", "public_transport": "platform", "shelter": "no", "wheelchair": "yes"}}, {"type": "node", "id": 648170438, "lat": 45.8909725, "lon": 11.0409741, "tags": {"bench": "yes", "highway": "bus_stop", "name": "Corso Rosmini/Posta", "public_transport": "platform", "shelter": "yes", "tactile_paving": "yes"}}, {"type": "node", "id": 648171977, "lat": 45.8908711, "lon": 11.0427306, "tags": {"bench": "yes", "bin": "yes", "highway": "bus_stop", "lit": "yes", "name": "Corso Rosmini/Monumento", "public_transport": "platform", "shelter": "yes", "tactile_paving": "yes"}}, {"type": "node", "id": 648173000, "lat": 45.8988718, "lon": 11.0445181, "tags": {"bus": "yes", "highway": "bus_stop", "name": "Via Driopozzo bivio Solatrix", "public_transport": "platform"}}, {"type": "node", "id": 648173663, "lat": 45.8996633, "lon": 11.0443337, "tags": {"bus": "yes", "highway": "bus_stop", "name": "Via Driopozzo bivio Solatrix", "public_transport": "platform"}}, {"type": "node", "id": 648195401, "lat": 45.9013059, "lon": 11.0461481, "tags": {"highway": "bus_stop", "name": "Via Puccini/Via Donizetti", "public_transport": "platform"}}, {"type": "node", "id": 648196163, "lat": 45.9040112, "lon": 11.0447722, "tags": {"bus": "yes", "highway": "bus_stop", "name": "Via Puccini Via Perosi", "public_transport": "platform"}}, {"type": "node", "id": 648196308, "lat": 45.9039213, "lon": 11.0428014, "tags": {"highway": "bus_stop", "name": "Via Brione", "public_transport": "platform"}}, {"type": "node", "id": 648199019, "lat": 45.9085027, "lon": 11.0408576, "tags": {"highway": "bus_stop", "name": "S.Ilario/SAV", "public_transport": "platform", "shelter": "yes"}}, {"type": "node", "id": 648199548, "lat": 45.9065692, "lon": 11.0401398, "tags": {"addr:city": "Rovereto", "addr:postcode": "38068", "addr:street": "Viale Trento", "bench": "no", "bin": "no", "bus": "yes", "departures_board": "yes", "highway": "bus_stop", "lit": "no", "name": "Rovereto Viale Trento Via Salvetti", "public_transport": "platform", "shelter": "no", "tactile_paving": "no", "wheelchair": "yes"}}, {"type": "node", "id": 648199781, "lat": 45.9083319, "lon": 11.0405585, "tags": {"bench": "yes", "bus": "yes", "highway": "bus_stop", "name": "Sant'Ilario sav. (Hotel)", "public_transport": "platform", "shelter": "yes"}}, {"type": "node", "id": 648200503, "lat": 45.9107481, "lon": 11.0397242, "tags": {"bus": "yes", "departures_board": "timetable", "highway": "bus_stop", "name": "Via Lagarina A22", "public_transport": "platform"}}, {"type": "node", "id": 664470831, "lat": 45.9289361, "lon": 11.093227, "tags": {"bench": "no", "bin": "no", "bus": "yes", "departures_board": "timetable", "highway": "bus_stop", "lit": "yes", "name": "Calliano Via Campagnole/Grafiche Manfrini", "operator": "Trentino Esercizio", "public_transport": "platform", "shelter": "yes", "tactile_paving": "no"}}, {"type": "node", "id": 670368994, "lat": 45.8990294, "lon": 11.0419677, "tags": {"bench": "no", "bin": "no", "bus": "yes", "highway": "bus_stop", "lit": "yes", "name": "Via Magazol/Viale Trento", "public_transport": "platform", "shelter": "no", "tactile_paving": "no"}}, {"type": "node", "id": 670370149, "lat": 45.8969473, "lon": 11.0409291, "tags": {"highway": "bus_stop", "name": "Rovereto Via Baratieri", "public_transport": "platform", "shelter": "yes", "tactile_paving": "no"}}, {"type": "node", "id": 670372167, "lat": 45.8932269, "lon": 11.0400315, "tags": {"bench": "yes", "bin": "yes", "highway": "bus_stop", "lit": "yes", "name": "Via Paoli/Piazza 25 Aprile", "public_transport": "platform", "shelter": "no", "tactile_paving": "no"}}, {"type": "node", "id": 670382615, "lat": 45.8920893, "lon": 11.0329495, "tags": {"bench": "no", "bin": "yes", "bus": "yes", "highway": "bus_stop", "lit": "yes", "name": "Via Pedroni", "public_transport": "platform", "shelter": "no", "tactile_paving": "no"}}, {"type": "node", "id": 670382619, "lat": 45.8935553, "lon": 11.0307606, "tags": {"bench": "no", "bin": "no", "highway": "bus_stop", "lit": "yes", "name": "Via a Prato", "public_transport": "platform", "shelter": "no", "tactile_paving": "no"}}, {"type": "node", "id": 670382623, "lat": 45.8956592, "lon": 11.028877, "tags": {"bench": "yes", "bin": "yes", "bus": "yes", "highway": "bus_stop", "lit": "no", "name": "Piazzale San Giorgio ovest", "public_transport": "platform", "shelter": "yes", "tactile_paving": "no"}}, {"type": "node", "id": 670382632, "lat": 45.8871925, "lon": 11.0307104, "tags": {"bench": "no", "bin": "yes", "bus": "yes", "highway": "bus_stop", "lit": "no", "name": "Via Pasubio/Viale Vittoria", "public_transport": "platform", "shelter": "no", "tactile_paving": "no"}}, {"type": "node", "id": 670390165, "lat": 45.8871901, "lon": 11.0346722, "tags": {"highway": "bus_stop", "name": "Via Camillo Benso Conte di Cavour / Via Riva", "public_transport": "platform"}}, {"type": "node", "id": 670390166, "lat": 45.8903772, "lon": 11.0342751, "tags": {"bench": "yes", "bin": "yes", "bus": "yes", "highway": "bus_stop", "lit": "yes", "name": "Piazzale Orsi/Stazione FS", "public_transport": "platform", "route_ref": "Flixbus 407, 494, 531, N432, N494, N530", "shelter": "yes"}}, {"type": "node", "id": 670420236, "lat": 46.0054123, "lon": 11.1265234, "tags": {"alt_name": "Mattarello", "bench": "no", "bus": "yes", "check_date:shelter": "2025-09-14", "highway": "bus_stop", "name": "Mattarello / Fratte", "public_transport": "platform", "shelter": "no", "wheelchair": "no"}}, {"type": "node", "id": 670420237, "lat": 46.0135469, "lon": 11.1315438, "tags": {"alt_name": "Mattarello - Via Nazionale", "bench": "yes", "bin": "no", "bus": "yes", "highway": "bus_stop", "lit": "yes", "name": "Mattarello / Pomeranos", "public_transport": "platform", "shelter": "yes", "tactile_paving": "no", "wheelchair": "yes"}}, {"type": "node", "id": 670420240, "lat": 46.0048567, "lon": 11.1266748, "tags": {"bus": "yes", "highway": "bus_stop", "name": "Mattarello", "public_transport": "platform", "shelter": "no"}}, {"type": "node", "id": 670420241, "lat": 45.9902117, "lon": 11.1228072, "tags": {"bus": "yes", "highway": "bus_stop", "name": "Acquaviva", "public_transport": "platform"}}, {"type": "node", "id": 670422949, "lat": 45.9287466, "lon": 11.0929934, "tags": {"bench": "no", "bin": "no", "bus": "yes", "departures_board": "timetable", "highway": "bus_stop", "name": "Calliano Via Campagnole/Grafiche Manfrini", "operator": "Trentino Trasporti", "public_transport": "platform", "shelter": "yes", "tactile_paving": "no"}}, {"type": "node", "id": 670422951, "lat": 45.9233967, "lon": 11.0924232, "tags": {"bench": "yes", "bin": "yes", "highway": "bus_stop", "lit": "no", "name": "Castel Pietra", "public_transport": "platform", "shelter": "yes", "tactile_paving": "no"}}, {"type": "node", "id": 670422952, "lat": 45.9218933, "lon": 11.0915372, "tags": {"bench": "no", "bin": "no", "highway": "bus_stop", "lit": "no", "name": "Castel Pietra", "public_transport": "platform", "shelter": "no", "tactile_paving": "no"}}, {"type": "node", "id": 670422953, "lat": 45.9177398, "lon": 11.0634001, "tags": {"bench": "yes", "bin": "no", "highway": "bus_stop", "lit": "no", "name": "Volano SS12", "public_transport": "platform", "shelter": "yes", "tactile_paving": "no"}}, {"type": "node", "id": 670422955, "lat": 45.9179321, "lon": 11.0639526, "tags": {"bench": "yes", "highway": "bus_stop", "name": "Volano SS12", "public_transport": "platform", "shelter": "yes"}}, {"type": "node", "id": 670422958, "lat": 45.9366233, "lon": 11.1099105, "tags": {"bus": "yes", "covered": "yes", "highway": "bus_stop", "name": "Besenello sud dir. Rovereto", "public_transport": "platform"}}, {"type": "node", "id": 670422959, "lat": 45.9342882, "lon": 11.0960239, "tags": {"bench": "yes", "bin": "yes", "bus": "yes", "departures_board": "yes", "highway": "bus_stop", "lit": "yes", "name": "Calliano Ss.12", "operator": "Trentino Trasporti", "public_transport": "platform", "shelter": "yes"}}, {"type": "node", "id": 670422963, "lat": 45.9516128, "lon": 11.1081496, "tags": {"bench": "no", "bin": "no", "bus": "yes", "highway": "bus_stop", "lit": "no", "name": "Besenello Posta Vechia", "public_transport": "platform", "shelter": "no", "tactile_paving": "no"}}, {"type": "node", "id": 670422964, "lat": 45.9465681, "lon": 11.105781, "tags": {"bus": "yes", "highway": "bus_stop", "name": "Besenello nord dir. Rovereto", "public_transport": "platform"}}, {"type": "node", "id": 670422965, "lat": 45.9466619, "lon": 11.1058659, "tags": {"bus": "yes", "highway": "bus_stop", "name": "Besenello nord dir. Trento", "public_transport": "platform"}}, {"type": "node", "id": 670422966, "lat": 45.9426882, "lon": 11.108661, "tags": {"bench": "yes", "bus": "yes", "highway": "bus_stop", "name": "Besenello dir. Trento", "public_transport": "platform", "shelter": "yes"}}, {"type": "node", "id": 670422967, "lat": 45.9418042, "lon": 11.1099569, "tags": {"bus": "yes", "highway": "bus_stop", "name": "Besenello dir. Rovereto", "public_transport": "platform"}}, {"type": "node", "id": 670422969, "lat": 45.9806471, "lon": 11.1163699, "tags": {"bus": "yes", "highway": "bus_stop", "name": "Acquaviva - Pizzeria", "public_transport": "platform"}}, {"type": "node", "id": 670422970, "lat": 45.9806098, "lon": 11.1166703, "tags": {"bus": "yes", "highway": "bus_stop", "name": "Acquaviva - Pizzeria", "public_transport": "platform"}}, {"type": "node", "id": 670422972, "lat": 45.9514962, "lon": 11.1084269, "tags": {"bench": "no", "bin": "no", "bus": "yes", "highway": "bus_stop", "lit": "no", "name": "Besenello Posta Vechia", "public_transport": "platform", "shelter": "no", "tactile_paving": "no"}}, {"type": "node", "id": 670425349, "lat": 45.9125689, "lon": 11.0439967, "tags": {"bench": "yes", "bin": "no", "bus": "yes", "highway": "bus_stop", "lit": "no", "name": "SS 12 S.Ilario/via Stroperi", "public_transport": "platform", "shelter": "yes", "tactile_paving": "no"}}, {"type": "node", "id": 670425350, "lat": 45.8995228, "lon": 11.0421145, "tags": {"addr:city": "Rovereto", "addr:postcode": "38068", "addr:street": "Viale Trento", "bench": "yes", "bin": "yes", "highway": "bus_stop", "lit": "yes", "name": "Rovereto Viale Trento/Via Magazol", "public_transport": "platform", "shelter": "yes", "tactile_paving": "yes"}}, {"type": "node", "id": 670425352, "lat": 45.8995392, "lon": 11.0422073, "tags": {"addr:city": "Rovereto", "addr:postcode": "38068", "addr:street": "Viale Trento", "bench": "yes", "bin": "yes", "highway": "bus_stop", "lit": "yes", "name": "Rovereto Viale Trento/Via Magazol", "public_transport": "platform", "shelter": "yes", "tactile_paving": "no"}}, {"type": "node", "id": 676761236, "lat": 45.9016909, "lon": 11.0416245, "tags": {"addr:city": "Rovereto", "addr:postcode": "38068", "addr:street": "Viale Trento", "highway": "bus_stop", "name": "Viale Trento/Via Brione", "public_transport": "platform", "shelter": "no"}}, {"type": "node", "id": 676761301, "lat": 45.9016461, "lon": 11.0414465, "tags": {"addr:city": "Rovereto", "addr:postcode": "38068", "addr:street": "Viale Trento", "highway": "bus_stop", "name": "Viale Trento/Via Brione", "public_transport": "platform", "shelter": "yes"}}, {"type": "node", "id": 676761591, "lat": 45.9016114, "lon": 11.0461951, "tags": {"highway": "bus_stop", "name": "Via Puccini/Via Donizetti", "public_transport": "platform"}}, {"type": "node", "id": 676762201, "lat": 45.8933551, "lon": 11.0435964, "tags": {"bench": "no", "bin": "yes", "highway": "bus_stop", "lit": "yes", "name": "Corso Bettini/Teatro", "public_transport": "platform", "shelter": "no", "tactile_paving": "no"}}, {"type": "node", "id": 676762309, "lat": 45.8930295, "lon": 11.0437598, "tags": {"bench": "yes", "bin": "no", "highway": "bus_stop", "lit": "yes", "name": "Corso Bettini/MART", "public_transport": "platform", "shelter": "no", "tactile_paving": "no"}}, {"type": "node", "id": 676765105, "lat": 45.8961523, "lon": 11.0432586, "tags": {"addr:city": "Rovereto", "addr:postcode": "38068", "addr:street": "Corso Bettini", "bench": "yes", "bin": "no", "highway": "bus_stop", "lit": "yes", "name": "Corso Bettini/Frati", "public_transport": "platform", "shelter": "no", "tactile_paving": "no", "wheelchair": "yes"}}, {"type": "node", "id": 676768139, "lat": 45.890869, "lon": 11.038566, "tags": {"bench": "yes", "highway": "bus_stop", "name": "Corso Rosmini/Via Savioli \"Scuola Zandonai\"", "public_transport": "platform", "shelter": "yes"}}, {"type": "node", "id": 676769277, "lat": 45.8878328, "lon": 11.0366563, "tags": {"highway": "bus_stop", "name": "Via Saibanti", "public_transport": "platform", "shelter": "no"}}, {"type": "node", "id": 676769418, "lat": 45.8913368, "lon": 11.0346489, "tags": {"bench": "no", "bin": "no", "highway": "bus_stop", "lit": "yes", "name": "Piazzale Orsi/Istituto Veronesi", "public_transport": "platform", "shelter": "no"}}, {"type": "node", "id": 676769565, "lat": 45.8864131, "lon": 11.0403649, "tags": {"bench": "no", "bin": "yes", "highway": "bus_stop", "name": "Via Dante mon all`Alpino", "public_transport": "platform", "shelter": "no"}}, {"type": "node", "id": 676769865, "lat": 45.8836252, "lon": 11.040909, "tags": {"bench": "yes", "highway": "bus_stop", "name": "Piazzale Santa Maria/Ospedale", "public_transport": "platform", "shelter": "yes"}}, {"type": "node", "id": 676772256, "lat": 45.875548, "lon": 11.0317515, "tags": {"bench": "yes", "bus": "yes", "highway": "bus_stop", "name": "SS12 Lizzanella", "public_transport": "platform", "shelter": "yes"}}, {"type": "node", "id": 676772730, "lat": 45.8756053, "lon": 11.0340978, "tags": {"highway": "bus_stop", "name": "Corso Verona/Lizzanella", "public_transport": "platform"}}, {"type": "node", "id": 676772747, "lat": 45.8773666, "lon": 11.0361377, "tags": {"highway": "bus_stop", "name": "Corso Verona/Via Cainelli", "public_transport": "platform"}}, {"type": "node", "id": 676772773, "lat": 45.8810343, "lon": 11.0395969, "tags": {"bench": "yes", "highway": "bus_stop", "name": "Corso Verona/Ospedale", "public_transport": "platform", "shelter": "yes"}}, {"type": "node", "id": 692740840, "lat": 45.8437744, "lon": 11.0086101, "tags": {"bench": "yes", "bin": "yes", "bus": "yes", "departures_board": "timetable", "highway": "bus_stop", "name": "Marco officina/centro", "public_transport": "platform", "shelter": "yes"}}, {"type": "node", "id": 692740841, "lat": 45.8401367, "lon": 11.0096265, "tags": {"bus": "yes", "highway": "bus_stop", "name": "Marco Via alla Ghiffia", "public_transport": "platform"}}, {"type": "node", "id": 692740842, "lat": 45.841519, "lon": 11.0083383, "tags": {"bench": "no", "bin": "yes", "highway": "bus_stop", "name": "Marco chiesa", "public_transport": "platform", "shelter": "yes"}}, {"type": "node", "id": 702191692, "lat": 45.7975754, "lon": 11.0155255, "tags": {"bench": "yes", "bin": "yes", "highway": "bus_stop", "name": "Santa Lucia di Ala", "public_transport": "platform", "shelter": "yes", "tactile_paving": "no"}}, {"type": "node", "id": 742885800, "lat": 45.886997, "lon": 11.0639555, "tags": {"bus": "yes", "highway": "bus_stop", "name": "SP2 Campolongo di Noriglio", "public_transport": "platform"}}, {"type": "node", "id": 748783139, "lat": 45.8180633, "lon": 10.9564114, "tags": {"bench": "yes", "bin": "no", "bus": "yes", "highway": "bus_stop", "lit": "yes", "name": "Brentonico - Via Roma", "public_transport": "platform", "shelter": "yes", "tactile_paving": "no"}}, {"type": "node", "id": 794421788, "lat": 45.9180372, "lon": 11.0197062, "tags": {"highway": "bus_stop", "name": "Pedersano centro", "public_transport": "platform"}}, {"type": "node", "id": 794421791, "lat": 45.9225638, "lon": 11.0203498, "tags": {"highway": "bus_stop", "name": "Pedersano Capolinea", "public_transport": "platform"}}, {"type": "node", "id": 856300706, "lat": 45.7582314, "lon": 11.1443833, "tags": {"bench": "yes", "bus": "yes", "highway": "bus_stop", "name": "Camposilvano li", "public_transport": "platform", "shelter": "yes"}}, {"type": "node", "id": 856300809, "lat": 45.7601466, "lon": 11.1430612, "tags": {"bus": "yes", "highway": "bus_stop", "name": "Camposilvano", "public_transport": "platform", "shelter": "no"}}, {"type": "node", "id": 856300888, "lat": 45.7582569, "lon": 11.1444007, "tags": {"bus": "yes", "highway": "bus_stop", "name": "Camposilvano li", "public_transport": "platform", "shelter": "no"}}, {"type": "node", "id": 859538672, "lat": 45.9411082, "lon": 11.2511907, "tags": {"bench": "no", "highway": "bus_stop", "name": "Lavarone Chiesa", "operator": "Trentino Trasporti", "public_transport": "platform", "shelter": "no", "tactile_paving": "no"}}, {"type": "node", "id": 859538678, "lat": 45.940943, "lon": 11.2511079, "tags": {"bench": "no", "bin": "no", "check_date:shelter": "2021-12-29", "highway": "bus_stop", "name": "Lavarone Chiesa", "operator": "Atesina", "public_transport": "platform", "shelter": "no", "tactile_paving": "no"}}, {"type": "node", "id": 883432673, "lat": 45.9696191, "lon": 11.2328653, "tags": {"bench": "yes", "bin": "yes", "bus": "yes", "highway": "bus_stop", "lit": "yes", "name": "Centa (San Nicol\u00f2)", "public_transport": "platform", "shelter": "yes", "tactile_paving": "no", "wheelchair": "yes"}}, {"type": "node", "id": 899273579, "lat": 45.9780608, "lon": 11.0660689, "tags": {"bench": "yes", "bus": "yes", "highway": "bus_stop", "name": "Cimone", "public_transport": "platform", "shelter": "yes", "tactile_paving": "yes"}}, {"type": "node", "id": 903015936, "lat": 45.9120273, "lon": 10.9020144, "tags": {"bench": "yes", "bus": "yes", "highway": "bus_stop", "lit": "yes", "name": "Bolognano Viale Stazione", "public_transport": "platform", "shelter": "yes", "tactile_paving": "no"}}, {"type": "node", "id": 938433018, "lat": 45.918209, "lon": 10.8879862, "tags": {"bench": "no", "bin": "yes", "bus": "yes", "highway": "bus_stop", "lit": "yes", "name": "Arco Foro Boario", "public_transport": "platform", "shelter": "no", "tactile_paving": "no"}}, {"type": "node", "id": 960789697, "lat": 46.0088461, "lon": 11.3153694, "tags": {"bus": "yes", "highway": "bus_stop", "name": "Levico T. (Cimitero)", "public_transport": "platform"}}, {"type": "node", "id": 961403467, "lat": 46.0159628, "lon": 11.291478, "tags": {"bus": "yes", "highway": "bus_stop", "public_transport": "platform"}}, {"type": "node", "id": 961403478, "lat": 46.0160859, "lon": 11.2914512, "tags": {"bus": "yes", "highway": "bus_stop", "public_transport": "platform"}}, {"type": "node", "id": 963725924, "lat": 45.9932993, "lon": 11.2606251, "tags": {"bench": "yes", "bin": "no", "bus": "yes", "highway": "bus_stop", "lit": "no", "name": "Via marconi VVF", "operator": "Trentino Trasporti", "public_transport": "platform", "shelter": "yes", "tactile_paving": "no"}}, {"type": "node", "id": 963726271, "lat": 45.9934635, "lon": 11.2607431, "tags": {"bench": "yes", "bin": "yes", "bus": "yes", "highway": "bus_stop", "lit": "no", "name": "Via marconi", "operator": "Trentino Trasporti", "public_transport": "platform", "shelter": "yes", "tactile_paving": "no"}}, {"type": "node", "id": 963726942, "lat": 46.0040526, "lon": 11.243444, "tags": {"bench": "yes", "bin": "yes", "bus": "yes", "highway": "bus_stop", "lit": "yes", "name": "Calceranica al Lago", "public_transport": "platform", "shelter": "yes", "tactile_paving": "no"}}, {"type": "node", "id": 963727210, "lat": 46.0040736, "lon": 11.2431156, "tags": {"bench": "yes", "bin": "yes", "bus": "yes", "highway": "bus_stop", "lit": "yes", "name": "Calceranica al Lago", "public_transport": "platform", "shelter": "yes", "tactile_paving": "no"}}, {"type": "node", "id": 963727423, "lat": 46.006487, "lon": 11.241158, "tags": {"bench": "no", "bin": "no", "bus": "yes", "highway": "bus_stop", "lit": "yes", "name": "Calceranica Via Donegani", "public_transport": "platform", "shelter": "no", "tactile_paving": "no"}}, {"type": "node", "id": 963727667, "lat": 46.0065771, "lon": 11.240957, "tags": {"bench": "no", "bin": "no", "bus": "yes", "highway": "bus_stop", "lit": "yes", "name": "Calceranica Via Donegani", "public_transport": "platform", "shelter": "no", "tactile_paving": "no"}}, {"type": "node", "id": 965397920, "lat": 46.0047311, "lon": 11.2749473, "tags": {"bus": "yes", "highway": "bus_stop", "name": "Brenta Bivio", "public_transport": "platform"}}, {"type": "node", "id": 965398157, "lat": 46.0047927, "lon": 11.2744535, "tags": {"bus": "yes", "highway": "bus_stop", "name": "Brenta Bivio", "public_transport": "platform"}}, {"type": "node", "id": 1024762677, "lat": 45.8785467, "lon": 10.8906829, "tags": {"bench": "no", "bin": "yes", "bus": "yes", "highway": "bus_stop", "lit": "yes", "name": "Nago", "public_transport": "platform", "shelter": "yes", "tactile_paving": "no"}}, {"type": "node", "id": 1024762683, "lat": 45.8783575, "lon": 10.8906618, "tags": {"bench": "no", "bin": "yes", "bus": "yes", "highway": "bus_stop", "lit": "yes", "name": "Nago", "public_transport": "platform", "shelter": "yes", "tactile_paving": "no"}}, {"type": "node", "id": 1024893574, "lat": 45.918401, "lon": 10.8883301, "tags": {"bus": "yes", "highway": "bus_stop", "name": "Foro Boario", "public_transport": "platform", "shelter": "yes"}}, {"type": "node", "id": 1106771302, "lat": 46.0060668, "lon": 11.3046069, "tags": {"bus": "yes", "highway": "bus_stop", "lit": "yes", "name": "Levico Terme (Stazione FS)", "public_transport": "platform", "shelter": "yes"}}, {"type": "node", "id": 1125002281, "lat": 46.0253907, "lon": 11.1327427, "tags": {"bench": "no", "bin": "no", "bus": "yes", "highway": "bus_stop", "name": "SS12 / \"Casteller\"", "public_transport": "platform", "shelter": "no", "tactile_paving": "no", "wheelchair": "no"}}, {"type": "node", "id": 1146894377, "lat": 46.0130673, "lon": 11.1055499, "tags": {"bus": "yes", "highway": "bus_stop", "name": "Romagnano / sud", "public_transport": "platform", "shelter": "no"}}, {"type": "node", "id": 1241945921, "lat": 45.9214445, "lon": 10.8916029, "tags": {"bench": "yes", "bin": "yes", "bus": "yes", "highway": "bus_stop", "lit": "yes", "name": "Arco Svizzera", "public_transport": "platform", "shelter": "yes", "tactile_paving": "no"}}, {"type": "node", "id": 1241945922, "lat": 45.9213026, "lon": 10.8916157, "tags": {"bench": "yes", "bin": "yes", "bus": "yes", "highway": "bus_stop", "lit": "yes", "name": "Arco Svizzera", "public_transport": "platform", "shelter": "yes", "tactile_paving": "no"}}, {"type": "node", "id": 1293797378, "lat": 45.9287627, "lon": 11.0723603, "tags": {"bench": "yes", "highway": "bus_stop", "name": "Nomi piazza Springa", "public_transport": "platform", "shelter": "yes"}}, {"type": "node", "id": 1364971582, "lat": 46.0213608, "lon": 11.0422059, "tags": {"bus": "yes", "highway": "bus_stop", "name": "Viote. Parcheggio", "public_transport": "platform", "shelter": "no"}}, {"type": "node", "id": 1364971584, "lat": 46.0318956, "lon": 11.045893, "tags": {"bench": "no", "bin": "no", "highway": "bus_stop", "lit": "no", "name": "Rocco Rosse", "public_transport": "platform", "shelter": "no", "tactile_paving": "no"}}, {"type": "node", "id": 1364971586, "lat": 46.03199, "lon": 11.0457491, "tags": {"bench": "no", "highway": "bus_stop", "name": "Rocco Rosse", "public_transport": "platform", "shelter": "no"}}, {"type": "node", "id": 1368768223, "lat": 45.9165775, "lon": 11.0585398, "tags": {"highway": "bus_stop", "name": "Volano \"Via Europa\"", "public_transport": "platform"}}, {"type": "node", "id": 1368768225, "lat": 45.9174477, "lon": 11.0575753, "tags": {"highway": "bus_stop", "name": "Volano Via Des Tor", "public_transport": "platform"}}, {"type": "node", "id": 1368768232, "lat": 45.9171412, "lon": 11.0699004, "tags": {"bus": "yes", "highway": "bus_stop", "name": "Volano Via Roma", "public_transport": "platform", "wheelchair": "yes"}}, {"type": "node", "id": 1374813262, "lat": 45.886895, "lon": 11.0636696, "tags": {"bus": "yes", "highway": "bus_stop", "name": "SP2 Campolongo di Noriglio", "public_transport": "platform"}}, {"type": "node", "id": 1376085398, "lat": 46.0222446, "lon": 11.3660113, "tags": {"bench": "yes", "highway": "bus_stop", "name": "Novaledo", "public_transport": "platform", "shelter": "yes"}}, {"type": "node", "id": 1399421531, "lat": 45.9176094, "lon": 11.1378906, "tags": {"bench": "yes", "bin": "yes", "bus": "yes", "departures_board": "timetable", "designation": "Calliano-Rovereto", "highway": "bus_stop", "name": "Mezzomonte(di Sopra)", "operator": "TTesercizio", "public_transport": "platform", "shelter": "yes", "tactile_paving": "no"}}, {"type": "node", "id": 1411306762, "lat": 46.0121675, "lon": 11.1048993, "tags": {"bus": "yes", "highway": "bus_stop", "name": "Romagnano / sud", "public_transport": "platform", "shelter": "no"}}, {"type": "node", "id": 1411306832, "lat": 46.0142675, "lon": 11.1043599, "tags": {"bus": "yes", "highway": "bus_stop", "name": "Romagnano / 7 Fontane", "public_transport": "platform", "shelter": "no"}}, {"type": "node", "id": 1411306838, "lat": 46.0145654, "lon": 11.1067173, "tags": {"bus": "yes", "highway": "bus_stop", "name": "Romagnano / Fontanelle", "public_transport": "platform", "shelter": "no"}}, {"type": "node", "id": 1411306853, "lat": 46.0148534, "lon": 11.105223, "tags": {"bus": "yes", "highway": "bus_stop", "name": "Romagnano / 7 Fontane", "public_transport": "platform", "shelter": "no"}}, {"type": "node", "id": 1411306861, "lat": 46.015311, "lon": 11.1071658, "tags": {"alt_name": "Romagnano Bivio", "bus": "yes", "highway": "bus_stop", "name": "Romagnano bivio / Fontanelle", "public_transport": "platform", "shelter": "no"}}, {"type": "node", "id": 1411306915, "lat": 46.016433, "lon": 11.1082215, "tags": {"alt_name": "Romagnano Bivio", "bench": "yes", "bus": "yes", "highway": "bus_stop", "name": "Romagnano / Rimoni", "public_transport": "platform", "shelter": "yes", "wheelchair": "yes"}}, {"type": "node", "id": 1411306949, "lat": 46.0169007, "lon": 11.1083489, "tags": {"bus": "yes", "highway": "bus_stop", "name": "Romagnano / Rimoni", "public_transport": "platform", "shelter": "no", "wheelchair": "yes"}}, {"type": "node", "id": 1411307040, "lat": 46.0177518, "lon": 11.1058777, "tags": {"bench": "yes", "bus": "yes", "highway": "bus_stop", "name": "Romagnano / Piazza Condini", "public_transport": "platform", "shelter": "yes", "wheelchair": "yes"}}, {"type": "node", "id": 1411307364, "lat": 46.0199961, "lon": 11.1108968, "tags": {"bus": "yes", "highway": "bus_stop", "name": "Romagnano / nord", "public_transport": "platform", "shelter": "no"}}, {"type": "node", "id": 1411307381, "lat": 46.0201689, "lon": 11.1108595, "tags": {"bus": "yes", "highway": "bus_stop", "name": "Romagnano / nord", "public_transport": "platform", "shelter": "no"}}, {"type": "node", "id": 1608971477, "lat": 46.0095701, "lon": 11.117117, "tags": {"bus": "yes", "highway": "bus_stop", "name": "Romagnano - SP131 Km 2", "public_transport": "platform", "shelter": "no"}}, {"type": "node", "id": 1608971479, "lat": 46.0095898, "lon": 11.1175359, "tags": {"bus": "yes", "highway": "bus_stop", "name": "Romagnano - SP131 Km 2", "public_transport": "platform", "shelter": "no"}}, {"type": "node", "id": 1608971488, "lat": 46.0121367, "lon": 11.1079076, "tags": {"bus": "yes", "highway": "bus_stop", "name": "Romagnano - SP131 Km 1", "public_transport": "platform", "shelter": "no"}}, {"type": "node", "id": 1608971489, "lat": 46.0123664, "lon": 11.1070239, "tags": {"bus": "yes", "highway": "bus_stop", "name": "Romagnano - SP131 Km 1", "public_transport": "platform", "shelter": "no"}}, {"type": "node", "id": 1670662885, "lat": 45.9280511, "lon": 11.0760742, "tags": {"highway": "bus_stop", "name": "Nomi Casa Di Riposo", "public_transport": "platform", "shelter": "yes", "tactile_paving": "no"}}, {"type": "node", "id": 1685067381, "lat": 46.0114635, "lon": 11.1303024, "tags": {"bench": "yes", "bus": "yes", "highway": "bus_stop", "name": "Mattarello / via Nazionale", "public_transport": "platform", "shelter": "yes", "wheelchair": "no"}}, {"type": "node", "id": 1685067818, "lat": 46.0093519, "lon": 11.1289598, "tags": {"bus": "yes", "highway": "bus_stop", "name": "Mattarello / Catoni", "public_transport": "platform", "shelter": "no", "wheelchair": "yes"}}, {"type": "node", "id": 1685067925, "lat": 46.0124841, "lon": 11.1306556, "tags": {"alt_name": "Mattarello - Via Nazionale", "bench": "no", "bin": "no", "bus": "yes", "highway": "bus_stop", "lit": "yes", "name": "Mattarello / via Nazionale", "public_transport": "platform", "shelter": "no", "tactile_paving": "no", "wheelchair": "yes"}}, {"type": "node", "id": 1720570000, "lat": 45.9283242, "lon": 11.074562, "tags": {"highway": "bus_stop", "name": "Nomi ex. Cantina Sociale", "public_transport": "platform"}}, {"type": "node", "id": 1720571042, "lat": 45.9360922, "lon": 11.0883968, "tags": {"bus": "yes", "highway": "bus_stop", "name": "Nomi SP90 Tre.cur.t", "public_transport": "platform"}}, {"type": "node", "id": 1806514241, "lat": 45.917159, "lon": 11.1669906, "tags": {"bus": "yes", "highway": "bus_stop", "name": "Folgaria Via Battisti", "operator": "Trentino Trasporti", "public_transport": "platform", "shelter": "no"}}, {"type": "node", "id": 1806514257, "lat": 45.9172518, "lon": 11.1668437, "tags": {"bus": "yes", "departures_board": "timetable", "highway": "bus_stop", "name": "Folgaria Via Battisti", "operator": "Trentino Trasporti", "public_transport": "platform", "shelter": "no"}}, {"type": "node", "id": 1961427258, "lat": 45.8774693, "lon": 10.9915177, "tags": {"bench": "no", "bin": "no", "highway": "bus_stop", "lit": "no", "name": "Lenzima Via della Vittoria", "public_transport": "platform", "shelter": "no", "tactile_paving": "no"}}, {"type": "node", "id": 1984744015, "lat": 45.9946346, "lon": 11.2568936, "tags": {"bench": "no", "bin": "yes", "bus": "yes", "highway": "bus_stop", "operator": "Trentino Trasporti", "public_transport": "platform", "shelter": "no", "tactile_paving": "no"}}, {"type": "node", "id": 1984744017, "lat": 45.9951954, "lon": 11.2566902, "tags": {"bench": "yes", "bin": "yes", "bus": "yes", "highway": "bus_stop", "operator": "Trentino Trasporti", "public_transport": "platform", "shelter": "yes", "tactile_paving": "no"}}, {"type": "node", "id": 1984744650, "lat": 45.9964703, "lon": 11.2590769, "tags": {"bench": "no", "bin": "no", "bus": "yes", "highway": "bus_stop", "lit": "no", "name": "Caldonazzo Distr. Fina", "public_transport": "platform", "shelter": "no", "tactile_paving": "no"}}, {"type": "node", "id": 1984744651, "lat": 45.9964813, "lon": 11.2596572, "tags": {"bench": "no", "bin": "no", "bus": "yes", "highway": "bus_stop", "lit": "yes", "name": "Caldonazzo Distr. Fina", "public_transport": "platform", "shelter": "no", "tactile_paving": "no"}}, {"type": "node", "id": 1984744710, "lat": 45.9971081, "lon": 11.264622, "tags": {"bench": "no", "bin": "no", "bus": "yes", "highway": "bus_stop", "lit": "yes", "name": "Caldonazzo Viale Trento", "public_transport": "platform", "shelter": "no", "tactile_paving": "no"}}, {"type": "node", "id": 1984744716, "lat": 45.9972114, "lon": 11.2647608, "tags": {"bench": "yes", "bin": "no", "bus": "yes", "highway": "bus_stop", "lit": "yes", "name": "Caldonazzo Viale Trento", "public_transport": "platform", "shelter": "no", "tactile_paving": "no"}}, {"type": "node", "id": 2011416586, "lat": 45.8978037, "lon": 11.0020735, "tags": {"bench": "no", "highway": "bus_stop", "name": "Patone Gera", "public_transport": "platform"}}, {"type": "node", "id": 2178942927, "lat": 45.9108607, "lon": 11.0123057, "tags": {"bus": "yes", "highway": "bus_stop", "name": "Noarna", "public_transport": "platform"}}, {"type": "node", "id": 2199905187, "lat": 45.8813569, "lon": 11.0318139, "tags": {"bench": "no", "bin": "no", "bus": "yes", "highway": "bus_stop", "lit": "yes", "name": "Rovereto Rist. Christina", "public_transport": "platform", "shelter": "no", "tactile_paving": "no", "wheelchair": "yes"}}, {"type": "node", "id": 2245129092, "lat": 46.0289287, "lon": 11.1115751, "tags": {"bus": "yes", "highway": "bus_stop", "name": "SP90 / \"Maso Prudenza\"", "public_transport": "platform", "shelter": "no"}}, {"type": "node", "id": 2245129093, "lat": 46.0291832, "lon": 11.1117176, "tags": {"bus": "yes", "highway": "bus_stop", "name": "SP90 / \"Maso Prudenza\"", "public_transport": "platform", "shelter": "no"}}, {"type": "node", "id": 2263494372, "lat": 46.025714, "lon": 11.132794, "tags": {"bench": "no", "bin": "no", "bus": "yes", "highway": "bus_stop", "name": "SS12 / \"Casteller\"", "network": "Trentino Trasporti", "operator": "http://www.ttesercizio.it", "public_transport": "platform", "shelter": "no", "tactile_paving": "no", "wheelchair": "no"}}, {"type": "node", "id": 2263494417, "lat": 46.0300155, "lon": 11.1329671, "tags": {"bench": "yes", "bin": "no", "bus": "yes", "highway": "bus_stop", "lit": "yes", "name": "SS12 / \"Le Caverne\"", "public_transport": "platform", "shelter": "yes", "tactile_paving": "no", "wheelchair": "yes"}}, {"type": "node", "id": 2263605941, "lat": 46.0172416, "lon": 11.1324683, "tags": {"alt_name": "Mattarello - Localit\u00e0 Ronchi", "bus": "yes", "highway": "bus_stop", "name": "Mattarello / \"Ronchi\"", "public_transport": "platform", "wheelchair": "no"}}, {"type": "node", "id": 2263605946, "lat": 46.017533, "lon": 11.1326045, "tags": {"alt_name": "Mattarello - Localit\u00e0 Ronchi", "bus": "yes", "highway": "bus_stop", "name": "Mattarello / \"Ronchi\"", "public_transport": "platform", "wheelchair": "no"}}, {"type": "node", "id": 2293027048, "lat": 45.9455975, "lon": 11.2388666, "tags": {"highway": "bus_stop", "name": "Virti", "public_transport": "platform", "source": "survey", "wheelchair": "yes"}}, {"type": "node", "id": 2327597857, "lat": 45.9224622, "lon": 11.0201755, "tags": {"highway": "bus_stop", "name": "Pedersano (Capolinea)", "public_transport": "platform"}}, {"type": "node", "id": 2371808139, "lat": 45.8862142, "lon": 11.0208907, "tags": {"highway": "bus_stop", "name": "Via Raffaele Zotti", "public_transport": "platform"}}, {"type": "node", "id": 2372019803, "lat": 45.8820357, "lon": 11.0714646, "tags": {"bus": "yes", "highway": "bus_stop", "name": "Noriglio Beccach\u00e8", "public_transport": "platform"}}, {"type": "node", "id": 2372019819, "lat": 45.8845354, "lon": 11.0728251, "tags": {"bus": "yes", "highway": "bus_stop", "name": "Costa di Noriglio Capolinea", "public_transport": "platform"}}, {"type": "node", "id": 2394806702, "lat": 45.9653296, "lon": 10.9736899, "tags": {"bus": "yes", "highway": "bus_stop", "name": "Masi di Vigo Cavedine", "operator": "Trentino Trasporti", "public_transport": "platform"}}, {"type": "node", "id": 2394806703, "lat": 45.9724469, "lon": 10.974044, "tags": {"bus": "yes", "highway": "bus_stop", "name": "Masi di Vigo Cavedine Bivio", "operator": "Trentino Trasporti", "public_transport": "platform"}}, {"type": "node", "id": 2394806704, "lat": 45.9726593, "lon": 10.9740392, "tags": {"bus": "yes", "highway": "bus_stop", "name": "Masi di Vigo Cavedine Bivio", "operator": "Trentino Trasporti", "public_transport": "platform"}}, {"type": "node", "id": 2394806705, "lat": 45.9752577, "lon": 10.975164, "tags": {"bus": "yes", "highway": "bus_stop", "name": "Vigo Cavedine Via S. Udalrico", "operator": "Trentino Trasporti", "public_transport": "platform"}}, {"type": "node", "id": 2394806706, "lat": 45.9755627, "lon": 10.9749614, "tags": {"bus": "yes", "highway": "bus_stop", "name": "Vigo Cavedine Via S. Udalrico", "operator": "Trentino Trasporti", "public_transport": "platform", "shelter": "yes"}}, {"type": "node", "id": 2394806707, "lat": 45.9780001, "lon": 10.9777369, "tags": {"bus": "yes", "highway": "bus_stop", "name": "Vigo Cavedine bivio ( via Nuova)", "operator": "Trentino Trasporti", "public_transport": "platform"}}, {"type": "node", "id": 2394806708, "lat": 45.9780167, "lon": 10.9767105, "tags": {"bus": "yes", "highway": "bus_stop", "name": "Vigo Cavedine SP84", "operator": "Trentino Trasporti", "public_transport": "platform"}}, {"type": "node", "id": 2394806709, "lat": 45.9780283, "lon": 10.9769229, "tags": {"bus": "yes", "highway": "bus_stop", "name": "Vigo Cavedine SP84", "operator": "Trentino Trasporti", "public_transport": "platform"}}, {"type": "node", "id": 2394806710, "lat": 45.9781196, "lon": 10.9777321, "tags": {"bus": "yes", "highway": "bus_stop", "name": "Vigo Cavedine bivio ( via Nuova)", "operator": "Trentino Trasporti", "public_transport": "platform", "shelter": "yes"}}, {"type": "node", "id": 2394806711, "lat": 45.9814967, "lon": 10.9778296, "tags": {"bus": "yes", "highway": "bus_stop", "name": "Vigo Cavedine nord Via Capitello (dir. Riva)", "operator": "Trentino Trasporti", "public_transport": "platform"}}, {"type": "node", "id": 2394806712, "lat": 45.9816526, "lon": 10.9780492, "tags": {"bus": "yes", "highway": "bus_stop", "name": "Vigo Cavedine nord Via Capitello ( dir. Trento)", "operator": "Trentino Trasporti", "public_transport": "platform"}}, {"type": "node", "id": 2394806713, "lat": 45.9843818, "lon": 10.97782, "tags": {"bus": "yes", "highway": "bus_stop", "name": "Cavedine Loc. Mai", "operator": "Trentino Trasporti", "public_transport": "platform"}}, {"type": "node", "id": 2394806714, "lat": 45.9968339, "lon": 10.9772146, "tags": {"bus": "yes", "highway": "bus_stop", "name": "Cavedine Telsar Spa", "operator": "Trentino Trasporti", "public_transport": "platform"}}, {"type": "node", "id": 2394806715, "lat": 45.9969551, "lon": 10.9770657, "tags": {"bus": "yes", "highway": "bus_stop", "name": "Cavedine Telsar Spa", "operator": "Trentino Trasporti", "public_transport": "platform"}}, {"type": "node", "id": 2394806716, "lat": 46.0027234, "lon": 10.9801351, "tags": {"bus": "yes", "highway": "bus_stop", "name": "Stravino (dir. Riva dG)", "operator": "Trentino Trasporti (linea 204)", "public_transport": "platform", "website": "http://www.ttesercizio.it"}}, {"type": "node", "id": 2394806717, "lat": 46.0034552, "lon": 10.9805853, "tags": {"bus": "yes", "highway": "bus_stop", "name": "Stravino (dir. Trento)", "operator": "Trentino Trasporti (linea 204)", "public_transport": "platform", "shelter": "yes", "website": "http://www.ttesercizio.it"}}, {"type": "node", "id": 2394806718, "lat": 46.0075255, "lon": 10.9811937, "tags": {"bus": "yes", "highway": "bus_stop", "name": "Stravino (loc. Berlonga) dir. Trento", "operator": "Trentino Trasporti", "public_transport": "platform", "shelter": "yes"}}, {"type": "node", "id": 2394806719, "lat": 46.0075028, "lon": 10.9809401, "tags": {"bus": "yes", "highway": "bus_stop", "name": "Stravino (loc. Berlonga)", "operator": "Trentino Trasporti", "public_transport": "platform"}}, {"type": "node", "id": 2394806720, "lat": 46.0247473, "lon": 10.9813548, "tags": {"bus": "yes", "highway": "bus_stop", "name": "Lasino Pizzeria 4 Stagioni (Sp84)", "operator": "Trentino Trasporti", "public_transport": "platform"}}, {"type": "node", "id": 2394806721, "lat": 46.0248114, "lon": 10.9812016, "tags": {"bus": "yes", "highway": "bus_stop", "name": "Lasino Pizzeria 4 Stagioni (Sp84)", "operator": "Trentino Trasporti", "public_transport": "platform"}}, {"type": "node", "id": 2434397627, "lat": 45.9461771, "lon": 10.9029968, "tags": {"bench": "no", "bin": "no", "bus": "yes", "highway": "bus_stop", "lit": "yes", "name": "Ceniga Bivio Sud", "public_transport": "platform", "shelter": "no", "tactile_paving": "no"}}, {"type": "node", "id": 2434397628, "lat": 45.9462576, "lon": 10.9031284, "tags": {"bench": "no", "bin": "no", "bus": "yes", "highway": "bus_stop", "lit": "yes", "name": "Ceniga Bivio Sud", "public_transport": "platform", "shelter": "no", "tactile_paving": "no"}}, {"type": "node", "id": 2434397629, "lat": 45.9515657, "lon": 10.9008103, "tags": {"bench": "yes", "bin": "yes", "bus": "yes", "highway": "bus_stop", "lit": "yes", "name": "Ceniga", "public_transport": "platform", "shelter": "yes", "tactile_paving": "no"}}, {"type": "node", "id": 2434397630, "lat": 45.9520463, "lon": 10.9009039, "tags": {"bench": "yes", "bus": "yes", "highway": "bus_stop", "lit": "no", "name": "Ceniga", "public_transport": "platform", "shelter": "no"}}, {"type": "node", "id": 2434397631, "lat": 45.9582032, "lon": 10.9060271, "tags": {"bench": "yes", "bin": "no", "bus": "yes", "highway": "bus_stop", "lit": "yes", "name": "Dro Carabinieri", "public_transport": "platform", "shelter": "yes", "tactile_paving": "no"}}, {"type": "node", "id": 2434397632, "lat": 45.9586348, "lon": 10.9067525, "tags": {"bench": "no", "bin": "no", "bus": "yes", "departures_board": "timetable", "highway": "bus_stop", "lit": "yes", "name": "Dro Carabinieri", "operator": "Trentino trasporti", "public_transport": "platform", "shelter": "no", "tactile_paving": "no"}}, {"type": "node", "id": 2434397634, "lat": 45.9612835, "lon": 10.9107431, "tags": {"bench": "yes", "bin": "yes", "bus": "yes", "highway": "bus_stop", "lit": "yes", "name": "Dro", "public_transport": "platform", "shelter": "yes", "tactile_paving": "no"}}, {"type": "node", "id": 2434397635, "lat": 45.9614222, "lon": 10.910714, "tags": {"bench": "yes", "bin": "yes", "bus": "yes", "highway": "bus_stop", "lit": "yes", "name": "Dro", "public_transport": "platform", "shelter": "yes", "tactile_paving": "no"}}, {"type": "node", "id": 2485130504, "lat": 45.8865322, "lon": 11.0445907, "tags": {"bench": "yes", "bin": "no", "highway": "bus_stop", "lit": "yes", "name": "Rovereto Via Calcinari", "public_transport": "platform", "shelter": "yes", "tactile_paving": "no"}}, {"type": "node", "id": 2493857567, "lat": 45.9658787, "lon": 10.9624216, "tags": {"bench": "yes", "highway": "bus_stop", "lit": "yes", "name": "Localit\u00e0 Luch", "operator": "Trentino Trasporti", "public_transport": "platform", "shelter": "yes", "tactile_paving": "no"}}, {"type": "node", "id": 2499958438, "lat": 45.8864051, "lon": 11.0456882, "tags": {"bench": "no", "bin": "yes", "highway": "bus_stop", "lit": "yes", "name": "Piazza Podest\u00e0", "public_transport": "platform", "shelter": "no", "tactile_paving": "no"}}, {"type": "node", "id": 2516765497, "lat": 45.9939284, "lon": 10.9732965, "tags": {"bench": "yes", "highway": "bus_stop", "name": "Cavedine", "operator": "Trentino Trasporti (Linea 204)", "public_transport": "platform", "shelter": "yes", "website": "www.ttesercizio.it"}}, {"type": "node", "id": 2516791046, "lat": 45.978916, "lon": 10.9811974, "tags": {"highway": "bus_stop", "name": "Vigo Cavedine (piazza)", "operator": "Trentino Trasporti ( linea 204)", "public_transport": "platform", "shelter": "yes"}}, {"type": "node", "id": 2516791053, "lat": 45.9711699, "lon": 10.9443837, "tags": {"bench": "no", "highway": "bus_stop", "name": "Drena", "public_transport": "platform", "shelter": "no", "tactile_paving": "no"}}, {"type": "node", "id": 2516791055, "lat": 45.9710479, "lon": 10.9444326, "tags": {"bench": "yes", "highway": "bus_stop", "name": "Drena", "public_transport": "platform", "shelter": "yes", "tactile_paving": "no"}}, {"type": "node", "id": 2516808169, "lat": 46.0230605, "lon": 10.9832995, "tags": {"bin": "yes", "highway": "bus_stop", "name": "Lasino piazza", "public_transport": "platform", "shelter": "yes"}}, {"type": "node", "id": 2516808173, "lat": 46.0230181, "lon": 10.9831233, "tags": {"highway": "bus_stop", "name": "Lasino piazza ( dir. sud)", "public_transport": "platform"}}, {"type": "node", "id": 2530774847, "lat": 45.9333078, "lon": 11.0963293, "tags": {"bench": "no", "bin": "no", "bus": "yes", "highway": "bus_stop", "name": "Calliano bivio Folgaria da Folgaria", "operator": "Trentino Trasporti", "public_transport": "platform", "shelter": "no", "tactile_paving": "no"}}, {"type": "node", "id": 2530774848, "lat": 45.9330096, "lon": 11.0967518, "tags": {"bench": "no", "bin": "no", "bus": "yes", "highway": "bus_stop", "name": "Calliano bivio Folgaria per Folgaria", "operator": "Trentino Trasporti", "public_transport": "platform", "shelter": "no", "tactile_paving": "no"}}, {"type": "node", "id": 2530776102, "lat": 45.9317826, "lon": 11.0926006, "tags": {"bus": "yes", "departures_board": "yes", "highway": "bus_stop", "name": "Calliano Via Marcolini", "operator": "Trentino Trasporti", "public_transport": "platform", "shelter": "yes"}}, {"type": "node", "id": 2581639889, "lat": 46.0218984, "lon": 11.0410433, "tags": {"bus": "yes", "highway": "bus_stop", "name": "Viote. Parcheggio", "public_transport": "platform", "shelter": "no"}}, {"type": "node", "id": 2623279977, "lat": 45.8874216, "lon": 11.0253337, "tags": {"bench": "yes", "bin": "yes", "bus": "yes", "departures_board": "yes", "highway": "bus_stop", "name": "Via Pasubio Via Unione", "public_transport": "platform", "shelter": "yes"}}, {"type": "node", "id": 2625661603, "lat": 45.8960047, "lon": 11.0309358, "tags": {"bus": "yes", "highway": "bus_stop", "name": "Via Balista", "public_transport": "platform"}}, {"type": "node", "id": 2716971675, "lat": 45.8793606, "lon": 11.0234206, "tags": {"highway": "bus_stop", "name": "capolinea ponte Zigherane", "public_transport": "platform"}}, {"type": "node", "id": 2716992405, "lat": 45.8850629, "lon": 11.023283, "tags": {"highway": "bus_stop", "name": "Via Unione scuole Degasperi", "public_transport": "platform"}}, {"type": "node", "id": 2716992406, "lat": 45.8860928, "lon": 11.0231443, "tags": {"bus": "yes", "highway": "bus_stop", "name": "Via Unione Via Zotti", "public_transport": "platform", "shelter": "no", "tactile_paving": "no"}}, {"type": "node", "id": 2716992407, "lat": 45.88821, "lon": 11.0240449, "tags": {"bus": "yes", "highway": "bus_stop", "name": "Via Unione scuole Filzi", "public_transport": "platform"}}, {"type": "node", "id": 2716992408, "lat": 45.8934514, "lon": 11.0274741, "tags": {"bus": "yes", "highway": "bus_stop", "name": "Via Unione", "public_transport": "platform"}}, {"type": "node", "id": 2716992409, "lat": 45.8934577, "lon": 11.0274172, "tags": {"bench": "no", "bus": "yes", "highway": "bus_stop", "name": "Via Unione", "public_transport": "platform", "shelter": "no"}}, {"type": "node", "id": 2716992410, "lat": 45.8954447, "lon": 11.0295668, "tags": {"bus": "yes", "highway": "bus_stop", "name": "Piazzale San Giorgio est", "public_transport": "platform", "shelter": "yes"}}, {"type": "node", "id": 2717291437, "lat": 45.9729472, "lon": 11.2332805, "tags": {"bench": "no", "bin": "no", "bus": "yes", "highway": "bus_stop", "lit": "no", "name": "Maso Uezi", "public_transport": "platform", "shelter": "no", "tactile_paving": "no"}}, {"type": "node", "id": 2719027877, "lat": 45.9850037, "lon": 11.232523, "tags": {"bench": "no", "bin": "no", "bus": "yes", "highway": "bus_stop", "lit": "no", "name": "Campregheri Bivio", "public_transport": "platform", "shelter": "yes", "tactile_paving": "no", "wheelchair": "no"}}, {"type": "node", "id": 2731618419, "lat": 45.9188425, "lon": 11.1922651, "tags": {"bench": "no", "bin": "no", "highway": "bus_stop", "lit": "yes", "name": "Ski train", "public_transport": "platform", "shelter": "no"}}, {"type": "node", "id": 2731618441, "lat": 45.9186312, "lon": 11.1925494, "tags": {"bench": "no", "bin": "no", "bus": "yes", "highway": "bus_stop", "lit": "yes", "name": "Ski bus", "public_transport": "platform", "shelter": "no"}}, {"type": "node", "id": 2731624913, "lat": 45.9133307, "lon": 11.188752, "tags": {"bench": "no", "bin": "yes", "highway": "bus_stop", "lit": "yes", "name": "Ski train", "public_transport": "platform", "shelter": "no"}}, {"type": "node", "id": 2733775750, "lat": 45.9149832, "lon": 11.1734627, "tags": {"bus": "yes", "highway": "bus_stop", "name": "Ski Train", "public_transport": "stop_position"}}, {"type": "node", "id": 2742431294, "lat": 45.8841738, "lon": 11.0729449, "tags": {"bus": "yes", "highway": "bus_stop", "name": "Costa di Noriglio Capolinea", "public_transport": "platform"}}, {"type": "node", "id": 2742431342, "lat": 45.8842712, "lon": 11.0701048, "tags": {"bench": "no", "bin": "no", "bus": "yes", "highway": "bus_stop", "name": "Norgiolo Via Dei Cimbri", "public_transport": "platform", "shelter": "no", "tactile_paving": "no"}}, {"type": "node", "id": 2742431393, "lat": 45.8846269, "lon": 11.0696643, "tags": {"bench": "no", "bin": "no", "bus": "yes", "highway": "bus_stop", "lit": "no", "name": "Norgiolo", "name:signed": "no", "public_transport": "platform", "shelter": "no", "tactile_paving": "no"}}, {"type": "node", "id": 2742431582, "lat": 45.8874139, "lon": 11.0595069, "tags": {"bus": "yes", "highway": "bus_stop", "name": "Noriglio Distributore", "public_transport": "platform"}}, {"type": "node", "id": 2742431587, "lat": 45.8874633, "lon": 11.0595658, "tags": {"bus": "yes", "highway": "bus_stop", "name": "Noriglio Distributore", "public_transport": "platform"}}, {"type": "node", "id": 2744405486, "lat": 45.8909289, "lon": 11.041582, "tags": {"bench": "no", "bin": "no", "highway": "bus_stop", "name": "Corso Rosmini", "operator": "Trentino trasporti esercizio", "public_transport": "platform", "shelter": "yes"}}, {"type": "node", "id": 2754999679, "lat": 45.9263822, "lon": 11.0453648, "tags": {"bus": "yes", "highway": "bus_stop", "name": "Pomorola chiesa", "public_transport": "platform"}}, {"type": "node", "id": 2765663313, "lat": 45.9092953, "lon": 11.0224668, "tags": {"highway": "bus_stop", "name": "Nogaredo scuole elementari", "public_transport": "platform"}}, {"type": "node", "id": 2765663343, "lat": 45.9094226, "lon": 11.0226443, "tags": {"highway": "bus_stop", "name": "Nogaredo scuole elementari", "public_transport": "platform"}}, {"type": "node", "id": 2765663651, "lat": 45.9122031, "lon": 11.0255906, "tags": {"bus": "yes", "highway": "bus_stop", "name": "Nogaredo Via Zuccate", "public_transport": "platform"}}, {"type": "node", "id": 2765663669, "lat": 45.9122941, "lon": 11.0256707, "tags": {"bus": "yes", "highway": "bus_stop", "name": "Nogaredo Via Zuccate", "public_transport": "platform"}}, {"type": "node", "id": 2778034830, "lat": 45.9892939, "lon": 11.0832492, "tags": {"bus": "yes", "highway": "bus_stop", "name": "Garniga Terme Loc.Zobbio", "public_transport": "platform"}}, {"type": "node", "id": 2778034988, "lat": 46.0015188, "lon": 11.0856662, "tags": {"bus": "yes", "highway": "bus_stop", "name": "Garniga Terme", "public_transport": "platform", "shelter": "yes"}}, {"type": "node", "id": 2779000577, "lat": 45.8910112, "lon": 11.0473191, "tags": {"bench": "no", "bin": "yes", "highway": "bus_stop", "lit": "no", "name": "Viale dei Colli Via Scole Alberghiero", "public_transport": "platform", "shelter": "no", "tactile_paving": "no"}}, {"type": "node", "id": 2779000578, "lat": 45.8917807, "lon": 11.0497555, "tags": {"bus": "yes", "highway": "bus_stop", "name": "Viale dei Colli Via Vallunga", "public_transport": "platform"}}, {"type": "node", "id": 2779000579, "lat": 45.8904618, "lon": 11.0501154, "tags": {"bus": "yes", "highway": "bus_stop", "name": "Viale dei Colli san Biagio", "public_transport": "platform"}}, {"type": "node", "id": 2779013760, "lat": 45.8767276, "lon": 11.0903003, "tags": {"bus": "yes", "highway": "bus_stop", "public_transport": "platform"}}, {"type": "node", "id": 2779013764, "lat": 45.8812377, "lon": 11.0775076, "tags": {"bus": "yes", "highway": "bus_stop", "name": "bivio per Senter", "public_transport": "platform"}}, {"type": "node", "id": 2779013767, "lat": 45.8861283, "lon": 11.0762486, "tags": {"highway": "bus_stop", "name": "Casa del Felegname", "public_transport": "platform"}}, {"type": "node", "id": 2779013769, "lat": 45.8830881, "lon": 11.0795546, "tags": {"bus": "yes", "highway": "bus_stop", "name": "Maso Mortal", "public_transport": "platform"}}, {"type": "node", "id": 2786235121, "lat": 45.8644833, "lon": 11.0292761, "tags": {"highway": "bus_stop", "name": "Lizzana SS12 Rovercenter", "public_transport": "platform"}}, {"type": "node", "id": 2786470593, "lat": 46.0078648, "lon": 11.1567866, "tags": {"bench": "no", "bin": "no", "bus": "yes", "highway": "bus_stop", "lit": "yes", "name": "Valsorda", "network": "Servizio extraurbano", "operator": "Trentino Trasporti", "public_transport": "platform", "shelter": "no", "tactile_paving": "no"}}, {"type": "node", "id": 2786470608, "lat": 46.0080399, "lon": 11.156557, "tags": {"bench": "yes", "bin": "no", "bus": "yes", "highway": "bus_stop", "lit": "yes", "name": "Valsorda", "public_transport": "platform", "shelter": "yes", "tactile_paving": "no"}}, {"type": "node", "id": 2882931678, "lat": 45.8554137, "lon": 10.9864935, "tags": {"bus": "yes", "highway": "bus_stop", "name": "Molina di Mori", "public_transport": "platform"}}, {"type": "node", "id": 2884967021, "lat": 45.8514897, "lon": 10.9727983, "tags": {"bus": "yes", "highway": "bus_stop", "name": "Mori - Via Del Garda. 63", "public_transport": "platform"}}, {"type": "node", "id": 2884967022, "lat": 45.854214, "lon": 10.9720676, "tags": {"bus": "yes", "highway": "bus_stop", "name": "Mori Via Filzl", "public_transport": "platform"}}, {"type": "node", "id": 2884967023, "lat": 45.8600469, "lon": 10.9911663, "tags": {"highway": "bus_stop", "name": "Razazzone di Mori", "public_transport": "platform"}}, {"type": "node", "id": 2884967025, "lat": 45.8543167, "lon": 10.9721647, "tags": {"bus": "yes", "highway": "bus_stop", "name": "Mori Via Filzl", "public_transport": "platform"}}, {"type": "node", "id": 2884967026, "lat": 45.8532004, "lon": 10.9682935, "tags": {"bench": "yes", "bus": "yes", "highway": "bus_stop", "name": "Mori - Bivio Sud", "public_transport": "platform", "shelter": "yes"}}, {"type": "node", "id": 2884967027, "lat": 45.85347, "lon": 10.9702604, "tags": {"bus": "yes", "highway": "bus_stop", "public_transport": "platform", "shelter": "yes"}}, {"type": "node", "id": 2884967028, "lat": 45.8518356, "lon": 10.9721545, "tags": {"bus": "yes", "highway": "bus_stop", "name": "Mori - Via Del Garda. 63", "public_transport": "platform"}}, {"type": "node", "id": 2884967029, "lat": 45.8552926, "lon": 10.9863875, "tags": {"bus": "yes", "highway": "bus_stop", "lit": "yes", "name": "Molina di Mori", "public_transport": "platform"}}, {"type": "node", "id": 2884967030, "lat": 45.8530346, "lon": 10.9752485, "tags": {"bus": "yes", "highway": "bus_stop", "name": "Mori Via Garibaldi", "public_transport": "platform"}}, {"type": "node", "id": 2884967031, "lat": 45.8517401, "lon": 10.9778153, "tags": {"bus": "yes", "highway": "bus_stop", "name": "Mori Piazza cal di ponte", "public_transport": "platform"}}, {"type": "node", "id": 2884967032, "lat": 45.8588593, "lon": 10.9906476, "tags": {"bus": "yes", "highway": "bus_stop", "name": "Ravazzone di Mori", "public_transport": "platform", "shelter": "yes"}}, {"type": "node", "id": 2884967033, "lat": 45.851634, "lon": 10.9788377, "tags": {"bench": "no", "bin": "no", "bus": "yes", "highway": "bus_stop", "name": "Mori - Bar Centrale", "public_transport": "platform", "shelter": "no"}}, {"type": "node", "id": 2884967034, "lat": 45.8516304, "lon": 10.9791439, "tags": {"bus": "yes", "highway": "bus_stop", "name": "Mori - Bar Centrale", "public_transport": "platform", "shelter": "yes"}}, {"type": "node", "id": 2884967035, "lat": 45.8536591, "lon": 10.967524, "tags": {"bus": "yes", "highway": "bus_stop", "name": "Mori - Bivio Sud", "public_transport": "platform", "shelter": "no"}}, {"type": "node", "id": 2884967036, "lat": 45.8532844, "lon": 10.9701468, "tags": {"bus": "yes", "highway": "bus_stop", "name": "Mori Via Don Sturzo", "public_transport": "platform"}}, {"type": "node", "id": 2884974230, "lat": 45.8646, "lon": 10.9500338, "tags": {"bench": "no", "bin": "no", "bus": "yes", "highway": "bus_stop", "lit": "yes", "local_ref": "318", "name": "Manzano Bivio", "public_transport": "platform", "shelter": "yes", "tactile_paving": "no"}}, {"type": "node", "id": 2885350394, "lat": 45.891092, "lon": 10.9521172, "tags": {"bus": "yes", "highway": "bus_stop", "name": "Ronzo Chienis", "public_transport": "platform"}}, {"type": "node", "id": 2885350395, "lat": 45.8909769, "lon": 10.951793, "tags": {"bench": "yes", "bin": "yes", "bus": "yes", "highway": "bus_stop", "lit": "yes", "name": "Ronzo Chienis", "passenger_information_display": "no", "public_transport": "platform", "shelter": "yes", "tactile_paving": "no"}}, {"type": "node", "id": 2885402663, "lat": 45.8920983, "lon": 10.9533325, "tags": {"bus": "yes", "highway": "bus_stop", "name": "Ronzo Chienis-Via Bordola", "public_transport": "platform", "shelter": "no"}}, {"type": "node", "id": 2886630671, "lat": 45.8556322, "lon": 10.9300561, "tags": {"bench": "yes", "bin": "yes", "bus": "yes", "highway": "bus_stop", "name": "Lopio", "public_transport": "platform", "shelter": "yes"}}, {"type": "node", "id": 2886630672, "lat": 45.8549054, "lon": 10.9469153, "tags": {"bench": "no", "bin": "no", "bus": "yes", "highway": "bus_stop", "lit": "yes", "name": "Mori - Difr.Discoteca Fanum", "public_transport": "platform", "shelter": "no", "tactile_paving": "no"}}, {"type": "node", "id": 2886630674, "lat": 45.8550755, "lon": 10.9463022, "tags": {"bench": "no", "bin": "no", "bus": "yes", "highway": "bus_stop", "lit": "yes", "name": "Mori - Difr.Discoteca Fanum", "public_transport": "platform", "shelter": "no", "tactile_paving": "no"}}, {"type": "node", "id": 2886630675, "lat": 45.8554827, "lon": 10.9301057, "tags": {"bus": "yes", "highway": "bus_stop", "name": "Lopio", "public_transport": "platform"}}, {"type": "node", "id": 2888580719, "lat": 45.7827746, "lon": 11.1195348, "tags": {"bus": "yes", "highway": "bus_stop", "name": "Raossi", "public_transport": "platform"}}, {"type": "node", "id": 2888587721, "lat": 45.7827625, "lon": 11.1189064, "tags": {"bus": "yes", "highway": "bus_stop", "name": "Raossi", "public_transport": "platform"}}, {"type": "node", "id": 2888606448, "lat": 45.7826267, "lon": 11.1141506, "tags": {"bus": "yes", "highway": "bus_stop", "name": "Roassi Loc.Corte", "public_transport": "platform"}}, {"type": "node", "id": 2888606451, "lat": 45.7823868, "lon": 11.1145046, "tags": {"bus": "yes", "highway": "bus_stop", "name": "Roassi Loc.Corte", "public_transport": "platform"}}, {"type": "node", "id": 2888959472, "lat": 45.7715103, "lon": 11.1359295, "tags": {"bus": "yes", "highway": "bus_stop", "name": "Piano Di Vallarsa", "public_transport": "platform"}}, {"type": "node", "id": 2889035720, "lat": 45.8391748, "lon": 11.3703494, "tags": {"highway": "bus_stop", "public_transport": "platform"}}, {"type": "node", "id": 2889035721, "lat": 45.8393178, "lon": 11.3704299, "tags": {"highway": "bus_stop", "public_transport": "platform"}}, {"type": "node", "id": 2889093586, "lat": 45.7964016, "lon": 11.1054844, "tags": {"bus": "yes", "highway": "bus_stop", "name": "Anghebeni Fam.Coop", "public_transport": "platform"}}, {"type": "node", "id": 2889093587, "lat": 45.7964381, "lon": 11.1055353, "tags": {"bus": "yes", "highway": "bus_stop", "name": "Anghebeni Fam.Coop", "public_transport": "platform"}}, {"type": "node", "id": 2889111844, "lat": 45.7941507, "lon": 11.1073507, "tags": {"bus": "yes", "highway": "bus_stop", "name": "Angh\u00e8beni", "public_transport": "platform"}}, {"type": "node", "id": 2889164768, "lat": 45.7892909, "lon": 11.1117839, "tags": {"bus": "yes", "highway": "bus_stop", "name": "Foxi", "public_transport": "platform"}}, {"type": "node", "id": 2889164769, "lat": 45.7892394, "lon": 11.1118925, "tags": {"bus": "yes", "highway": "bus_stop", "name": "Foxi", "public_transport": "platform"}}, {"type": "node", "id": 2889185674, "lat": 45.8558799, "lon": 10.9321841, "tags": {"bench": "no", "bin": "no", "bus": "yes", "highway": "bus_stop", "lit": "yes", "local_ref": "310 Ronzo Chienis - Rovereto Via Paoli", "name": "Loppio Bivio", "public_transport": "platform", "shelter": "yes", "tactile_paving": "no"}}, {"type": "node", "id": 2889185675, "lat": 45.8557646, "lon": 10.9322911, "tags": {"bench": "no", "bin": "no", "bus": "yes", "highway": "bus_stop", "lit": "yes", "local_ref": "310 Rovereto Via Paoli - Ronzo Chienis", "name": "Loppio Bivio", "public_transport": "platform", "shelter": "yes", "tactile_paving": "no"}}, {"type": "node", "id": 2889197222, "lat": 45.8607478, "lon": 10.9373385, "tags": {"bench": "no", "bin": "no", "bus": "yes", "highway": "bus_stop", "local_ref": "310", "name": "Piantino", "public_transport": "platform", "shelter": "no", "tactile_paving": "no"}}, {"type": "node", "id": 2889197223, "lat": 45.8607029, "lon": 10.9374551, "tags": {"bench": "no", "bin": "no", "bus": "yes", "highway": "bus_stop", "local_ref": "310", "name": "Piantino", "public_transport": "platform", "shelter": "no", "tactile_paving": "no"}}, {"type": "node", "id": 2901495802, "lat": 46.003999, "lon": 11.1958728, "tags": {"bench": "yes", "bin": "yes", "bus": "yes", "departures_board": "timetable", "ferry": "no", "highway": "bus_stop", "light_rail": "no", "lit": "yes", "monorail": "no", "name": "Vigolo Vattaro", "public_transport": "platform", "shelter": "yes", "subway": "no", "tactile_paving": "no", "train": "no", "tram": "no", "trolleybus": "no", "wheelchair": "yes"}}, {"type": "node", "id": 2901979745, "lat": 45.9769653, "lon": 11.0918177, "tags": {"bus": "yes", "check_date:shelter": "2024-06-21", "highway": "bus_stop", "name": "Aldeno", "public_transport": "platform", "shelter": "yes"}}, {"type": "node", "id": 3009949834, "lat": 45.9195037, "lon": 11.1417356, "tags": {"bench": "no", "bin": "no", "departures_board": "timetable", "highway": "bus_stop", "lit": "no", "name": "Mezzamonte Az. Agricola (La Fonte)", "operator": "TTesercizio", "public_transport": "platform", "shelter": "no", "tactile_paving": "no"}}, {"type": "node", "id": 3090949867, "lat": 46.01091, "lon": 11.1316608, "tags": {"bus": "yes", "highway": "bus_stop", "name": "Mattarello / Regole", "public_transport": "platform", "wheelchair": "no"}}, {"type": "node", "id": 3090950101, "lat": 46.011261, "lon": 11.1317351, "tags": {"bus": "yes", "highway": "bus_stop", "name": "Mattarello / Regole", "public_transport": "platform", "wheelchair": "no"}}, {"type": "node", "id": 3292373483, "lat": 45.8909887, "lon": 11.0384985, "tags": {"bench": "yes", "highway": "bus_stop", "name": "Corso Rosmini Via Savioli/Liceo Filzi", "public_transport": "platform", "shelter": "yes"}}, {"type": "node", "id": 3292440008, "lat": 45.8932862, "lon": 11.0364105, "tags": {"bench": "no", "bin": "no", "bus": "yes", "highway": "bus_stop", "lit": "no", "name": "Via Manzoni/A.S.M.", "public_transport": "platform", "shelter": "no", "tactile_paving": "no"}}, {"type": "node", "id": 3329876860, "lat": 45.9857192, "lon": 10.9762181, "tags": {"highway": "bus_stop", "name": "Brusino (piazza)", "operator": "Trentino Trasporti ( linea 204)", "public_transport": "platform"}}, {"type": "node", "id": 3704653924, "lat": 45.7389523, "lon": 11.065984, "tags": {"bus": "yes", "highway": "bus_stop", "name": "Ronchi Di Ala", "public_transport": "platform"}}, {"type": "node", "id": 3959728774, "lat": 46.0220233, "lon": 11.2270166, "tags": {"highway": "bus_stop", "name": "Maso Canela", "public_transport": "platform"}}, {"type": "node", "id": 3964411264, "lat": 46.0172452, "lon": 11.2270251, "tags": {"highway": "bus_stop", "name": "S.Caterina di Pergine", "public_transport": "platform"}}, {"type": "node", "id": 3986614738, "lat": 46.0232366, "lon": 11.2284073, "tags": {"highway": "bus_stop", "name": "Valcanover Chiesetta", "public_transport": "platform"}}, {"type": "node", "id": 3986614739, "lat": 46.0253111, "lon": 11.2287246, "tags": {"highway": "bus_stop", "name": "Valcanover Casa Sociale", "public_transport": "platform"}}, {"type": "node", "id": 3988626062, "lat": 46.026978, "lon": 11.2291589, "tags": {"bench": "yes", "bin": "no", "highway": "bus_stop", "name": "Valcanover", "public_transport": "platform", "shelter": "no", "tactile_paving": "no"}}, {"type": "node", "id": 3995345067, "lat": 46.0183693, "lon": 11.2216885, "tags": {"fixme": "According my informations. This bus stop is not in use. Deleting????", "highway": "bus_stop", "public_transport": "platform"}}, {"type": "node", "id": 3995345068, "lat": 46.0213256, "lon": 11.2179163, "tags": {"bus": "yes", "fixme": "According my informations. This bus stop is not in use. Deleting????", "highway": "bus_stop", "public_transport": "platform"}}, {"type": "node", "id": 3995345069, "lat": 46.0216467, "lon": 11.2216647, "tags": {"highway": "bus_stop", "name": "Maso Begher", "public_transport": "platform"}}, {"type": "node", "id": 3995843371, "lat": 46.0261787, "lon": 11.2191292, "tags": {"highway": "bus_stop", "name": "Maso Posser", "public_transport": "platform"}}, {"type": "node", "id": 3995865733, "lat": 46.0274886, "lon": 11.2292755, "tags": {"bench": "yes", "bin": "yes", "highway": "bus_stop", "name": "Valcanover", "public_transport": "platform", "shelter": "yes"}}, {"type": "node", "id": 4017869213, "lat": 45.7344058, "lon": 10.9574272, "tags": {"bus": "yes", "departures_board": "no", "highway": "bus_stop", "name": "V\u00f2 Sinistro -Passaggio Livello", "operator": "Trentino trasporti S.p.A.", "public_transport": "platform", "shelter": "no"}}, {"type": "node", "id": 4033612973, "lat": 46.0162642, "lon": 11.2342344, "tags": {"bench": "no", "bin": "no", "highway": "bus_stop", "name": "Valcanover Happy Days", "public_transport": "platform", "shelter": "no"}}, {"type": "node", "id": 4033613020, "lat": 46.017943, "lon": 11.232754, "tags": {"bench": "no", "bin": "yes", "highway": "bus_stop", "lit": "yes", "name": "Valcanover Happy Days", "name:signed": "no", "public_transport": "platform", "shelter": "no", "tactile_paving": "no"}}, {"type": "node", "id": 4056719731, "lat": 45.967896, "lon": 10.9799312, "tags": {"highway": "bus_stop", "name": "Maso del Samuele", "public_transport": "platform", "tactile_paving": "no"}}, {"type": "node", "id": 4172721693, "lat": 45.762269, "lon": 11.0047502, "tags": {"bench": "yes", "bin": "yes", "bus": "yes", "highway": "bus_stop", "name": "Ala - Loc. S. Martino (Pilcante bivio)", "operator": "Trentino Trasporti", "public_transport": "platform", "shelter": "yes"}}, {"type": "node", "id": 4172721694, "lat": 45.7621915, "lon": 11.0048815, "tags": {"bench": "yes", "bin": "yes", "bus": "yes", "highway": "bus_stop", "name": "Ala - Loc. S. Martino (Pilcante bivio)", "operator": "Trentino Trasporti", "public_transport": "platform", "shelter": "yes"}}, {"type": "node", "id": 4172721695, "lat": 45.7584377, "lon": 11.0008596, "tags": {"bench": "yes", "bin": "no", "bus": "yes", "highway": "bus_stop", "lit": "yes", "name": "Ala, Via Malfatti", "operator": "Trentino Trasporti", "public_transport": "platform", "shelter": "yes", "tactile_paving": "no"}}, {"type": "node", "id": 4172721696, "lat": 45.7583388, "lon": 11.0010299, "tags": {"bench": "yes", "bin": "yes", "bus": "yes", "highway": "bus_stop", "lit": "yes", "name": "Ala, Via Malfatti", "operator": "Trentino Trasporti", "public_transport": "platform", "shelter": "yes", "tactile_paving": "no"}}, {"type": "node", "id": 4172721697, "lat": 45.7565369, "lon": 10.9991036, "tags": {"bench": "yes", "bin": "yes", "highway": "bus_stop", "lit": "no", "name": "Ala - Ospedale", "operator": "Trentino Trasporti", "public_transport": "platform", "shelter": "yes", "tactile_paving": "no"}}, {"type": "node", "id": 4172721698, "lat": 45.7568109, "lon": 10.9990469, "tags": {"bench": "yes", "bin": "yes", "highway": "bus_stop", "lit": "no", "name": "Ala - Ospedale", "operator": "Trentino Trasporti", "public_transport": "platform", "shelter": "yes", "tactile_paving": "no"}}, {"type": "node", "id": 4240032896, "lat": 45.9598402, "lon": 11.0925967, "tags": {"bus": "yes", "highway": "bus_stop", "name": "Aldeno - Maso Canova Sud", "public_transport": "platform"}}, {"type": "node", "id": 4240032907, "lat": 45.9601122, "lon": 11.0927829, "tags": {"bus": "yes", "highway": "bus_stop", "name": "Aldeno - Maso Canova Sud", "public_transport": "platform"}}, {"type": "node", "id": 4241437962, "lat": 45.9503684, "lon": 11.2631361, "tags": {"bench": "no", "bin": "no", "bus": "yes", "highway": "bus_stop", "name": "Bertoldi", "public_transport": "platform", "shelter": "no"}}, {"type": "node", "id": 4241437963, "lat": 45.9503846, "lon": 11.2632894, "tags": {"bench": "no", "bin": "no", "bus": "yes", "highway": "bus_stop", "name": "Bertoldi", "public_transport": "platform", "shelter": "no"}}, {"type": "node", "id": 4477215327, "lat": 45.8911554, "lon": 11.0072703, "tags": {"highway": "bus_stop", "name": "Reviano", "public_transport": "platform", "shelter": "yes", "tactile_paving": "no"}}, {"type": "node", "id": 4585114920, "lat": 46.0128447, "lon": 11.266781, "tags": {"bus": "yes", "highway": "bus_stop", "name": "Tenna", "public_transport": "platform"}}, {"type": "node", "id": 5039569233, "lat": 45.9194889, "lon": 10.8912991, "tags": {"bench": "yes", "bin": "yes", "bus": "yes", "highway": "bus_stop", "lit": "yes", "name": "Arco Piazza Italia", "public_transport": "platform", "shelter": "yes", "tactile_paving": "no"}}, {"type": "node", "id": 5039569234, "lat": 45.9167441, "lon": 10.8921599, "tags": {"bench": "yes", "bus": "yes", "highway": "bus_stop", "name": "Caneve", "public_transport": "platform", "shelter": "yes", "wheelchair": "yes"}}, {"type": "node", "id": 5039569235, "lat": 45.9129685, "lon": 10.8975348, "tags": {"bench": "no", "bin": "no", "bus": "yes", "check_date:shelter": "2023-02-26", "highway": "bus_stop", "name": "Arco Viale Rovereto", "public_transport": "platform", "shelter": "no", "tactile_paving": "no"}}, {"type": "node", "id": 5039569236, "lat": 45.9108733, "lon": 10.9004561, "tags": {"bench": "no", "bus": "yes", "highway": "bus_stop", "lit": "yes", "name": "Bolognano Bivio", "public_transport": "platform", "shelter": "no"}}, {"type": "node", "id": 5039586012, "lat": 45.9183678, "lon": 10.8823955, "tags": {"bench": "no", "bin": "no", "bus": "yes", "highway": "bus_stop", "lit": "yes", "name": "Arco Via Cesare Battisti", "public_transport": "platform", "shelter": "no", "tactile_paving": "no"}}, {"type": "node", "id": 5040634980, "lat": 45.9168097, "lon": 10.8923149, "tags": {"bench": "yes", "bus": "yes", "highway": "bus_stop", "name": "Caneve", "public_transport": "platform", "shelter": "yes", "wheelchair": "yes"}}, {"type": "node", "id": 5111592738, "lat": 45.8545205, "lon": 10.9342188, "tags": {"bench": "no", "highway": "bus_stop", "public_transport": "platform", "shelter": "separate"}}, {"type": "node", "id": 5330179705, "lat": 45.9945688, "lon": 11.2707995, "tags": {"bench": "yes", "bin": "no", "bus": "yes", "highway": "bus_stop", "public_transport": "platform", "shelter": "yes", "tactile_paving": "no"}}, {"type": "node", "id": 5435661956, "lat": 45.8993, "lon": 11.037306, "tags": {"bus": "yes", "highway": "bus_stop", "name": "Via Pasqui", "public_transport": "platform", "shelter": "no"}}, {"type": "node", "id": 5435661959, "lat": 45.8992225, "lon": 11.0373893, "tags": {"bus": "yes", "highway": "bus_stop", "name": "Via Pasqui", "public_transport": "platform", "shelter": "yes"}}, {"type": "node", "id": 5435661960, "lat": 45.8964225, "lon": 11.0369937, "tags": {"bench": "yes", "check_date:shelter": "2022-09-17", "highway": "bus_stop", "name": "Via Parteli", "public_transport": "platform", "shelter": "yes"}}, {"type": "node", "id": 5706114825, "lat": 46.0065809, "lon": 11.1275841, "tags": {"bench": "no", "bus": "yes", "highway": "bus_stop", "lit": "yes", "name": "Mattarello / San Leonardo", "public_transport": "platform", "shelter": "no", "wheelchair": "no"}}, {"type": "node", "id": 5706114826, "lat": 46.0029355, "lon": 11.1267976, "tags": {"alt_name": "Mattarello - Via Catoni", "bench": "no", "bus": "yes", "check_date:shelter": "2025-09-13", "highway": "bus_stop", "name": "Mattarello / Rio Stolzano", "public_transport": "platform", "shelter": "no", "wheelchair": "no"}}, {"type": "node", "id": 5706114827, "lat": 46.0027632, "lon": 11.1263111, "tags": {"bench": "no", "bin": "yes", "bus": "yes", "highway": "bus_stop", "lit": "no", "name": "Mattarello / sud", "passenger_information_display": "no", "public_transport": "platform", "shelter": "no", "tactile_paving": "no", "wheelchair": "yes"}}, {"type": "node", "id": 5706114828, "lat": 46.0099521, "lon": 11.1285932, "tags": {"alt_name": "Mattarello - Ss 12", "bench": "yes", "bus": "yes", "highway": "bus_stop", "name": "Mattarello / Gotarda", "public_transport": "platform", "shelter": "no", "wheelchair": "no"}}, {"type": "node", "id": 5706114829, "lat": 46.0078369, "lon": 11.1269743, "tags": {"bench": "no", "bus": "yes", "highway": "bus_stop", "name": "Mattarello / \"ex Stazione\"", "public_transport": "platform", "shelter": "no", "wheelchair": "no"}}, {"type": "node", "id": 5706114830, "lat": 46.0059064, "lon": 11.1299858, "tags": {"bench": "no", "bus": "yes", "highway": "bus_stop", "lit": "yes", "name": "Mattarello / \"Torre Franca\"", "public_transport": "platform", "shelter": "no", "tactile_paving": "no", "wheelchair": "no"}}, {"type": "node", "id": 5706114831, "lat": 46.0065022, "lon": 11.1310361, "tags": {"bench": "no", "bus": "yes", "check_date:shelter": "2025-09-14", "highway": "bus_stop", "name": "Mattarello / \"Torre Franca\"", "public_transport": "platform", "shelter": "no", "wheelchair": "no"}}, {"type": "node", "id": 5706114833, "lat": 46.0087117, "lon": 11.1315363, "tags": {"bench": "no", "bus": "yes", "highway": "bus_stop", "name": "Mattarello / \"parco\"", "public_transport": "platform", "shelter": "no", "wheelchair": "no"}}, {"type": "node", "id": 5706114834, "lat": 46.0127518, "lon": 11.1319993, "tags": {"bench": "no", "bus": "yes", "highway": "bus_stop", "name": "Mattarello / Rozola", "public_transport": "platform", "shelter": "no", "wheelchair": "no"}}, {"type": "node", "id": 5706114835, "lat": 46.0127129, "lon": 11.1322204, "tags": {"bench": "no", "bus": "yes", "highway": "bus_stop", "name": "Mattarello / Rozola", "public_transport": "platform", "shelter": "no", "wheelchair": "no"}}, {"type": "node", "id": 5858851016, "lat": 45.9217056, "lon": 11.3243538, "tags": {"bus": "yes", "highway": "bus_stop", "name": "Luserna", "name:cim": "Lus\u00e9rn", "name:de": "Lusern", "public_transport": "platform"}}, {"type": "node", "id": 6000638346, "lat": 45.8735171, "lon": 11.1646602, "tags": {"bus": "yes", "highway": "bus_stop", "name": "Bivio Stedileri", "public_transport": "platform"}}, {"type": "node", "id": 6000638347, "lat": 45.8741838, "lon": 11.1636543, "tags": {"highway": "bus_stop", "name": "Bivio Stedileri", "public_transport": "platform"}}, {"type": "node", "id": 6000638351, "lat": 45.8757841, "lon": 11.160661, "tags": {"bus": "yes", "highway": "bus_stop", "name": "Camperi", "public_transport": "platform"}}, {"type": "node", "id": 6007425834, "lat": 45.8905979, "lon": 11.034013, "tags": {"bench": "yes", "bin": "yes", "bus": "yes", "covered": "yes", "highway": "bus_stop", "lit": "yes", "name": "Piazzale Orsi/Stazione FS", "public_transport": "platform", "route_ref": "Flixbus 407, 494, 531, N432, N530", "shelter": "yes", "tactile_paving": "no"}}, {"type": "node", "id": 6203230069, "lat": 46.0069513, "lon": 11.1284512, "tags": {"bench": "yes", "bin": "yes", "bus": "yes", "highway": "bus_stop", "lit": "yes", "name": "Mattarello / Piazza Perini", "public_transport": "platform", "shelter": "yes", "tactile_paving": "no", "wheelchair": "no"}}, {"type": "node", "id": 6205166910, "lat": 46.0102477, "lon": 11.1290836, "tags": {"bus": "yes", "highway": "bus_stop", "name": "Mattarello - SS12", "public_transport": "platform"}}, {"type": "node", "id": 6205577635, "lat": 46.0079256, "lon": 11.1314691, "tags": {"bus": "yes", "highway": "bus_stop", "name": "Mattarello / \"parco\"", "public_transport": "platform", "shelter": "no", "wheelchair": "yes"}}, {"type": "node", "id": 6234205256, "lat": 46.0005454, "lon": 11.1262094, "tags": {"bench": "no", "bin": "no", "bus": "yes", "highway": "bus_stop", "lit": "yes", "name": "Mattarello - Ex Stabilimento Vestimenta", "public_transport": "platform", "shelter": "no", "tactile_paving": "no"}}, {"type": "node", "id": 6234205257, "lat": 46.0008085, "lon": 11.1263357, "tags": {"bench": "no", "bin": "no", "bus": "yes", "highway": "bus_stop", "lit": "yes", "name": "Mattarello - Ex Stabilimento Vestimenta", "public_transport": "platform", "shelter": "no", "tactile_paving": "no"}}, {"type": "node", "id": 6251840184, "lat": 45.936929, "lon": 11.0990765, "tags": {"bus": "yes", "departures_board": "timetable", "highway": "bus_stop", "name": "Calliano SP49 cimitero", "network": "Trentino Trasporti", "public_transport": "platform", "shelter": "no"}}, {"type": "node", "id": 6251840485, "lat": 45.9369473, "lon": 11.0988724, "tags": {"bus": "yes", "departures_board": "timetable", "highway": "bus_stop", "name": "Calliano SP49 cimitero", "operator": "Trentino Trasporti", "public_transport": "platform"}}, {"type": "node", "id": 6252054365, "lat": 45.9269422, "lon": 11.1187407, "tags": {"bench": "no", "bus": "yes", "highway": "bus_stop", "name": "Dietrobeseno", "public_transport": "platform", "shelter": "no"}}, {"type": "node", "id": 6252054369, "lat": 45.9269842, "lon": 11.1185852, "tags": {"bench": "no", "bus": "yes", "highway": "bus_stop", "name": "Dietrobeseno", "public_transport": "platform", "shelter": "no"}}, {"type": "node", "id": 6252054990, "lat": 45.9250224, "lon": 11.1205244, "tags": {"bench": "no", "bus": "yes", "highway": "bus_stop", "name": "Dietrabesena Chiesetta", "public_transport": "platform", "shelter": "no"}}, {"type": "node", "id": 6252054991, "lat": 45.9251315, "lon": 11.1205485, "tags": {"bench": "no", "bus": "yes", "highway": "bus_stop", "name": "Dietrabesena Chiesetta", "public_transport": "platform", "shelter": "no"}}, {"type": "node", "id": 6274371481, "lat": 45.9676806, "lon": 11.2272498, "tags": {"bench": "no", "bin": "no", "bus": "yes", "highway": "bus_stop", "lit": "no", "name": "Centa Bivio (Albergo al Bosco)", "public_transport": "platform", "shelter": "no", "surface": "asphalt", "tactile_paving": "no"}}, {"type": "node", "id": 6323281190, "lat": 46.0087769, "lon": 11.3084984, "tags": {"bus": "yes", "highway": "bus_stop", "name": "Levico T. (Via Avancini)", "public_transport": "platform"}}, {"type": "node", "id": 6486389562, "lat": 45.9624686, "lon": 10.9160488, "tags": {"bus": "yes", "highway": "bus_stop", "lit": "yes", "name": "Dro Itea", "public_transport": "platform"}}, {"type": "node", "id": 6486389563, "lat": 45.9587944, "lon": 10.9068222, "tags": {"bench": "no", "bin": "no", "bus": "yes", "highway": "bus_stop", "lit": "yes", "name": "Dro Carabinieri", "public_transport": "platform", "shelter": "no", "tactile_paving": "no"}}, {"type": "node", "id": 6582469421, "lat": 45.8619598, "lon": 11.0004125, "tags": {"bench": "no", "bin": "no", "bus": "yes", "check_date:shelter": "2024-08-04", "highway": "bus_stop", "lit": "yes", "name": "Mori - Stazione FS", "public_transport": "platform", "shelter": "no", "tactile_paving": "no"}}, {"type": "node", "id": 6582469422, "lat": 45.8619886, "lon": 11.0005766, "tags": {"bench": "no", "bin": "yes", "bus": "yes", "highway": "bus_stop", "lit": "yes", "name": "Mori - Stazione FS", "public_transport": "platform", "shelter": "no", "tactile_paving": "no"}}, {"type": "node", "id": 6582469423, "lat": 45.8687988, "lon": 11.0142265, "tags": {"bench": "yes", "bus": "yes", "highway": "bus_stop", "name": "SS240 Centro Commerciale Millenium sud", "public_transport": "platform", "shelter": "yes"}}, {"type": "node", "id": 6582469424, "lat": 45.8685751, "lon": 11.0140087, "tags": {"bench": "yes", "bus": "yes", "highway": "bus_stop", "lit": "yes", "name": "Centro Commerciale Millenium sud", "public_transport": "platform", "shelter": "yes"}}, {"type": "node", "id": 6582504152, "lat": 45.8761608, "lon": 11.0320264, "tags": {"bus": "yes", "highway": "bus_stop", "name": "SS12 Lizzanella", "public_transport": "platform"}}, {"type": "node", "id": 6582504153, "lat": 45.8815302, "lon": 11.0320563, "tags": {"bench": "no", "bin": "no", "bus": "yes", "highway": "bus_stop", "lit": "yes", "name": "Rovereto Rist. Christina", "public_transport": "platform", "shelter": "no", "tactile_paving": "no", "wheelchair": "yes"}}, {"type": "node", "id": 6689800278, "lat": 45.719194, "lon": 10.9401619, "tags": {"bench": "no", "bin": "no", "bus": "yes", "departures_board": "no", "highway": "bus_stop", "lit": "no", "name": "Masi D'avio SS12 Civ. 2", "operator": "Trentino trasporti S.p.A.", "public_transport": "platform", "shelter": "no", "tactile_paving": "no"}}, {"type": "node", "id": 6689800279, "lat": 45.7194572, "lon": 10.9403667, "tags": {"bench": "no", "bin": "no", "bus": "yes", "departures_board": "timetable", "highway": "bus_stop", "name": "Masi D'avio SS12 Civ. 2", "operator": "Trentino trasporti S.p.A.", "public_transport": "platform", "shelter": "no", "tactile_paving": "no"}}, {"type": "node", "id": 6690836982, "lat": 45.7299743, "lon": 10.9505027, "tags": {"bench": "no", "bin": "no", "bus": "yes", "departures_board": "no", "highway": "bus_stop", "lit": "no", "name": "Vo' Sinistro-Via Gen.Cantore", "operator": "Trentino trasporti S.p.A.", "public_transport": "platform", "shelter": "no", "tactile_paving": "no"}}, {"type": "node", "id": 6690841085, "lat": 45.7302504, "lon": 10.9507079, "tags": {"bench": "no", "bin": "no", "bus": "yes", "departures_board": "no", "highway": "bus_stop", "lit": "no", "name": "Vo' Sinistro-Via Gen.Cantore", "operator": "Trentino trasporti S.p.A.", "public_transport": "platform", "shelter": "no", "tactile_paving": "no"}}, {"type": "node", "id": 6718408485, "lat": 45.8518038, "lon": 11.3408229, "tags": {"bus": "yes", "highway": "bus_stop", "public_transport": "platform"}}, {"type": "node", "id": 6718674201, "lat": 45.8841629, "lon": 11.0178977, "tags": {"bench": "yes", "bin": "yes", "bus": "yes", "departures_board": "yes", "highway": "bus_stop", "lit": "yes", "name": "Piazza Filzi - Via del porto", "public_transport": "platform", "shelter": "yes", "tactile_paving": "no"}}, {"type": "node", "id": 6724432877, "lat": 45.9114381, "lon": 11.1807749, "tags": {"highway": "bus_stop", "name": "Folgaria Via Filzi 41", "public_transport": "platform", "shelter": "no"}}, {"type": "node", "id": 6724432878, "lat": 45.9110742, "lon": 11.1808553, "tags": {"bench": "no", "highway": "bus_stop", "name": "Folgaria Via Filzi 41", "public_transport": "platform", "shelter": "no"}}, {"type": "node", "id": 6724439192, "lat": 45.9059363, "lon": 11.173486, "tags": {"highway": "bus_stop", "name": "Mezzaselva", "public_transport": "platform", "shelter": "no"}}, {"type": "node", "id": 6724439193, "lat": 45.906024, "lon": 11.1735034, "tags": {"highway": "bus_stop", "name": "Mezzaselva", "public_transport": "platform", "shelter": "no"}}, {"type": "node", "id": 6724439195, "lat": 45.8962975, "lon": 11.1557445, "tags": {"bus": "yes", "highway": "bus_stop", "name": "Serrada bivio Fondogrande", "public_transport": "platform", "shelter": "no"}}, {"type": "node", "id": 6724439196, "lat": 45.8963516, "lon": 11.1554803, "tags": {"bench": "yes", "bus": "yes", "highway": "bus_stop", "name": "Serrada bivio Fondogrande", "public_transport": "platform", "shelter": "no"}}, {"type": "node", "id": 6724656582, "lat": 45.8997135, "lon": 11.0542944, "tags": {"highway": "bus_stop", "public_transport": "platform"}}, {"type": "node", "id": 6724656583, "lat": 45.8952121, "lon": 11.051976, "tags": {"highway": "bus_stop", "public_transport": "platform"}}, {"type": "node", "id": 6727725786, "lat": 45.8915591, "lon": 11.0072647, "tags": {"bench": "no", "highway": "bus_stop", "name": "Reviano", "public_transport": "platform", "shelter": "yes", "tactile_paving": "no"}}, {"type": "node", "id": 6727792137, "lat": 45.8815502, "lon": 11.0108604, "tags": {"bench": "yes", "bin": "yes", "highway": "bus_stop", "lit": "yes", "name": "Cornal\u00e8", "public_transport": "platform", "shelter": "yes", "tactile_paving": "no"}}, {"type": "node", "id": 6736739233, "lat": 45.8871463, "lon": 11.001273, "tags": {"bench": "yes", "bus": "yes", "highway": "bus_stop", "name": "Folaso", "public_transport": "platform", "shelter": "yes", "tactile_paving": "no"}}, {"type": "node", "id": 6737950231, "lat": 45.8873421, "lon": 11.0309293, "tags": {"bench": "no", "bin": "no", "bus": "yes", "highway": "bus_stop", "lit": "yes", "name": "Via Pasubio/Viale Vittoria", "public_transport": "platform", "shelter": "no", "tactile_paving": "no"}}, {"type": "node", "id": 6748918870, "lat": 45.8841692, "lon": 11.0082307, "tags": {"highway": "bus_stop", "name": "Isera Asilo", "public_transport": "platform", "tactile_paving": "no"}}, {"type": "node", "id": 6779697823, "lat": 45.8957226, "lon": 11.0154588, "tags": {"bench": "yes", "bus": "yes", "departures_board": "yes", "highway": "bus_stop", "name": "Marano", "network": "5", "operator": "Trentino Trasporti S.p.A.", "public_transport": "platform", "shelter": "yes", "tactile_paving": "no"}}, {"type": "node", "id": 6779697824, "lat": 45.8959098, "lon": 11.0155215, "tags": {"bench": "yes", "bus": "yes", "departures_board": "timetable", "highway": "bus_stop", "name": "Marano", "network": "5", "operator": "Trentino trasporti S.p.A.", "public_transport": "platform", "shelter": "yes", "tactile_paving": "no"}}, {"type": "node", "id": 6781289944, "lat": 45.9158142, "lon": 11.0278782, "tags": {"bench": "no", "bus": "yes", "highway": "bus_stop", "name": "Villa Lagarina Via Marconi", "public_transport": "platform", "shelter": "no"}}, {"type": "node", "id": 6781289945, "lat": 45.9156332, "lon": 11.0277468, "tags": {"bench": "no", "bus": "yes", "highway": "bus_stop", "name": "Villa Lagarina Via Marconi", "public_transport": "platform", "shelter": "no"}}, {"type": "node", "id": 6781353861, "lat": 45.8842298, "lon": 11.0204485, "tags": {"bench": "no", "bin": "yes", "highway": "bus_stop", "name": "Via Fedrigotti chioesa", "public_transport": "platform", "shelter": "no"}}, {"type": "node", "id": 6781452700, "lat": 45.9310895, "lon": 11.0220927, "tags": {"bus": "yes", "highway": "bus_stop", "name": "SP20 Navert/Zisi", "public_transport": "platform"}}, {"type": "node", "id": 6781452701, "lat": 45.93147, "lon": 11.022145, "tags": {"bus": "yes", "highway": "bus_stop", "name": "SP20 Navert/Zisi", "public_transport": "platform"}}, {"type": "node", "id": 6880570324, "lat": 45.8840231, "lon": 11.0181204, "tags": {"bench": "no", "bin": "no", "bus": "yes", "covered": "no", "departures_board": "yes", "highway": "bus_stop", "lit": "yes", "name": "Piazza Filzi - Via del porto", "public_transport": "platform", "shelter": "no", "tactile_paving": "no"}}, {"type": "node", "id": 6881381042, "lat": 45.8848502, "lon": 11.0240023, "tags": {"bench": "yes", "bus": "yes", "departures_board": "yes", "highway": "bus_stop", "name": "Viale Vittoria scuole Degasperi", "public_transport": "platform", "shelter": "no"}}, {"type": "node", "id": 6881381043, "lat": 45.8849492, "lon": 11.0240586, "tags": {"bench": "yes", "bus": "yes", "departures_board": "yes", "highway": "bus_stop", "name": "Viale Vittoria scuole Degasperi", "public_transport": "platform", "shelter": "no"}}, {"type": "node", "id": 6881717978, "lat": 45.8853693, "lon": 11.0256518, "tags": {"bench": "yes", "bus": "yes", "departures_board": "yes", "highway": "bus_stop", "name": "Viale Vittoria Via Zotti", "public_transport": "platform", "shelter": "no"}}, {"type": "node", "id": 6881717979, "lat": 45.8852311, "lon": 11.0253756, "tags": {"bench": "yes", "bus": "yes", "departures_board": "yes", "highway": "bus_stop", "name": "Viale Vittoria Via Zotti", "public_transport": "platform", "shelter": "no"}}, {"type": "node", "id": 6936723460, "lat": 45.9064507, "lon": 11.0400268, "tags": {"addr:city": "Rovereto", "addr:postcode": "38068", "addr:street": "Viale Trento", "bench": "yes", "bin": "yes", "bus": "yes", "departures_board": "yes", "highway": "bus_stop", "lit": "yes", "name": "Rovereto Viale Trento Via Selfetti", "public_transport": "platform", "shelter": "yes", "tactile_paving": "no", "wheelchair": "yes"}}, {"type": "node", "id": 6945618074, "lat": 45.74926, "lon": 11.2352998, "tags": {"bus": "yes", "highway": "bus_stop", "public_transport": "platform"}}, {"type": "node", "id": 6945618075, "lat": 45.7492554, "lon": 11.235188, "tags": {"bus": "yes", "highway": "bus_stop", "public_transport": "platform"}}, {"type": "node", "id": 6945618076, "lat": 45.7550008, "lon": 11.2184077, "tags": {"bus": "yes", "highway": "bus_stop", "public_transport": "platform"}}, {"type": "node", "id": 6945618077, "lat": 45.7551225, "lon": 11.2181758, "tags": {"bus": "yes", "highway": "bus_stop", "public_transport": "platform"}}, {"type": "node", "id": 7040367110, "lat": 45.8883033, "lon": 11.0191127, "tags": {"bench": "no", "bus": "yes", "departures_board": "yes", "highway": "bus_stop", "public_transport": "platform", "shelter": "no"}}, {"type": "node", "id": 7040367111, "lat": 45.8882688, "lon": 11.0188349, "tags": {"bench": "no", "bus": "yes", "departures_board": "yes", "highway": "bus_stop", "public_transport": "platform", "shelter": "no"}}, {"type": "node", "id": 7040376019, "lat": 45.8875183, "lon": 11.0246443, "tags": {"bench": "no", "bin": "no", "bus": "yes", "departures_board": "yes", "highway": "bus_stop", "lit": "no", "name": "Via Pasubio Via Unione", "public_transport": "platform", "shelter": "yes", "tactile_paving": "no"}}, {"type": "node", "id": 7086519261, "lat": 46.0135538, "lon": 11.0835426, "tags": {"bus": "yes", "highway": "bus_stop", "name": "Garniga Vecchia", "public_transport": "platform", "shelter": "no"}}, {"type": "node", "id": 7126055918, "lat": 45.9891178, "lon": 11.1221739, "tags": {"bench": "no", "bin": "no", "bus": "yes", "highway": "bus_stop", "lit": "no", "name": "Acquaviva", "public_transport": "platform", "shelter": "no", "tactile_paving": "no"}}, {"type": "node", "id": 7126055919, "lat": 46.0170382, "lon": 11.1450605, "tags": {"bench": "no", "bin": "no", "bus": "yes", "highway": "bus_stop", "lit": "no", "name": "Pianizza La Roccia", "public_transport": "platform", "shelter": "no", "tactile_paving": "no"}}, {"type": "node", "id": 7126055920, "lat": 46.0173399, "lon": 11.1447407, "tags": {"bench": "no", "bin": "no", "bus": "yes", "highway": "bus_stop", "lit": "no", "name": "Pianizza La Roccia", "public_transport": "platform", "shelter": "no", "tactile_paving": "no"}}, {"type": "node", "id": 7126055921, "lat": 46.0261336, "lon": 11.1460772, "tags": {"bench": "no", "bin": "no", "bus": "yes", "check_date:tactile_paving": "2022-11-04", "highway": "bus_stop", "name": "San Rocco - Maso", "public_transport": "platform", "shelter": "no", "tactile_paving": "no"}}, {"type": "node", "id": 7126055922, "lat": 46.0266116, "lon": 11.1457675, "tags": {"bench": "no", "bin": "no", "bus": "yes", "highway": "bus_stop", "name": "San Rocco - Maso", "public_transport": "platform", "shelter": "no"}}, {"type": "node", "id": 7164808960, "lat": 45.9643927, "lon": 11.092466, "tags": {"bus": "yes", "highway": "bus_stop", "name": "Aldeno - Maso Canova", "public_transport": "platform"}}, {"type": "node", "id": 7164808961, "lat": 45.9645566, "lon": 11.0925149, "tags": {"bus": "yes", "highway": "bus_stop", "name": "Aldeno - Maso Canova", "public_transport": "platform"}}, {"type": "node", "id": 7522265807, "lat": 45.9793441, "lon": 11.0706878, "tags": {"bus": "yes", "highway": "bus_stop", "name": "Covelo di Cimone", "public_transport": "platform"}}, {"type": "node", "id": 7589001014, "lat": 46.0140963, "lon": 11.2603889, "tags": {"bench": "no", "bin": "no", "bus": "yes", "highway": "bus_stop", "name": "Ischia - Alle Terrazze", "public_transport": "platform", "shelter": "no"}}, {"type": "node", "id": 7589001030, "lat": 46.0126637, "lon": 11.2617133, "tags": {"bench": "no", "bin": "no", "bus": "yes", "highway": "bus_stop", "lit": "no", "name": "Ischia - Alle Terrazze", "public_transport": "platform", "shelter": "no", "tactile_paving": "no"}},