{"version": 0.6, "generator": "Overpass API 0.7.62.10 2d4cfc48", "osm3s": {"timestamp_osm_base": "2026-02-08T12:55:30Z", "copyright": "The data included in this document is from www.openstreetmap.org. The data is made available under ODbL."}, "elements": [{"type": "node", "id": 335605379, "lat": 46.2281723, "lon": 10.8278422, "tags": {"check_date:opening_hours": "2023-08-01", "fee": "no", "name": "Museo delle guide", "opening_hours": "We-Mo 15:00-19:00+", "tourism": "museum", "wheelchair": "yes", "wikidata": "Q67644601"}}, {"type": "node", "id": 826322983, "lat": 46.3032249, "lon": 10.5690171}, {"type": "node", "id": 826323052, "lat": 46.3030574, "lon": 10.568918}, {"type": "node", "id": 826323127, "lat": 46.3032307, "lon": 10.5689491}, {"type": "node", "id": 826323143, "lat": 46.3030516, "lon": 10.5689861}, {"type": "node", "id": 1018318735, "lat": 46.1705408, "lon": 10.7476549}, {"type": "node", "id": 1018318871, "lat": 46.1704294, "lon": 10.7475002}, {"type": "node", "id": 1018318955, "lat": 46.1704361, "lon": 10.7478119}, {"type": "node", "id": 1018319349, "lat": 46.1703248, "lon": 10.7476571}, {"type": "node", "id": 1362755897, "lat": 46.2032395, "lon": 10.5761104}, {"type": "node", "id": 1362755898, "lat": 46.2031741, "lon": 10.5761098}, {"type": "node", "id": 1362755902, "lat": 46.2031749, "lon": 10.575953}, {"type": "node", "id": 1362755904, "lat": 46.2032403, "lon": 10.5759537}, {"type": "node", "id": 1801764082, "lat": 46.3275371, "lon": 10.7187498}, {"type": "node", "id": 1801764084, "lat": 46.3275742, "lon": 10.7189772}, {"type": "node", "id": 1801764086, "lat": 46.3276341, "lon": 10.7187166}, {"type": "node", "id": 1801764087, "lat": 46.3276712, "lon": 10.718944}, {"type": "node", "id": 3081910206, "lat": 46.3862999, "lon": 10.6806941, "tags": {"name": "Il Bosco degli Urogalli", "tourism": "museum"}}, {"type": "node", "id": 3657452700, "lat": 46.2200068, "lon": 10.5667841}, {"type": "node", "id": 3657452702, "lat": 46.2201036, "lon": 10.5668554}, {"type": "node", "id": 3657452703, "lat": 46.2201303, "lon": 10.5667798}, {"type": "node", "id": 3676334437, "lat": 46.2200335, "lon": 10.5667084}, {"type": "node", "id": 3760725461, "lat": 46.3624278, "lon": 10.6717356}, {"type": "node", "id": 3760725462, "lat": 46.3624254, "lon": 10.6715965}, {"type": "node", "id": 3760738213, "lat": 46.3625113, "lon": 10.6717412}, {"type": "node", "id": 3760738214, "lat": 46.3625113, "lon": 10.6716024}, {"type": "node", "id": 4359220730, "lat": 46.4007047, "lon": 10.6273834, "tags": {"name": "Museo Punta Linke (I guerra mondiale)", "tourism": "museum", "website": "https://www.museopejo.it/il-museo-di-punta-linke/"}}, {"type": "node", "id": 4655181880, "lat": 46.1029026, "lon": 10.7378488, "tags": {"addr:city": "Spiazzo", "addr:housenumber": "31", "addr:postcode": "38088", "addr:street": "Via San Vigilio", "name": "Museo della Guerra Bianca Adamellina", "tourism": "museum", "website": "https://www.museograndeguerra.com/"}}, {"type": "node", "id": 4655195320, "lat": 46.2976448, "lon": 10.6954658, "tags": {"addr:city": "Vermiglio", "addr:housenumber": "15", "addr:postcode": "38020", "addr:province": "Trento", "addr:street": "Via di Borgo Nuovo", "museum": "war", "name": "Museo della Guerra di Vermiglio", "phone": "+39 0463 758200", "tourism": "museum", "website": "https://www.museoguerrabianca.com/", "wikidata": "Q37855787"}}, {"type": "node", "id": 6105549705, "lat": 46.2390099, "lon": 10.5797768, "tags": {"tourism": "museum"}}, {"type": "node", "id": 6113762981, "lat": 46.2476828, "lon": 10.4465321}, {"type": "node", "id": 6113762982, "lat": 46.2474894, "lon": 10.4469001}, {"type": "node", "id": 6113762983, "lat": 46.2476314, "lon": 10.4470169}, {"type": "node", "id": 6113762984, "lat": 46.2478076, "lon": 10.4466205}, {"type": "node", "id": 6447392043, "lat": 46.2492457, "lon": 10.4694122, "tags": {"addr:city": "Tem\u00f9", "addr:housenumber": "40", "addr:postcode": "25050", "addr:street": "Via Roma", "contact:email": "info@museoguerrabianca.it", "contact:phone": "+39 0364 94294", "contact:website": "https://www.museoguerrabianca.it", "description": "Per gli orari di apertura consultare il sito.", "fee": "yes", "name": "Museo della Guerra Bianca in Adamello", "tourism": "museum"}}, {"type": "node", "id": 9682005614, "lat": 46.1460856, "lon": 10.7697475, "tags": {"description": "Il cannone venuto dal ghiaccio... frammenti di vita, di guerra e di morte (cannone Skoda recuperato dalla Presanella)", "fee": "yes", "museum": "military", "name": "Museo della Grande Guerra", "opening_hours": "Jun 21 -  sep 08 Tu-Su 15:00-19:00; PH unknown", "tourism": "museum"}}, {"type": "node", "id": 11876905740, "lat": 46.0516785, "lon": 10.8533773, "tags": {"museum": "history", "museum_type": "municipal", "name": "\"Par ieri\" - Collezione Etnografica Giudicariese", "toilets": "yes", "tourism": "museum", "wheelchair": "designated"}}, {"type": "node", "id": 13014910781, "lat": 46.2450652, "lon": 10.8333637}, {"type": "node", "id": 13014910782, "lat": 46.245261, "lon": 10.833024}, {"type": "node", "id": 13014910783, "lat": 46.2452218, "lon": 10.8324978}, {"type": "node", "id": 13014910784, "lat": 46.2449281, "lon": 10.8322194}, {"type": "node", "id": 13014910785, "lat": 46.244419, "lon": 10.8320896}, {"type": "node", "id": 13014910786, "lat": 46.2438642, "lon": 10.8319245}, {"type": "node", "id": 13014910787, "lat": 46.243533, "lon": 10.8319198}, {"type": "node", "id": 13014910788, "lat": 46.2432915, "lon": 10.8322454}, {"type": "node", "id": 13014910789, "lat": 46.2434367, "lon": 10.8327621}, {"type": "node", "id": 13014910790, "lat": 46.2437467, "lon": 10.8331561}, {"type": "node", "id": 13014910791, "lat": 46.2443913, "lon": 10.8334015}, {"type": "node", "id": 13014910792, "lat": 46.2448824, "lon": 10.8335808}, {"type": "way", "id": 68760149, "nodes": [826323127, 826323052, 826323143, 826322983, 826323127], "tags": {"building": "yes", "name": "Museo della Guerra Bianca", "tourism": "museum"}}, {"type": "way", "id": 87534211, "nodes": [1018319349, 1018318871, 1018318735, 1018318955, 1018319349], "tags": {"addr:postcode": "38080", "addr:street": "Localit\u00e0 Antica Vetreria", "building": "yes", "name": "Museo del Vetro", "phone": "+39 339 1402580", "tourism": "museum", "website": "http://www.anticavetreria.it/", "wikidata": "Q69340431"}}, {"type": "way", "id": 121814510, "nodes": [1362755904, 1362755902, 1362755898, 1362755897, 1362755904], "tags": {"building": "yes", "name": "Centro glaciologico Julius Pajer", "phone": "+39 0461 981871", "tourism": "museum", "website": "https://www.sat.tn.it/il-centro-glaciologico-julius-payer/"}}, {"type": "way", "id": 168999294, "nodes": [1801764084, 1801764082, 1801764086, 1801764087, 1801764084], "tags": {"addr:housenumber": "24", "addr:street": "Via dei Capitei", "building": "yes", "name": "EcoMuseo Val di Peio \"Piccolo Mondo Alpino\"", "tourism": "museum", "website": "https://www.ecomuseopeio.it/", "wikidata": "Q1120002", "wikipedia": "it:Ecomuseo della Val di Peio \"Piccolo Mondo Alpino\""}}, {"type": "way", "id": 361244996, "nodes": [3657452703, 3676334437, 3657452700, 3657452702, 3657452703], "tags": {"amenity": "shelter", "building": "yes", "name": "Bivacco Passo Lago Scuro (Museo)", "shelter_type": "basic_hut", "tourism": "museum"}}, {"type": "way", "id": 372517415, "nodes": [3760725461, 3760738213, 3760738214, 3760725462, 3760725461], "tags": {"addr:city": "Peio", "addr:housenumber": "1", "addr:postcode": "38024", "addr:street": "Salita di San Rocco", "building": "yes", "contact:facebook": "https://www.facebook.com/Museopejo/", "contact:website": "https://www.museopejo.it/", "museum": "war", "name": "Museo Pejo 1914-1918", "tourism": "museum"}}, {"type": "way", "id": 652059454, "nodes": [6113762981, 6113762982, 6113762983, 6113762984, 6113762981], "tags": {"building": "yes", "name": "Museo Etnografico dell'Alta Valle Camonica 'L Zuf", "tourism": "museum"}}, {"type": "way", "id": 1416241128, "nodes": [13014910781, 13014910782, 13014910783, 13014910784, 13014910785, 13014910786, 13014910787, 13014910788, 13014910789, 13014910790, 13014910791, 13014910792, 13014910781], "tags": {"fee": "no", "museum": "art", "name": "Junior Park", "opening_hours": "24/7", "outdoor": "yes", "tourism": "museum", "wheelchair": "limited"}}]}