{"version": 0.6, "generator": "Overpass API 0.7.62.10 2d4cfc48", "osm3s": {"timestamp_osm_base": "2026-02-08T12:08:19Z", "copyright": "The data included in this document is from www.openstreetmap.org. The data is made available under ODbL."}, "elements": [{"type": "node", "id": 29883850, "lat": 46.4079533, "lon": 11.5918943, "tags": {"aerialway": "station", "aerialway:access": "both", "aerialway:station": "bottom", "aerialway:summer:access": "both", "name": "Paolina", "public_transport": "station"}}, {"type": "node", "id": 29883961, "lat": 46.4156768, "lon": 11.6144507, "tags": {"aerialway": "station", "aerialway:access": "both", "aerialway:station": "top", "aerialway:summer:access": "both", "ele": "2125", "name": "Paolina", "public_transport": "station"}}, {"type": "node", "id": 29916827, "lat": 46.4307002, "lon": 11.7226224, "tags": {"aerialway": "station", "name": "Buffaure", "public_transport": "station"}}, {"type": "node", "id": 29916850, "lat": 46.4743643, "lon": 11.7747887, "tags": {"aerialway": "station", "name": "Canazei", "public_transport": "station"}}, {"type": "node", "id": 29916851, "lat": 46.4811695, "lon": 11.7881708, "tags": {"aerialway": "station", "ele": "1926", "name": "Pecol", "public_transport": "station"}}, {"type": "node", "id": 29916852, "lat": 46.4746898, "lon": 11.801763, "tags": {"aerialway": "station", "aerialway:access": "exit", "aerialway:summer:access": "both", "ele": "2389", "name": "Col dei Rossi", "public_transport": "station"}}, {"type": "node", "id": 29916899, "lat": 46.4887325, "lon": 11.8105866, "tags": {"aerialway": "station", "name": "Sass Pordoi", "public_transport": "station"}}, {"type": "node", "id": 29916900, "lat": 46.5002831, "lon": 11.8077521, "tags": {"aerialway": "station", "name": "Sass Pordoi", "public_transport": "station"}}, {"type": "node", "id": 102561253, "lat": 46.5402157, "lon": 11.5637762, "tags": {"aerialway": "station", "aerialway:access": "both", "aerialway:summer:access": "both", "air_conditioning": "no", "ele": "1015", "name": "Seis - Siusi", "public_transport": "station", "toilets:wheelchair": "no", "wheelchair": "yes"}}, {"type": "node", "id": 102561714, "lat": 46.5423625, "lon": 11.6170037, "tags": {"aerialway": "station", "aerialway:access": "both", "aerialway:summer:access": "both", "ele": "1857", "name": "Seiser Alm - Alpe di Siusi", "public_transport": "station", "toilets:wheelchair": "yes", "wheelchair": "yes"}}, {"type": "node", "id": 223530229, "lat": 46.56755, "lon": 11.9377485, "tags": {"aerialway": "station", "name": "Piz Sorega", "public_transport": "station"}}, {"type": "node", "id": 223530232, "lat": 46.5563319, "lon": 11.9227899, "tags": {"aerialway": "station", "aerialway:access": "exit", "aerialway:summer:access": "both", "ele": "2003", "name": "Piz Sorega", "public_transport": "station"}}, {"type": "node", "id": 223541707, "lat": 46.5605223, "lon": 11.9143181, "tags": {"aerialway": "station", "name": "La Freina"}}, {"type": "node", "id": 223541713, "lat": 46.5561985, "lon": 11.9215165, "tags": {"aerialway": "station", "name": "La Freina"}}, {"type": "node", "id": 223541719, "lat": 46.5550253, "lon": 11.9144127, "tags": {"aerialway": "station", "aerialway:access": "entry", "name": "La Brancia", "public_transport": "station"}}, {"type": "node", "id": 223541730, "lat": 46.5536049, "lon": 11.8908178, "tags": {"aerialway": "station", "aerialway:access": "entry", "aerialway:summer:access": "both", "name": "Braia Fraida", "public_transport": "station"}}, {"type": "node", "id": 223541736, "lat": 46.5521287, "lon": 11.9064965, "tags": {"aerialway": "station", "aerialway:access": "both", "aerialway:summer:access": "both", "name": "Braia Fraida", "public_transport": "station"}}, {"type": "node", "id": 223541753, "lat": 46.5443458, "lon": 11.8840648, "tags": {"aerialway": "station", "name": "Arlara"}}, {"type": "node", "id": 223541761, "lat": 46.5490903, "lon": 11.8984764, "tags": {"aerialway": "station", "name": "Arlara"}}, {"type": "node", "id": 223545689, "lat": 46.5162787, "lon": 11.8851324, "tags": {"aerialway": "station", "aerialway:access": "exit", "name": "Vizza", "public_transport": "station"}}, {"type": "node", "id": 223545694, "lat": 46.5201987, "lon": 11.8733598, "tags": {"aerialway": "station", "aerialway:access": "entry", "name": "Cherz I", "public_transport": "station"}}, {"type": "node", "id": 223545699, "lat": 46.5165199, "lon": 11.8843593, "tags": {"aerialway": "station", "aerialway:access": "exit", "ele": "2095", "name": "Cherz I", "public_transport": "station"}}, {"type": "node", "id": 223545712, "lat": 46.5199637, "lon": 11.8744098, "tags": {"aerialway": "station", "aerialway:access": "entry", "name": "Cherz II", "public_transport": "station"}}, {"type": "node", "id": 223545716, "lat": 46.5166078, "lon": 11.8844389, "tags": {"aerialway": "station", "aerialway:access": "exit", "name": "Cherz II", "public_transport": "station"}}, {"type": "node", "id": 224060678, "lat": 46.5359516, "lon": 11.8897021, "tags": {"aerialway": "station", "aerialway:access": "entry", "ele": "1722", "name": "Pralongi\u00e0", "public_transport": "station"}}, {"type": "node", "id": 224060688, "lat": 46.5350825, "lon": 11.9044209, "tags": {"aerialway": "station", "aerialway:access": "exit", "ele": "2033", "name": "Pralongi\u00e0", "public_transport": "station"}}, {"type": "node", "id": 224065479, "lat": 46.5487447, "lon": 11.8715103, "tags": {"aerialway": "station", "aerialway:access": "both", "aerialway:summer:access": "both", "name": "Bo\u00e8", "public_transport": "station"}}, {"type": "node", "id": 224065487, "lat": 46.5266498, "lon": 11.862692, "tags": {"aerialway": "station", "aerialway:access": "exit", "aerialway:summer:access": "both", "ele": "2198", "name": "Bo\u00e8", "public_transport": "station"}}, {"type": "node", "id": 224071405, "lat": 46.585478, "lon": 11.9023599, "tags": {"aerialway": "station", "aerialway:access": "entry", "aerialway:summer:access": "both", "name": "Gardenaccia", "public_transport": "station"}}, {"type": "node", "id": 224071414, "lat": 46.5840171, "lon": 11.9028231, "tags": {"aerialway": "station", "aerialway:access": "entry", "name": "Doninz", "public_transport": "station"}}, {"type": "node", "id": 224071419, "lat": 46.5845886, "lon": 11.8998498, "tags": {"aerialway": "station", "aerialway:access": "exit", "name": "Doninz", "public_transport": "station"}}, {"type": "node", "id": 224071428, "lat": 46.5816122, "lon": 11.9027681, "tags": {"aerialway": "station", "aerialway:access": "exit", "name": "La R\u00fca", "public_transport": "station"}}, {"type": "node", "id": 224082200, "lat": 46.547568, "lon": 11.8764292, "tags": {"aerialway": "station", "aerialway:access": "both", "aerialway:summer:access": "both", "name": "Col Alto", "public_transport": "station"}}, {"type": "node", "id": 224082205, "lat": 46.5528112, "lon": 11.8862775, "tags": {"aerialway": "station", "aerialway:access": "both", "aerialway:summer:access": "both", "ele": "2000", "name": "Col Alto", "public_transport": "station"}}, {"type": "node", "id": 224082210, "lat": 46.5472417, "lon": 11.8726776, "tags": {"aerialway": "station", "aerialway:access": "entry", "name": "Costes da l'Ega", "public_transport": "station"}}, {"type": "node", "id": 224082217, "lat": 46.544611, "lon": 11.8789183, "tags": {"aerialway": "station", "aerialway:access": "exit", "name": "Costes da l'Ega", "public_transport": "station"}}, {"type": "node", "id": 224082234, "lat": 46.557849, "lon": 11.8547516, "tags": {"aerialway": "station", "aerialway:access": "both", "aerialway:summer:access": "both", "name": "Col Pradat", "public_transport": "station"}}, {"type": "node", "id": 224082240, "lat": 46.5619692, "lon": 11.8586655, "tags": {"aerialway": "station", "aerialway:access": "both", "aerialway:summer:access": "both", "name": "Col Pradat", "public_transport": "station"}}, {"type": "node", "id": 224082245, "lat": 46.5623925, "lon": 11.8525985, "tags": {"aerialway": "station", "aerialway:access": "entry", "name": "Forcelles", "public_transport": "station"}}, {"type": "node", "id": 224082251, "lat": 46.5589611, "lon": 11.8400636, "tags": {"aerialway": "station", "aerialway:access": "exit", "name": "Forcelles", "public_transport": "station"}}, {"type": "node", "id": 224082267, "lat": 46.5680585, "lon": 11.8507022, "tags": {"aerialway": "station", "aerialway:access": "exit", "name": "Stella Alpina", "public_transport": "station"}}, {"type": "node", "id": 224085769, "lat": 46.5992543, "lon": 11.9004054, "tags": {"aerialway": "station", "name": "Prad\u00fcc"}}, {"type": "node", "id": 224766874, "lat": 46.5990692, "lon": 11.9001305, "tags": {"aerialway": "station", "name": "Sponata"}}, {"type": "node", "id": 224775106, "lat": 46.5555535, "lon": 11.9141596, "tags": {"aerialway": "station", "name": "Ciampai"}}, {"type": "node", "id": 224775114, "lat": 46.5528498, "lon": 11.9210854, "tags": {"aerialway": "station", "aerialway:access": "exit", "name": "Ciampai", "public_transport": "station"}}, {"type": "node", "id": 224775119, "lat": 46.5546574, "lon": 11.9149083, "tags": {"aerialway": "station", "name": "Biok"}}, {"type": "node", "id": 224775125, "lat": 46.5470345, "lon": 11.9099752, "tags": {"aerialway": "station", "aerialway:access": "exit", "ele": "2078", "name": "Biok", "public_transport": "station"}}, {"type": "node", "id": 224779024, "lat": 46.5647306, "lon": 11.9062765, "tags": {"aerialway": "station", "name": "Bamby"}}, {"type": "node", "id": 224779030, "lat": 46.5809501, "lon": 11.9010705, "tags": {"aerialway": "station", "aerialway:access": "both", "aerialway:summer:access": "both", "name": "Piz la Ila", "public_transport": "station"}}, {"type": "node", "id": 224779036, "lat": 46.56549, "lon": 11.9060748, "tags": {"aerialway": "station", "aerialway:access": "both", "aerialway:summer:access": "both", "ele": "2077", "name": "Piz la Ila", "public_transport": "station"}}, {"type": "node", "id": 224797259, "lat": 46.6076178, "lon": 11.8973958, "tags": {"aerialway": "station", "aerialway:access": "both", "name": "Prad\u00fcc", "seasonal": "winter"}}, {"type": "node", "id": 255662341, "lat": 46.5622068, "lon": 11.9034829, "tags": {"aerialway": "station", "name": "Pre dai Corf"}}, {"type": "node", "id": 263472902, "lat": 46.5324554, "lon": 11.7711498, "tags": {"aerialway": "station", "aerialway:access": "both", "aerialway:station": "bottom", "aerialway:summer:access": "both", "name": "Piz Seteur", "public_transport": "station"}}, {"type": "node", "id": 263472904, "lat": 46.5275612, "lon": 11.7602766, "tags": {"aerialway": "station", "aerialway:access": "both", "aerialway:summer:access": "both", "name": "Piz Seteur", "public_transport": "station"}}, {"type": "node", "id": 263472905, "lat": 46.5233692, "lon": 11.7646806, "tags": {"aerialway": "station", "aerialway:access": "entry", "name": "Citt\u00e0 dei Sassi", "public_transport": "station"}}, {"type": "node", "id": 263472906, "lat": 46.5158433, "lon": 11.7524045, "tags": {"aerialway": "station", "aerialway:access": "exit", "name": "Citt\u00e0 dei Sassi", "public_transport": "station"}}, {"type": "node", "id": 263479369, "lat": 46.490651, "lon": 11.7829415, "tags": {"aerialway": "station", "name": "Pian Frataces", "public_transport": "station"}}, {"type": "node", "id": 263479370, "lat": 46.4822306, "lon": 11.8049547, "tags": {"aerialway": "station", "name": "Gherdecia", "public_transport": "station"}}, {"type": "node", "id": 263479376, "lat": 46.4822893, "lon": 11.8014343, "tags": {"aerialway": "station", "name": "Sass Bec\u00e8", "public_transport": "station"}}, {"type": "node", "id": 263479377, "lat": 46.4782726, "lon": 11.8122496, "tags": {"aerialway": "station", "name": "Sass Bec\u00e8", "public_transport": "station"}}, {"type": "node", "id": 263479464, "lat": 46.4736013, "lon": 11.8857804, "tags": {"aerialway": "station", "ele": "2287", "name": "Sass de la Vegla"}}, {"type": "node", "id": 263483539, "lat": 46.4701025, "lon": 11.8983763, "tags": {"aerialway": "station", "ele": "2187", "name": "Padon I", "public_transport": "station"}}, {"type": "node", "id": 263483598, "lat": 46.4641491, "lon": 11.8937882, "tags": {"aerialway": "station", "ele": "2370", "name": "Padon I", "public_transport": "station"}}, {"type": "node", "id": 263483601, "lat": 46.4449499, "lon": 11.9070202, "tags": {"aerialway": "station", "name": "Padon II", "public_transport": "station"}}, {"type": "node", "id": 263483709, "lat": 46.463759, "lon": 11.892198, "tags": {"aerialway": "station", "ele": "2370", "name": "Padon II"}}, {"type": "node", "id": 263483710, "lat": 46.470904, "lon": 11.8981493, "tags": {"aerialway": "station", "ele": "2187", "name": "Mesola", "public_transport": "station"}}, {"type": "node", "id": 263483736, "lat": 46.4737733, "lon": 11.8865486, "tags": {"aerialway": "station", "ele": "2287", "name": "Mesola", "public_transport": "station"}}, {"type": "node", "id": 263483739, "lat": 46.4971541, "lon": 11.8718812, "tags": {"aerialway": "station", "aerialway:access": "entry", "aerialway:summer:access": "both", "name": "Burz", "public_transport": "station"}}, {"type": "node", "id": 263483805, "lat": 46.4997284, "lon": 11.8607991, "tags": {"aerialway": "station", "aerialway:access": "exit", "aerialway:summer:access": "both", "name": "Burz", "public_transport": "station"}}, {"type": "node", "id": 263483819, "lat": 46.5048704, "lon": 11.8606759, "tags": {"aerialway": "station", "aerialway:access": "entry", "name": "Le Pale", "public_transport": "station"}}, {"type": "node", "id": 263483821, "lat": 46.5128058, "lon": 11.863109, "tags": {"aerialway": "station", "aerialway:access": "exit", "name": "Le Pale", "public_transport": "station"}}, {"type": "node", "id": 263484558, "lat": 46.5201795, "lon": 11.8726721, "tags": {"aerialway": "station", "aerialway:access": "entry", "name": "Costoratta", "public_transport": "station"}}, {"type": "node", "id": 263484559, "lat": 46.5255635, "lon": 11.8680693, "tags": {"aerialway": "station", "aerialway:access": "exit", "name": "Costoratta", "public_transport": "station"}}, {"type": "node", "id": 263484574, "lat": 46.5130628, "lon": 11.8641242, "tags": {"aerialway": "station", "aerialway:access": "exit", "aerialway:summer:access": "both", "name": "Campolongo", "public_transport": "station"}}, {"type": "node", "id": 263487793, "lat": 46.5499774, "lon": 11.8556576, "tags": {"aerialway": "station", "aerialway:access": "entry", "name": "Sodlisia", "public_transport": "station"}}, {"type": "node", "id": 263487796, "lat": 46.5502029, "lon": 11.8452193, "tags": {"aerialway": "station", "aerialway:access": "exit", "name": "Sodlisia", "public_transport": "station"}}, {"type": "node", "id": 263487806, "lat": 46.5481905, "lon": 11.8275048, "tags": {"aerialway": "station", "aerialway:access": "both", "aerialway:summer:access": "both", "name": "Plans - Frara", "public_transport": "station"}}, {"type": "node", "id": 263491781, "lat": 46.550099, "lon": 11.8063771, "tags": {"aerialway": "station", "aerialway:access": "entry", "aerialway:summer:access": "both", "name": "Cir", "public_transport": "station"}}, {"type": "node", "id": 263491801, "lat": 46.5542591, "lon": 11.8049199, "tags": {"aerialway": "station", "aerialway:access": "exit", "name": "Val Setus", "public_transport": "station"}}, {"type": "node", "id": 263491803, "lat": 46.5523587, "lon": 11.8090882, "tags": {"aerialway": "station", "aerialway:access": "entry", "name": "Val Setus", "public_transport": "station"}}, {"type": "node", "id": 278462942, "lat": 46.6145966, "lon": 11.9365732, "tags": {"aerialway": "station", "aerialway:access": "both", "aerialway:summer:access": "both", "name": "La Crusc 2", "public_transport": "station"}}, {"type": "node", "id": 278466842, "lat": 46.5879243, "lon": 11.8865452, "tags": {"aerialway": "station", "aerialway:access": "exit", "aerialway:summer:access": "both", "name": "Gardenaccia", "public_transport": "station"}}, {"type": "node", "id": 282714980, "lat": 46.3793795, "lon": 11.7852276, "tags": {"aerialway": "station", "ele": "1924", "name": "Costabella"}}, {"type": "node", "id": 282714983, "lat": 46.3933559, "lon": 11.7813404, "tags": {"aerialway": "station", "ele": "2273", "name": "Costabella"}}, {"type": "node", "id": 290213755, "lat": 46.5896654, "lon": 11.7021929, "tags": {"aerialway": "station", "aerialway:access": "both", "aerialway:summer:access": "both", "ele": "1730", "name": "Furnes", "public_transport": "station"}}, {"type": "node", "id": 290215517, "lat": 46.5313827, "lon": 11.6253432, "tags": {"aerialway": "station", "aerialway:access": "exit", "aerialway:summer:access": "both", "ele": "2015", "name": "Panorama", "public_transport": "station"}}, {"type": "node", "id": 290215518, "lat": 46.5433867, "lon": 11.622568, "tags": {"aerialway": "station", "aerialway:access": "entry", "aerialway:summer:access": "both", "ele": "1815", "name": "Panorama", "public_transport": "station"}}, {"type": "node", "id": 296550941, "lat": 46.589805, "lon": 11.7023249, "tags": {"aerialway": "station", "aerialway:access": "both", "aerialway:summer:access": "both", "ele": "1730", "name": "Furnes", "public_transport": "station"}}, {"type": "node", "id": 296550944, "lat": 46.597936, "lon": 11.7243474, "tags": {"aerialway": "station", "aerialway:access": "both", "aerialway:station": "top", "aerialway:summer:access": "both", "ele": "2493", "name": "Seceda", "public_transport": "station"}}, {"type": "node", "id": 299140317, "lat": 46.4289845, "lon": 11.6943957, "tags": {"aerialway": "station", "name": "Alloch", "public_transport": "station"}}, {"type": "node", "id": 299140320, "lat": 46.4207051, "lon": 11.6962561, "tags": {"aerialway": "station", "name": "Alloch", "public_transport": "station"}}, {"type": "node", "id": 302358908, "lat": 46.698143, "lon": 11.6829609, "tags": {"aerialway": "station", "aerialway:station": "bottom"}}, {"type": "node", "id": 305686036, "lat": 46.576621, "lon": 11.4458771, "tags": {"aerialway": "station", "aerialway:access": "both", "aerialway:summer:access": "both", "air_conditioning": "no", "baby_feeding": "no", "ele": "1538", "name": "Pemmern - Tre Vie", "name:de": "Pemmern", "name:it": "Tre Vie", "public_transport": "station", "source": "https://www.ritten.com/documents/download/winteroffers.pdf?2022-12-02"}}, {"type": "node", "id": 309383838, "lat": 46.6881946, "lon": 11.420581, "tags": {"aerialway": "station", "ele": "1570", "public_transport": "station"}}, {"type": "node", "id": 309383840, "lat": 46.6954214, "lon": 11.4407587, "tags": {"aerialway": "station", "ele": "2130", "public_transport": "station"}}, {"type": "node", "id": 312683437, "lat": 46.4923672, "lon": 11.7810397, "tags": {"aerialway": "station", "aerialway:access": "entry", "aerialway:summer:access": "both", "name": "Pradel", "public_transport": "station"}}, {"type": "node", "id": 312683438, "lat": 46.5022941, "lon": 11.7524008, "tags": {"aerialway": "station", "aerialway:access": "exit", "aerialway:summer:access": "both", "name": "Rodella", "public_transport": "station"}}, {"type": "node", "id": 312683439, "lat": 46.5021167, "lon": 11.7576208, "tags": {"aerialway": "station", "name": "Norei", "public_transport": "station"}}, {"type": "node", "id": 312683440, "lat": 46.5046146, "lon": 11.7448758, "tags": {"aerialway": "station", "name": "5 Dita", "public_transport": "station"}}, {"type": "node", "id": 312683441, "lat": 46.5101552, "lon": 11.7571697, "tags": {"aerialway": "station", "aerialway:access": "entry", "name": "Sasso Levante", "public_transport": "station"}}, {"type": "node", "id": 312683442, "lat": 46.5057463, "lon": 11.7438958, "tags": {"aerialway": "station", "name": "Sasso Levante", "public_transport": "station"}}, {"type": "node", "id": 312683443, "lat": 46.5015906, "lon": 11.7577874, "tags": {"aerialway": "station", "name": "Salei"}}, {"type": "node", "id": 312683444, "lat": 46.4969845, "lon": 11.7517136, "tags": {"aerialway": "station", "aerialway:access": "exit", "name": "Salei", "public_transport": "station"}}, {"type": "node", "id": 312683445, "lat": 46.5017075, "lon": 11.7527276, "tags": {"aerialway": "station", "aerialway:access": "entry", "name": "Rodella des Alpes", "public_transport": "station"}}, {"type": "node", "id": 312683450, "lat": 46.5265662, "lon": 11.758775, "tags": {"aerialway": "station", "aerialway:access": "entry", "name": "Comici I", "public_transport": "station"}}, {"type": "node", "id": 312683451, "lat": 46.5284225, "lon": 11.747738, "tags": {"aerialway": "station", "aerialway:access": "exit", "name": "Comici I", "public_transport": "station"}}, {"type": "node", "id": 312683452, "lat": 46.5340068, "lon": 11.754863, "tags": {"aerialway": "station", "aerialway:access": "entry", "aerialway:summer:access": "both", "name": "Piza Pranseies", "public_transport": "station"}}, {"type": "node", "id": 312683453, "lat": 46.5383371, "lon": 11.7515822, "tags": {"aerialway": "station", "aerialway:access": "exit", "aerialway:summer:access": "both", "name": "Piza Pranseies", "public_transport": "station"}}, {"type": "node", "id": 312683455, "lat": 46.4803636, "lon": 11.789586, "tags": {"aerialway": "station", "aerialway:access": "entry", "name": "To\u00e8", "public_transport": "station"}}, {"type": "node", "id": 312683456, "lat": 46.4773217, "lon": 11.8045741, "tags": {"aerialway": "station", "name": "To\u00e8", "public_transport": "station"}}, {"type": "node", "id": 312683457, "lat": 46.4851935, "lon": 11.7955524, "tags": {"aerialway": "station", "name": "Kristiania", "public_transport": "station"}}, {"type": "node", "id": 312683459, "lat": 46.4866125, "lon": 11.8251045, "tags": {"aerialway": "station", "aerialway:access": "entry", "name": "Lezuo Belvedere", "public_transport": "station"}}, {"type": "node", "id": 312683460, "lat": 46.4787617, "lon": 11.8131874, "tags": {"aerialway": "station", "aerialway:access": "exit", "name": "Lezuo Belvedere", "public_transport": "station"}}, {"type": "node", "id": 312683461, "lat": 46.4881468, "lon": 11.8443384, "tags": {"aerialway": "station", "aerialway:access": "entry", "aerialway:summer:access": "both", "name": "Fodom", "public_transport": "station"}}, {"type": "node", "id": 312683462, "lat": 46.4879937, "lon": 11.8150105, "tags": {"aerialway": "station", "aerialway:access": "exit", "aerialway:summer:access": "both", "name": "Fodom", "public_transport": "station"}}, {"type": "node", "id": 312683466, "lat": 46.4955374, "lon": 11.8748212, "tags": {"aerialway": "station", "aerialway:access": "both", "ele": "1602", "name": "DMC Europa I", "public_transport": "station"}}, {"type": "node", "id": 312683467, "lat": 46.4812406, "lon": 11.8793586, "tags": {"aerialway": "station", "aerialway:access": "entry", "name": "Sass de la Vegla", "public_transport": "station"}}, {"type": "node", "id": 312683468, "lat": 46.4732165, "lon": 11.8701162, "tags": {"aerialway": "station", "ele": "2478", "name": "DMC Europa II", "public_transport": "station"}}, {"type": "node", "id": 312683469, "lat": 46.4276749, "lon": 11.9107626, "tags": {"aerialway": "station", "aerialway:access": "both", "ele": "1450", "name": "Malga Ciapela", "public_transport": "station"}}, {"type": "node", "id": 312683470, "lat": 46.434732, "lon": 11.8976264, "tags": {"aerialway": "station", "ele": "2350", "name": "Coston d\u2019Antermoja", "public_transport": "station"}}, {"type": "node", "id": 312683471, "lat": 46.4376128, "lon": 11.8793038, "tags": {"aerialway": "station", "ele": "2950", "name": "Serauta"}}, {"type": "node", "id": 312683472, "lat": 46.4336487, "lon": 11.8623795, "tags": {"aerialway": "station", "ele": "3265", "name": "Punta Rocca", "public_transport": "station"}}, {"type": "node", "id": 312683473, "lat": 46.5195677, "lon": 11.8716667, "tags": {"aerialway": "station", "aerialway:access": "entry", "aerialway:summer:access": "both", "name": "Campolongo", "public_transport": "station"}}, {"type": "node", "id": 314953492, "lat": 46.5957762, "lon": 11.4525162, "tags": {"aerialway": "station", "aerialway:access": "both", "aerialway:summer:access": "both", "ele": "2060", "name": "Schwarzseespitze - Cima Lago Nero", "name:de": "Schwarzseespitze", "name:it": "Cima Lago Nero", "public_transport": "station"}}, {"type": "node", "id": 319257477, "lat": 46.553726, "lon": 11.9062975, "tags": {"aerialway": "station", "name": "Roby"}}, {"type": "node", "id": 319257478, "lat": 46.5560081, "lon": 11.8998592, "tags": {"aerialway": "station", "name": "Roby"}}, {"type": "node", "id": 324199716, "lat": 46.4300618, "lon": 11.7242375, "tags": {"aerialway": "station", "name": "Col de Valvacin", "public_transport": "station"}}, {"type": "node", "id": 324199717, "lat": 46.4339447, "lon": 11.7355569, "tags": {"aerialway": "station", "name": "Col de Valvacin", "public_transport": "station"}}, {"type": "node", "id": 324339004, "lat": 46.4317437, "lon": 11.7172455, "tags": {"aerialway": "station", "name": "Buffaure", "public_transport": "station"}}, {"type": "node", "id": 324339010, "lat": 46.432226, "lon": 11.7241217, "tags": {"aerialway": "station", "name": "Buffaure", "public_transport": "station"}}, {"type": "node", "id": 329675693, "lat": 46.5843446, "lon": 11.7469641, "tags": {"aerialway": "station", "aerialway:access": "exit", "ele": "2106", "name": "Cisles", "public_transport": "station"}}, {"type": "node", "id": 329678755, "lat": 46.5866413, "lon": 11.7400674, "tags": {"aerialway": "station", "aerialway:access": "entry", "aerialway:station": "bottom", "aerialway:summer:access": "both", "ele": "2040", "name": "Fermeda", "public_transport": "station"}}, {"type": "node", "id": 329729478, "lat": 46.5650691, "lon": 11.7366984, "tags": {"aerialway": "station", "aerialway:access": "both", "aerialway:summer:access": "both", "contact:email": "info@colraiser.it", "contact:phone": "+39 0471 792089", "contact:website": "https://www.colraiser.it", "ele": "1556", "name": "Col Raiser", "public_transport": "station"}}, {"type": "node", "id": 329742173, "lat": 46.5823872, "lon": 11.7510383, "tags": {"aerialway": "station", "aerialway:access": "entry", "ele": "1941", "name": "Cisles", "public_transport": "station"}}, {"type": "node", "id": 330039067, "lat": 46.5570223, "lon": 11.729402, "tags": {"aerialway": "station", "aerialway:access": "both", "name": "Saslong", "public_transport": "station"}}, {"type": "node", "id": 330039069, "lat": 46.5433848, "lon": 11.7410487, "tags": {"aerialway": "station", "aerialway:access": "both", "name": "Saslong", "public_transport": "station"}}, {"type": "node", "id": 330039465, "lat": 46.5433119, "lon": 11.7418093, "tags": {"aerialway": "station", "aerialway:access": "entry", "name": "Sochers - Ciampinoi", "public_transport": "station"}}, {"type": "node", "id": 330039466, "lat": 46.538742, "lon": 11.7524215, "tags": {"aerialway": "station", "aerialway:access": "exit", "name": "Sochers - Ciampinoi", "public_transport": "station"}}, {"type": "node", "id": 330040267, "lat": 46.5506142, "lon": 11.7157559, "tags": {"aerialway": "station", "aerialway:access": "entry", "aerialway:summer:access": "both", "ele": "1626", "name": "Monte Seura", "public_transport": "station"}}, {"type": "node", "id": 330040269, "lat": 46.5390321, "lon": 11.7265788, "tags": {"aerialway": "station", "aerialway:access": "exit", "aerialway:summer:access": "both", "ele": "2042", "name": "Monte Seura", "public_transport": "station"}}, {"type": "node", "id": 330040353, "lat": 46.5351729, "lon": 11.7370872, "tags": {"aerialway": "station", "aerialway:access": "entry", "aerialway:summer:access": "both", "name": "Tramans", "public_transport": "station"}}, {"type": "node", "id": 330040354, "lat": 46.5336894, "lon": 11.7492577, "tags": {"aerialway": "station", "aerialway:access": "exit", "aerialway:summer:access": "both", "name": "Tramans", "public_transport": "station"}}, {"type": "node", "id": 330055138, "lat": 46.5337008, "lon": 11.7719835, "tags": {"aerialway": "station", "aerialway:access": "entry", "name": "Piz Sella", "public_transport": "station"}}, {"type": "node", "id": 330055139, "lat": 46.5319948, "lon": 11.7510577, "tags": {"aerialway": "station", "aerialway:access": "exit", "name": "Piz Sella", "public_transport": "station"}}, {"type": "node", "id": 331180135, "lat": 46.5502146, "lon": 11.8532525, "tags": {"aerialway": "station", "aerialway:access": "entry", "aerialway:summer:access": "both", "name": "Colfosco", "public_transport": "station"}}, {"type": "node", "id": 331180140, "lat": 46.5391374, "lon": 11.9021694, "tags": {"aerialway": "station", "aerialway:access": "entry", "name": "Pralongi\u00e0 II", "public_transport": "station"}}, {"type": "node", "id": 331180141, "lat": 46.5333932, "lon": 11.9138801, "tags": {"aerialway": "station", "aerialway:access": "exit", "name": "Pralongi\u00e0 II", "public_transport": "station"}}, {"type": "node", "id": 331252043, "lat": 46.5256114, "lon": 11.8622222, "tags": {"aerialway": "station", "aerialway:access": "entry", "aerialway:summer:access": "both", "name": "Vallon", "public_transport": "station"}}, {"type": "node", "id": 331252044, "lat": 46.522298, "lon": 11.8496575, "tags": {"aerialway": "station", "aerialway:access": "exit", "aerialway:summer:access": "both", "ele": "2520", "name": "Vallon", "public_transport": "station"}}, {"type": "node", "id": 331252349, "lat": 46.581716, "lon": 11.9023271, "tags": {"aerialway": "station", "aerialway:access": "both", "name": "Colz", "public_transport": "station"}}, {"type": "node", "id": 331252350, "lat": 46.5832621, "lon": 11.9009487, "tags": {"aerialway": "station", "aerialway:access": "both", "name": "Colz", "public_transport": "station"}}, {"type": "node", "id": 331252671, "lat": 46.5534416, "lon": 11.9067245, "tags": {"aerialway": "station", "aerialway:access": "exit", "name": "La Brancia", "public_transport": "station"}}, {"type": "node", "id": 331252695, "lat": 46.5561833, "lon": 11.8990412, "tags": {"aerialway": "station", "name": "Pre dai Corf"}}, {"type": "node", "id": 332043217, "lat": 46.5248795, "lon": 11.7589696, "tags": {"aerialway": "station", "aerialway:access": "entry", "aerialway:summer:access": "both", "name": "Gran Paradiso", "public_transport": "station"}}, {"type": "node", "id": 332043219, "lat": 46.5261117, "lon": 11.7587969, "tags": {"aerialway": "station", "aerialway:access": "entry", "name": "Sotsaslong", "public_transport": "station"}}, {"type": "node", "id": 332043220, "lat": 46.525113, "lon": 11.7464112, "tags": {"aerialway": "station", "aerialway:access": "exit", "name": "Sotsaslong", "public_transport": "station"}}, {"type": "node", "id": 332084392, "lat": 46.6005397, "lon": 11.7272376, "tags": {"aerialway": "station", "aerialway:access": "exit", "aerialway:station": "top", "aerialway:summer:access": "both", "ele": "2511", "name": "Fermeda", "public_transport": "station", "source": "PCN Orthofoto"}}, {"type": "node", "id": 335763980, "lat": 46.5525293, "lon": 11.7692989, "tags": {"aerialway": "station", "aerialway:access": "exit", "aerialway:summer:access": "exit", "name": "Costabella", "public_transport": "station"}}, {"type": "node", "id": 335763982, "lat": 46.5525005, "lon": 11.7639271, "tags": {"aerialway": "station", "aerialway:access": "entry", "aerialway:summer:access": "entry", "name": "Costabella", "public_transport": "station"}}, {"type": "node", "id": 335763999, "lat": 46.5536644, "lon": 11.7997603, "tags": {"aerialway": "station", "aerialway:access": "both", "aerialway:summer:access": "both", "name": "Dantercepies", "public_transport": "station"}}, {"type": "node", "id": 340549920, "lat": 46.4212663, "lon": 11.671198, "tags": {"aerialway": "station", "name": "Vigo", "usage": "tourism"}}, {"type": "node", "id": 340549923, "lat": 46.4333313, "lon": 11.6652704, "tags": {"aerialway": "station", "name": "Catinaccio", "usage": "tourism"}}, {"type": "node", "id": 340567623, "lat": 46.4388565, "lon": 11.662641, "tags": {"aerialway": "station", "name": "Pian Peccei", "public_transport": "station"}}, {"type": "node", "id": 340573653, "lat": 46.4333194, "lon": 11.6551026, "tags": {"aerialway": "station", "name": "Pramartin", "public_transport": "station"}}, {"type": "node", "id": 340588435, "lat": 46.442824, "lon": 11.6815682, "tags": {"aerialway": "station", "name": "Vajolet I"}}, {"type": "node", "id": 340588438, "lat": 46.443246, "lon": 11.6815117, "tags": {"aerialway": "station", "name": "Vajolet II"}}, {"type": "node", "id": 340588441, "lat": 46.4386472, "lon": 11.6633219, "tags": {"aerialway": "station", "ele": "1802", "name": "Vajolet II", "public_transport": "station"}}, {"type": "node", "id": 340590018, "lat": 46.4381562, "lon": 11.6634632, "tags": {"aerialway": "station", "name": "Pian Peccei"}}, {"type": "node", "id": 340590021, "lat": 46.4341579, "lon": 11.6641571, "tags": {"aerialway": "station", "name": "Ciampedie"}}, {"type": "node", "id": 341231839, "lat": 46.4219845, "lon": 11.5868426, "tags": {"aerialway": "station", "aerialway:access": "entry", "aerialway:station": "bottom", "name": "Tschein", "public_transport": "station"}}, {"type": "node", "id": 354931472, "lat": 46.7045664, "lon": 11.9297466, "tags": {"aerialway": "station", "aerialway:access": "both", "name": "Skitrans Bronta", "public_transport": "station"}}, {"type": "node", "id": 354931473, "lat": 46.7012532, "lon": 11.9272554, "tags": {"aerialway": "station", "aerialway:access": "both", "name": "Skitrans Bronta", "public_transport": "station"}}, {"type": "node", "id": 354931474, "lat": 46.7005337, "lon": 11.9280078, "tags": {"aerialway": "station", "aerialway:access": "entry", "aerialway:summer:access": "both", "ele:local": "1185", "name": "Pedag\u00e0", "public_transport": "station"}}, {"type": "node", "id": 354931476, "lat": 46.6965977, "lon": 11.9214618, "tags": {"aerialway": "station", "aerialway:access": "both", "aerialway:summer:access": "both", "ele": "1310", "name": "Pedag\u00e0 / Piz de Plaies", "public_transport": "station"}}, {"type": "node", "id": 354931477, "lat": 46.697705, "lon": 11.9120676, "tags": {"aerialway": "station", "aerialway:access": "exit", "aerialway:summer:access": "both", "name": "Piz de Plaies", "public_transport": "station"}}, {"type": "node", "id": 354932042, "lat": 46.6923554, "lon": 11.8928248, "tags": {"aerialway": "station", "aerialway:access": "both", "name": "Piculin", "public_transport": "station"}}, {"type": "node", "id": 354932044, "lat": 46.6979826, "lon": 11.91137, "tags": {"aerialway": "station", "aerialway:access": "both", "name": "Piculin", "public_transport": "station"}}, {"type": "node", "id": 354932667, "lat": 46.7044547, "lon": 11.930465, "tags": {"aerialway": "station", "aerialway:access": "both", "name": "Miara", "public_transport": "station", "wheelchair:description": "Monorolly available"}}, {"type": "node", "id": 354932669, "lat": 46.7109921, "lon": 11.9511505, "tags": {"aerialway": "station", "aerialway:access": "exit", "name": "Miara", "public_transport": "station"}}, {"type": "node", "id": 354932671, "lat": 46.7111024, "lon": 11.9505889, "tags": {"aerialway": "station", "aerialway:access": "entry", "name": "Col Toron", "public_transport": "station", "wheelchair:description": "Monorolly available"}}, {"type": "node", "id": 354932673, "lat": 46.7194142, "lon": 11.9637609, "tags": {"aerialway": "station", "aerialway:access": "exit", "ele:local": "1806", "name": "Col Toron", "public_transport": "station"}}, {"type": "node", "id": 355184870, "lat": 46.5518005, "lon": 11.7154831, "tags": {"aerialway": "station", "aerialway:access": "both", "aerialway:summer:access": "both", "ele": "1667", "name": "Monte Pana", "public_transport": "station"}}, {"type": "node", "id": 355184871, "lat": 46.5565518, "lon": 11.7233567, "tags": {"aerialway": "station", "aerialway:access": "both", "aerialway:summer:access": "both", "name": "Monte Pana", "public_transport": "station"}}, {"type": "node", "id": 355305240, "lat": 46.4075583, "lon": 11.5924505, "tags": {"aerialway": "station", "aerialway:access": "both", "aerialway:station": "bottom", "name": "Hubertus"}}, {"type": "node", "id": 355305244, "lat": 46.4031684, "lon": 11.6071038, "tags": {"aerialway": "station", "aerialway:access": "both", "aerialway:station": "top", "name": "Hubertus"}}, {"type": "node", "id": 355306062, "lat": 46.4036524, "lon": 11.6088204, "tags": {"aerialway": "station", "aerialway:access": "entry", "aerialway:station": "bottom", "aerialway:summer:access": "both", "name": "Pr\u00e0 di Tori"}}, {"type": "node", "id": 355306064, "lat": 46.3956472, "lon": 11.6008289, "tags": {"aerialway": "station", "aerialway:access": "exit", "aerialway:station": "top", "aerialway:summer:access": "both", "name": "Pr\u00e0 di Tori"}}, {"type": "node", "id": 360588600, "lat": 46.4978625, "lon": 11.8691679, "tags": {"aerialway": "station", "aerialway:access": "both", "name": "Arabba Fly", "public_transport": "station"}}, {"type": "node", "id": 361061892, "lat": 46.5618513, "lon": 11.7707604, "tags": {"aerialway": "station", "aerialway:access": "entry", "name": "Val", "public_transport": "station"}}, {"type": "node", "id": 361061893, "lat": 46.5573626, "lon": 11.7773953, "tags": {"aerialway": "station", "aerialway:access": "exit", "name": "Val", "public_transport": "station"}}, {"type": "node", "id": 366028465, "lat": 46.4818717, "lon": 11.8792015, "tags": {"aerialway": "station", "aerialway:access": "both", "aerialway:summer:access": "both", "name": "DMC Europa I & II", "public_transport": "station"}}, {"type": "node", "id": 366038255, "lat": 46.4821699, "lon": 11.8013078, "tags": {"aerialway": "station", "name": "Belvedere", "public_transport": "station"}}, {"type": "node", "id": 366038256, "lat": 46.4784021, "lon": 11.8071104, "tags": {"aerialway": "station", "name": "Belvedere", "public_transport": "station"}}, {"type": "node", "id": 366189655, "lat": 46.5466864, "lon": 11.7668908, "tags": {"aerialway": "station", "aerialway:access": "entry", "name": "Fungeia", "public_transport": "station"}}, {"type": "node", "id": 366189657, "lat": 46.5471037, "lon": 11.7652328, "tags": {"aerialway": "station", "aerialway:access": "exit", "name": "Fungeia", "public_transport": "station"}}, {"type": "node", "id": 411679826, "lat": 46.5728649, "lon": 11.6712802, "tags": {"aerialway": "station", "aerialway:access": "both", "aerialway:summer:access": "both", "contact:email": "info@alpedisiusi-seiseralm.com", "contact:phone": "+39 0471 797897", "contact:website": "http://www.seiseralm-seilbahn.com/", "name": "Ortisei", "public_transport": "station", "wheelchair": "yes"}}, {"type": "node", "id": 411680977, "lat": 46.5584824, "lon": 11.6577449, "tags": {"aerialway": "station", "aerialway:access": "exit", "ele": "2065", "name": "Mezd\u00ec", "public_transport": "station"}}, {"type": "node", "id": 411680978, "lat": 46.5512079, "lon": 11.6631223, "tags": {"aerialway": "station", "aerialway:access": "entry", "ele": "1821", "name": "Mezd\u00ec", "public_transport": "station"}}, {"type": "node", "id": 411680979, "lat": 46.5308945, "lon": 11.6714346, "tags": {"aerialway": "station", "aerialway:access": "entry", "aerialway:summer:access": "both", "ele": "1710", "name": "Florian", "public_transport": "station"}}, {"type": "node", "id": 411680980, "lat": 46.5155546, "lon": 11.6845837, "tags": {"aerialway": "station", "aerialway:access": "exit", "aerialway:summer:access": "both", "ele": "2125", "name": "Florian", "public_transport": "station"}}, {"type": "node", "id": 440655822, "lat": 46.6948886, "lon": 11.7334963, "tags": {"aerialway": "station", "public_transport": "station"}}, {"type": "node", "id": 488395732, "lat": 46.5538407, "lon": 11.6632756, "tags": {"aerialway": "station", "aerialway:access": "both", "aerialway:summer:access": "both", "name": "Zur Sonne - Al Sole", "public_transport": "station"}}, {"type": "node", "id": 489926752, "lat": 46.5542711, "lon": 11.8000327, "tags": {"aerialway": "station", "aerialway:access": "exit", "aerialway:summer:access": "both", "name": "Cir", "public_transport": "station"}}, {"type": "node", "id": 517974314, "lat": 46.5482878, "lon": 11.6485354, "tags": {"aerialway": "station", "aerialway:access": "exit", "name": "Monte Piz", "public_transport": "station"}}, {"type": "node", "id": 517974338, "lat": 46.5470226, "lon": 11.6359052, "tags": {"aerialway": "station", "aerialway:access": "entry", "ele": "1778", "name": "Monte Piz", "public_transport": "station"}}, {"type": "node", "id": 517974340, "lat": 46.5464188, "lon": 11.6354079, "tags": {"aerialway": "station", "aerialway:access": "entry", "ele": "1781", "name": "Steger Dellai", "public_transport": "station"}}, {"type": "node", "id": 517974356, "lat": 46.5372048, "lon": 11.6368976, "tags": {"aerialway": "station", "aerialway:access": "exit", "ele": "1958", "name": "Steger Dellai", "public_transport": "station"}}, {"type": "node", "id": 517974357, "lat": 46.533903, "lon": 11.6348113, "tags": {"aerialway": "station", "aerialway:access": "exit", "ele": "1973", "name": "Bamby", "public_transport": "station"}}, {"type": "node", "id": 517974371, "lat": 46.5310844, "lon": 11.6375972, "tags": {"aerialway": "station", "aerialway:access": "entry", "ele": "1906", "name": "Bamby", "public_transport": "station"}}, {"type": "node", "id": 518004891, "lat": 46.5303648, "lon": 11.6692561, "tags": {"aerialway": "station", "aerialway:access": "entry", "name": "Floralpina", "public_transport": "station"}}, {"type": "node", "id": 518004934, "lat": 46.5264119, "lon": 11.6497495, "tags": {"aerialway": "station", "aerialway:access": "exit", "name": "Floralpina", "public_transport": "station"}}, {"type": "node", "id": 518004937, "lat": 46.5257897, "lon": 11.6540156, "tags": {"aerialway": "station", "aerialway:access": "entry", "ele": "1885", "name": "Punta d'Oro / Goldknopf", "public_transport": "station", "toilets:wheelchair": "no"}}, {"type": "node", "id": 518005003, "lat": 46.5145123, "lon": 11.6375611, "tags": {"aerialway": "station", "aerialway:access": "exit", "ele": "2220", "name": "Punta d'Oro / Goldknopf", "public_transport": "station"}}, {"type": "node", "id": 518033266, "lat": 46.5470582, "lon": 11.6564643, "tags": {"aerialway": "station", "aerialway:access": "entry", "name": "Sanon", "public_transport": "station"}}, {"type": "node", "id": 518033286, "lat": 46.5484092, "lon": 11.6491629, "tags": {"aerialway": "station", "aerialway:access": "exit", "name": "Sanon", "public_transport": "station"}}, {"type": "node", "id": 518033288, "lat": 46.5501083, "lon": 11.648933, "tags": {"aerialway": "station", "aerialway:access": "entry", "ele": "1909", "name": "Leo Demetz", "public_transport": "station"}}, {"type": "node", "id": 518033308, "lat": 46.5552364, "lon": 11.6477547, "tags": {"aerialway": "station", "aerialway:access": "exit", "ele": "2039", "name": "Leo Demetz", "public_transport": "station"}}, {"type": "node", "id": 520082282, "lat": 46.5319396, "lon": 11.7500595, "tags": {"aerialway": "station", "aerialway:access": "exit", "name": "Comici II", "public_transport": "station"}}, {"type": "node", "id": 520082292, "lat": 46.5293308, "lon": 11.7478895, "tags": {"aerialway": "station", "aerialway:access": "entry", "name": "Comici II", "public_transport": "station"}}, {"type": "node", "id": 520082307, "lat": 46.5428021, "lon": 11.7391754, "tags": {"aerialway": "station", "aerialway:access": "entry", "name": "Sochers", "public_transport": "station"}}, {"type": "node", "id": 520082320, "lat": 46.5377768, "lon": 11.7425895, "tags": {"aerialway": "station", "aerialway:access": "exit", "name": "Sochers", "public_transport": "station"}}, {"type": "node", "id": 520626402, "lat": 46.5533122, "lon": 11.7617381, "tags": {"aerialway": "station", "aerialway:access": "both", "aerialway:summer:access": "both", "name": "Ciampinoi", "public_transport": "station"}}, {"type": "node", "id": 520626424, "lat": 46.538615, "lon": 11.7533895, "tags": {"aerialway": "station", "aerialway:access": "both", "aerialway:summer:access": "both", "name": "Ciampinoi", "public_transport": "station"}}, {"type": "node", "id": 527336220, "lat": 46.5817146, "lon": 11.9054154, "tags": {"aerialway": "station", "aerialway:access": "exit", "name": "La R\u00fca", "public_transport": "station"}}, {"type": "node", "id": 527880834, "lat": 46.5847839, "lon": 11.7453183, "tags": {"aerialway": "station", "aerialway:access": "both", "aerialway:summer:access": "both", "ele": "2103", "name": "Col Raiser", "public_transport": "station"}}, {"type": "node", "id": 562670627, "lat": 46.5228909, "lon": 11.7688355, "tags": {"aerialway": "station", "aerialway:access": "entry", "name": "Sole", "public_transport": "station"}}, {"type": "node", "id": 562670628, "lat": 46.5256835, "lon": 11.7627921, "tags": {"aerialway": "station", "aerialway:access": "exit", "name": "Sole", "public_transport": "station"}}, {"type": "node", "id": 607433082, "lat": 46.6964964, "lon": 11.9247375, "tags": {"aerialway": "station", "aerialway:access": "exit", "ele:local": "1310", "name": "Cianross", "public_transport": "station"}}, {"type": "node", "id": 607433098, "lat": 46.69769, "lon": 11.9283439, "tags": {"aerialway": "station", "aerialway:access": "entry", "ele:local": "1205", "name": "Cianross", "public_transport": "station"}}, {"type": "node", "id": 615897065, "lat": 46.6839795, "lon": 11.709442, "tags": {"aerialway": "station", "name": "Sch\u00f6nboden"}}, {"type": "node", "id": 615897078, "lat": 46.6906456, "lon": 11.7258912, "tags": {"aerialway": "station", "name": "Sch\u00f6nboden", "name:de": "Sch\u00f6nboden", "public_transport": "station"}}, {"type": "node", "id": 615897103, "lat": 46.6885734, "lon": 11.7344596, "tags": {"aerialway": "station", "name": "Rossalm"}}, {"type": "node", "id": 615897105, "lat": 46.6886875, "lon": 11.7342926, "tags": {"aerialway": "station"}}, {"type": "node", "id": 615897128, "lat": 46.6912818, "lon": 11.7466612, "tags": {"aerialway": "station", "name": "Pfannspitze - Monte Fana", "name:de": "Pfannspitze", "name:it": "Monte Fana", "public_transport": "station"}}, {"type": "node", "id": 622568643, "lat": 46.5042373, "lon": 11.7537862, "tags": {"aerialway": "station", "name": "Cavazes"}}, {"type": "node", "id": 622568649, "lat": 46.5052938, "lon": 11.7471975, "tags": {"aerialway": "station", "name": "Grohmann", "public_transport": "station"}}, {"type": "node", "id": 625195503, "lat": 46.537747, "lon": 11.6053326, "tags": {"aerialway": "station", "aerialway:access": "entry", "aerialway:summer:access": "both", "name": "Spitzb\u00fchl", "public_transport": "station"}}, {"type": "node", "id": 625195506, "lat": 46.5292083, "lon": 11.6008161, "tags": {"aerialway": "station", "aerialway:access": "exit", "aerialway:summer:access": "both", "ele": "1939", "name": "Spitzb\u00fchl", "public_transport": "station"}}, {"type": "node", "id": 625195514, "lat": 46.5375413, "lon": 11.6086377, "tags": {"aerialway": "station", "aerialway:access": "entry", "name": "Laurin", "public_transport": "station"}}, {"type": "node", "id": 625195522, "lat": 46.5273874, "lon": 11.6204225, "tags": {"aerialway": "station", "aerialway:access": "exit", "name": "Laurin", "public_transport": "station"}}, {"type": "node", "id": 625195523, "lat": 46.5302974, "lon": 11.6383159, "tags": {"aerialway": "station", "aerialway:access": "entry", "ele": "1921", "name": "Paradiso", "public_transport": "station"}}, {"type": "node", "id": 625195525, "lat": 46.519042, "lon": 11.6381611, "tags": {"aerialway": "station", "aerialway:access": "exit", "ele": "2126", "name": "Paradiso", "public_transport": "station"}}, {"type": "node", "id": 626851920, "lat": 46.4393066, "lon": 11.7350374, "tags": {"aerialway": "station", "name": "Orsa Maggiore", "public_transport": "station"}}, {"type": "node", "id": 626851926, "lat": 46.4374804, "lon": 11.7592582, "tags": {"aerialway": "station", "name": "Orsa Maggiore", "public_transport": "station", "source": "PCN Orthofoto"}}, {"type": "node", "id": 626851937, "lat": 46.4398319, "lon": 11.7339922, "tags": {"aerialway": "station", "name": "Pala del Gheiger", "public_transport": "station"}}, {"type": "node", "id": 626851940, "lat": 46.4339198, "lon": 11.7332429, "tags": {"aerialway": "station", "name": "Pala del Gheiger", "public_transport": "station"}}, {"type": "node", "id": 626852263, "lat": 46.4579431, "lon": 11.7886914, "tags": {"aerialway": "station", "aerialway:access": "both", "aerialway:summer:access": "both", "ele": "1489", "name": "Alba", "public_transport": "station", "source": "PCN Orthofoto"}}, {"type": "node", "id": 626852265, "lat": 46.4465999, "lon": 11.772194, "tags": {"aerialway": "station", "aerialway:access": "both", "aerialway:summer:access": "both", "ele": "2147", "name": "Ciampac", "public_transport": "station", "source": "PCN Orthofoto"}}, {"type": "node", "id": 628824914, "lat": 46.4867283, "lon": 11.8237781, "tags": {"aerialway": "station", "aerialway:access": "entry", "name": "Saletei", "public_transport": "station"}}, {"type": "node", "id": 628824915, "lat": 46.4877845, "lon": 11.8146637, "tags": {"aerialway": "station", "aerialway:access": "exit", "name": "Saletei", "public_transport": "station"}}, {"type": "node", "id": 635778788, "lat": 46.6758882, "lon": 11.7129085, "tags": {"aerialway": "station", "name": "Palmscho\u00df", "public_transport": "station"}}, {"type": "node", "id": 635778817, "lat": 46.684198, "lon": 11.7119088, "tags": {"aerialway": "station", "name": "Palmscho\u00df - Plancios", "name:de": "Palmscho\u00df", "name:it": "Plancios", "public_transport": "station"}}, {"type": "node", "id": 662975407, "lat": 46.552483, "lon": 11.9026472, "tags": {"aerialway": "station", "aerialway:access": "exit", "aerialway:summer:access": "no", "name": "Braia Fraida", "public_transport": "station"}}, {"type": "node", "id": 665752849, "lat": 46.5446825, "lon": 11.6141116, "tags": {"aerialway": "station", "aerialway:access": "exit", "ele": "1872", "name": "Euro", "public_transport": "station"}}, {"type": "node", "id": 665752865, "lat": 46.5938421, "lon": 11.7277739, "tags": {"aerialway": "station", "aerialway:access": "entry", "aerialway:station": "bottom", "ele": "2290", "name": "Catores", "public_transport": "station"}}, {"type": "node", "id": 665752866, "lat": 46.5991166, "lon": 11.7253602, "tags": {"aerialway": "station", "aerialway:access": "exit", "aerialway:station": "top", "ele": "2485", "name": "Catores", "public_transport": "station"}}, {"type": "node", "id": 725415798, "lat": 46.4278218, "lon": 11.6983512, "tags": {"aerialway": "station", "name": "Pozza", "public_transport": "station"}}, {"type": "node", "id": 983375100, "lat": 46.4435366, "lon": 11.7697959, "tags": {"aerialway": "pylon", "source": "PCN Orthofoto"}}, {"type": "node", "id": 983375120, "lat": 46.4387797, "lon": 11.7657378, "tags": {"aerialway": "pylon", "source": "PCN Orthofoto"}}, {"type": "node", "id": 983375130, "lat": 46.436296, "lon": 11.7594063, "tags": {"aerialway": "station", "name": "Roseal", "public_transport": "station", "source": "PCN Orthofoto"}}, {"type": "node", "id": 983375138, "lat": 46.4396251, "lon": 11.7678859, "tags": {"aerialway": "pylon", "source": "PCN Orthofoto"}}, {"type": "node", "id": 983375141, "lat": 46.4448297, "lon": 11.7716314, "tags": {"aerialway": "pylon", "source": "PCN Orthofoto"}}, {"type": "node", "id": 983375165, "lat": 46.4425945, "lon": 11.7684588, "tags": {"aerialway": "pylon", "source": "PCN Orthofoto"}}, {"type": "node", "id": 983375170, "lat": 46.4401904, "lon": 11.7693095, "tags": {"aerialway": "station", "name": "Roseal", "public_transport": "station", "source": "PCN Orthofoto"}}, {"type": "node", "id": 983375193, "lat": 46.4399656, "lon": 11.7687167, "tags": {"aerialway": "pylon", "source": "PCN Orthofoto"}}, {"type": "node", "id": 983375197, "lat": 46.4397177, "lon": 11.7643757, "tags": {"aerialway": "pylon", "source": "PCN Orthofoto"}}, {"type": "node", "id": 983375207, "lat": 46.4442461, "lon": 11.770803, "tags": {"aerialway": "pylon", "source": "PCN Orthofoto"}}, {"type": "node", "id": 983375246, "lat": 46.4393449, "lon": 11.7638467, "tags": {"aerialway": "pylon", "source": "PCN Orthofoto"}}, {"type": "node", "id": 983375266, "lat": 46.440504, "lon": 11.7654918, "tags": {"aerialway": "pylon", "source": "PCN Orthofoto"}}, {"type": "node", "id": 983375280, "lat": 46.4416256, "lon": 11.7670837, "tags": {"aerialway": "pylon", "source": "PCN Orthofoto"}}, {"type": "node", "id": 983375317, "lat": 46.4393387, "lon": 11.7671221, "tags": {"aerialway": "pylon", "source": "PCN Orthofoto"}}, {"type": "node", "id": 983375323, "lat": 46.4384051, "lon": 11.7647647, "tags": {"aerialway": "pylon", "source": "PCN Orthofoto"}}, {"type": "node", "id": 983375345, "lat": 46.4389112, "lon": 11.7632107, "tags": {"aerialway": "station", "name": "Sella Brunech", "public_transport": "station", "source": "PCN Orthofoto"}}, {"type": "node", "id": 983375392, "lat": 46.4391222, "lon": 11.7665775, "tags": {"aerialway": "pylon", "source": "PCN Orthofoto"}}, {"type": "node", "id": 983375399, "lat": 46.4408728, "lon": 11.7660151, "tags": {"aerialway": "pylon", "source": "PCN Orthofoto"}}, {"type": "node", "id": 1103134178, "lat": 46.549642, "lon": 11.8991554, "tags": {"aerialway": "station", "aerialway:access": "entry", "name": "Pr\u00e8 Ciablun"}}, {"type": "node", "id": 1103134181, "lat": 46.5524884, "lon": 11.9017327, "tags": {"aerialway": "station", "aerialway:access": "exit", "name": "Pr\u00e8 Ciablun", "public_transport": "station"}}, {"type": "node", "id": 1106434793, "lat": 46.4809336, "lon": 11.7884271, "tags": {"aerialway": "station", "aerialway:access": "both", "aerialway:summer:access": "both", "ele": "1926", "name": "Pecol", "public_transport": "station"}}, {"type": "node", "id": 1194284131, "lat": 46.6923709, "lon": 11.7472337, "tags": {"aerialway": "station", "name": "Rossalm"}}, {"type": "node", "id": 1223546105, "lat": 46.392183, "lon": 11.8013813, "tags": {"aerialway": "station", "ele": "2266", "name": "Gigante", "public_transport": "station"}}, {"type": "node", "id": 1223546129, "lat": 46.3791372, "lon": 11.7945736, "tags": {"aerialway": "station", "ele": "1910", "name": "Gigante", "public_transport": "station"}}, {"type": "node", "id": 1223546132, "lat": 46.3796294, "lon": 11.7948291, "tags": {"aerialway": "pylon"}}, {"type": "node", "id": 1223552917, "lat": 46.3918835, "lon": 11.8009865, "tags": {"aerialway": "station", "ele": "2170", "name": "Cima Uomo"}}, {"type": "node", "id": 1223552932, "lat": 46.3980634, "lon": 11.799236, "tags": {"aerialway": "station", "ele": "2394", "name": "Cima Uomo"}}, {"type": "node", "id": 1352992129, "lat": 46.5329549, "lon": 11.9159048, "tags": {"aerialway": "station", "aerialway:access": "exit", "name": "Masarei", "public_transport": "station"}}, {"type": "node", "id": 1558322084, "lat": 46.6990387, "lon": 11.4406972, "tags": {"aerialway": "station", "name": "Sattele"}}, {"type": "node", "id": 1558322086, "lat": 46.7005053, "lon": 11.4559134, "tags": {"aerialway": "station", "name": "Sattele"}}, {"type": "node", "id": 1584746013, "lat": 46.3781313, "lon": 11.8014507, "tags": {"aerialway": "station", "name": "Del Passo"}}, {"type": "node", "id": 1584746020, "lat": 46.3802733, "lon": 11.7973899, "tags": {"aerialway": "station", "name": "Del Passo"}}, {"type": "node", "id": 1637238772, "lat": 46.5580492, "lon": 11.6647087, "tags": {"aerialway": "station", "aerialway:access": "both", "aerialway:summer:access": "both", "name": "Mont S\u00ebuc", "public_transport": "station"}}, {"type": "node", "id": 1638308214, "lat": 46.5481617, "lon": 11.8710773, "tags": {"aerialway": "station", "aerialway:access": "both", "aerialway:summer:access": "both", "name": "Borest", "public_transport": "station"}}, {"type": "node", "id": 1638308249, "lat": 46.5764208, "lon": 11.6750721, "tags": {"aerialway": "station", "aerialway:access": "both", "aerialway:summer:access": "both", "ele": "1250", "name": "Ortisei", "public_transport": "station"}}, {"type": "node", "id": 1642475066, "lat": 46.4731123, "lon": 11.8671064, "tags": {"aerialway": "station", "ele": "2478", "name": "Portavescovo", "public_transport": "station"}}, {"type": "node", "id": 1642475077, "lat": 46.495421, "lon": 11.8744431, "tags": {"aerialway": "station", "aerialway:access": "both", "ele": "1602", "name": "Arabba", "public_transport": "station"}}, {"type": "node", "id": 1644770437, "lat": 46.4337499, "lon": 11.6663883, "tags": {"aerialway": "station", "name": "Camp Scuola Ciampedi\u00e8"}}, {"type": "node", "id": 1644770444, "lat": 46.4366217, "lon": 11.6690718, "tags": {"aerialway": "station", "name": "Camp Scuola Ciampedi\u00e8"}}, {"type": "node", "id": 1721009231, "lat": 46.3787889, "lon": 11.7810319, "tags": {"aerialway": "station", "ele": "1870", "name": "Campigol"}}, {"type": "node", "id": 1721009274, "lat": 46.3831259, "lon": 11.7835474, "tags": {"aerialway": "station", "ele": "1978", "name": "Campigol"}}, {"type": "node", "id": 1835305196, "lat": 46.5088903, "lon": 11.7559296, "tags": {"aerialway": "station", "aerialway:summer:access": "both", "name": "Furcela de Saslonch", "public_transport": "station"}}, {"type": "node", "id": 1835305214, "lat": 46.5144856, "lon": 11.7394796, "tags": {"aerialway": "station", "aerialway:summer:access": "both", "ele": "2685", "public_transport": "station", "survey:date": "2023-07-04"}}, {"type": "node", "id": 2094765593, "lat": 46.4757608, "lon": 11.8665436, "tags": {"aerialway": "station", "name": "Carpazza", "public_transport": "station"}}, {"type": "node", "id": 2095846965, "lat": 46.4870453, "lon": 11.8588606, "tags": {"aerialway": "station", "name": "Carpazza", "public_transport": "station"}}, {"type": "node", "id": 2108467517, "lat": 46.6776765, "lon": 11.7379103, "tags": {"addr:city": "Brixen - Bressanone", "addr:city:de": "Brixen", "addr:city:it": "Bressanone", "addr:housenumber": "294/6", "addr:place": "Afers - Eores", "addr:place:de": "Afers", "addr:place:it": "Eores", "addr:postcode": "39042", "aerialway": "station", "name": "Skih\u00fctte - Rifugio Ski", "name:de": "Skih\u00fctte", "name:it": "Rifugio Ski", "public_transport": "station"}}, {"type": "node", "id": 2189852576, "lat": 46.5625662, "lon": 11.85244, "tags": {"aerialway": "station", "aerialway:access": "entry", "name": "Stella Alpina", "public_transport": "station"}}, {"type": "node", "id": 2194175112, "lat": 46.5163685, "lon": 11.906331, "tags": {"aerialway": "station", "aerialway:access": "entry", "name": "Vizza", "public_transport": "station"}}, {"type": "node", "id": 2194175382, "lat": 46.5479929, "lon": 11.8431124, "tags": {"aerialway": "station", "aerialway:access": "both", "aerialway:summer:access": "both", "name": "Plans", "public_transport": "station"}}, {"type": "node", "id": 2212019959, "lat": 46.4140548, "lon": 11.6097026, "tags": {"aerialway": "station", "aerialway:access": "exit", "aerialway:station": "mid", "public_transport": "station"}}, {"type": "node", "id": 2345318482, "lat": 46.5559602, "lon": 11.8119417, "tags": {"aerialway": "station", "aerialway:access": "both", "aerialway:summer:access": "both", "name": "Frara", "public_transport": "station"}}, {"type": "node", "id": 2345318525, "lat": 46.5624512, "lon": 11.8508325, "tags": {"aerialway": "station", "aerialway:access": "exit", "aerialway:summer:access": "both", "name": "Colfosco", "public_transport": "station"}}, {"type": "node", "id": 2345444156, "lat": 46.5614431, "lon": 11.9145573, "tags": {"aerialway": "station", "name": "Bamby"}}, {"type": "node", "id": 2345607376, "lat": 46.5887959, "lon": 11.8907313, "tags": {"aerialway": "station", "name": "Sponata"}}, {"type": "node", "id": 2376990056, "lat": 46.5229257, "lon": 11.7612084, "tags": {"aerialway": "station", "aerialway:access": "exit", "name": "Piz Seteur", "public_transport": "station"}}, {"type": "node", "id": 2475847815, "lat": 46.5446499, "lon": 11.623006, "tags": {"aerialway": "station", "aerialway:access": "entry", "ele": "1761", "name": "Euro", "public_transport": "station"}}, {"type": "node", "id": 2607893460, "lat": 46.5877559, "lon": 11.7390386, "tags": {"aerialway": "pylon"}}, {"type": "node", "id": 2607893516, "lat": 46.5886159, "lon": 11.7382448, "tags": {"aerialway": "pylon"}}, {"type": "node", "id": 2607893537, "lat": 46.5891955, "lon": 11.7377098, "tags": {"aerialway": "pylon"}}, {"type": "node", "id": 2607893566, "lat": 46.5897984, "lon": 11.7371533, "tags": {"aerialway": "pylon"}}, {"type": "node", "id": 2607893589, "lat": 46.5906909, "lon": 11.7363295, "tags": {"aerialway": "pylon"}}, {"type": "node", "id": 2607893610, "lat": 46.5918317, "lon": 11.7352764, "tags": {"aerialway": "pylon"}}, {"type": "node", "id": 2607893624, "lat": 46.5924224, "lon": 11.7347312, "tags": {"aerialway": "pylon"}}, {"type": "node", "id": 2607893642, "lat": 46.5930161, "lon": 11.7341831, "tags": {"aerialway": "pylon"}}, {"type": "node", "id": 2607893656, "lat": 46.5934452, "lon": 11.733787, "tags": {"aerialway": "pylon"}}, {"type": "node", "id": 2607893685, "lat": 46.5944359, "lon": 11.7328725, "tags": {"aerialway": "pylon"}}, {"type": "node", "id": 2607893713, "lat": 46.5956133, "lon": 11.7317856, "tags": {"aerialway": "pylon"}}, {"type": "node", "id": 2607893749, "lat": 46.5968399, "lon": 11.7306532, "tags": {"aerialway": "pylon"}}, {"type": "node", "id": 2607893792, "lat": 46.5977193, "lon": 11.7298414, "tags": {"aerialway": "pylon"}}, {"type": "node", "id": 2607893848, "lat": 46.5987467, "lon": 11.7288929, "tags": {"aerialway": "pylon"}}, {"type": "node", "id": 2607893852, "lat": 46.5996444, "lon": 11.7280642, "tags": {"aerialway": "pylon"}}, {"type": "node", "id": 2607893855, "lat": 46.6002521, "lon": 11.7275031, "tags": {"aerialway": "pylon"}}, {"type": "node", "id": 2607893858, "lat": 46.6003063, "lon": 11.727453, "tags": {"aerialway": "pylon"}}, {"type": "node", "id": 2608883514, "lat": 46.5402818, "lon": 11.5654158, "tags": {"aerialway": "pylon", "ref": "1", "source": "Schild am Mast"}}, {"type": "node", "id": 2608883515, "lat": 46.5403946, "lon": 11.5682108, "tags": {"aerialway": "pylon", "ref": "2", "source": "Schild am Mast"}}, {"type": "node", "id": 2608883523, "lat": 46.540632, "lon": 11.574098, "tags": {"aerialway": "pylon", "name": "3", "source": "Schild am Mast"}}, {"type": "node", "id": 2608883542, "lat": 46.5411078, "lon": 11.5858956, "tags": {"aerialway": "pylon", "note": "Seilbahnpylon mit Notfallseilbahn", "ref": "4", "source": "Schild am Mast"}}, {"type": "node", "id": 2608883549, "lat": 46.5412341, "lon": 11.5890254, "tags": {"aerialway": "pylon", "ref": "5", "source": "Schild am Mast"}}, {"type": "node", "id": 2608883572, "lat": 46.5413557, "lon": 11.59204, "tags": {"aerialway": "pylon", "ref": "6", "source": "Schild am Mast"}}, {"type": "node", "id": 2608883585, "lat": 46.5414988, "lon": 11.5955901, "tags": {"aerialway": "pylon", "ref": "7", "source": "Schild am Mast"}}, {"type": "node", "id": 2608883615, "lat": 46.5421876, "lon": 11.6126675, "tags": {"aerialway": "pylon", "ref": "9", "source": "Schild am Mast"}}, {"type": "node", "id": 2608883623, "lat": 46.5422884, "lon": 11.6151652, "tags": {"aerialway": "pylon", "ref": "10", "source": "Schild am Mast"}}, {"type": "node", "id": 2609296797, "lat": 46.4861794, "lon": 11.8557381, "tags": {"aerialway": "station", "aerialway:access": "exit", "name": "Alpenrose", "public_transport": "station"}}, {"type": "node", "id": 2609296810, "lat": 46.4884001, "lon": 11.8440428, "tags": {"aerialway": "station", "aerialway:access": "entry", "name": "Alpenrose", "public_transport": "station"}}, {"type": "node", "id": 2609297154, "lat": 46.5498197, "lon": 11.8541009, "tags": {"aerialway": "station", "aerialway:access": "both", "aerialway:summer:access": "both", "name": "Borest", "public_transport": "station"}}, {"type": "node", "id": 2610889667, "lat": 46.5200211, "lon": 11.6807554, "tags": {"aerialway": "pylon"}}, {"type": "node", "id": 2610889668, "lat": 46.5184781, "lon": 11.682078, "tags": {"aerialway": "pylon"}}, {"type": "node", "id": 2610889669, "lat": 46.5157898, "lon": 11.6843821, "tags": {"aerialway": "pylon"}}, {"type": "node", "id": 2610889670, "lat": 46.5168248, "lon": 11.683495, "tags": {"aerialway": "pylon"}}, {"type": "node", "id": 2610889671, "lat": 46.5173773, "lon": 11.6830215, "tags": {"aerialway": "pylon"}}, {"type": "node", "id": 2610889672, "lat": 46.5190239, "lon": 11.6816102, "tags": {"aerialway": "pylon"}}, {"type": "node", "id": 2610889673, "lat": 46.5251699, "lon": 11.6763421, "tags": {"aerialway": "pylon"}}, {"type": "node", "id": 2610889674, "lat": 46.5234251, "lon": 11.6778377, "tags": {"aerialway": "pylon"}}, {"type": "node", "id": 2610889675, "lat": 46.5244575, "lon": 11.6769528, "tags": {"aerialway": "pylon"}}, {"type": "node", "id": 2610889676, "lat": 46.5218979, "lon": 11.6791468, "tags": {"aerialway": "pylon"}}, {"type": "node", "id": 2610889677, "lat": 46.5225712, "lon": 11.6785697, "tags": {"aerialway": "pylon"}}, {"type": "node", "id": 2610889678, "lat": 46.5208709, "lon": 11.680027, "tags": {"aerialway": "pylon"}}, {"type": "node", "id": 2610889679, "lat": 46.5216739, "lon": 11.6793387, "tags": {"aerialway": "pylon"}}, {"type": "node", "id": 2610889680, "lat": 46.5267531, "lon": 11.6749849, "tags": {"aerialway": "pylon"}}, {"type": "node", "id": 2610889681, "lat": 46.5260042, "lon": 11.6756269, "tags": {"aerialway": "pylon"}}, {"type": "node", "id": 2610889682, "lat": 46.5275347, "lon": 11.6743149, "tags": {"aerialway": "pylon"}}, {"type": "node", "id": 2610889683, "lat": 46.5294821, "lon": 11.6726454, "tags": {"aerialway": "pylon"}}, {"type": "node", "id": 2610889684, "lat": 46.5283457, "lon": 11.6736196, "tags": {"aerialway": "pylon"}}, {"type": "node", "id": 2610889685, "lat": 46.5305373, "lon": 11.6717408, "tags": {"aerialway": "pylon"}}, {"type": "node", "id": 3326213241, "lat": 46.5170489, "lon": 11.9075107, "tags": {"aerialway": "station", "aerialway:access": "entry", "name": "Masarei", "public_transport": "station"}}, {"type": "node", "id": 3326359014, "lat": 46.4452745, "lon": 11.7722627, "tags": {"aerialway": "station", "name": "Sella Brunech", "public_transport": "station", "source": "PCN Orthofoto"}}, {"type": "node", "id": 3326371446, "lat": 46.4970327, "lon": 11.7515427, "tags": {"aerialway": "station", "aerialway:access": "exit", "name": "Rodella des Alpes", "public_transport": "station"}}, {"type": "node", "id": 3326396035, "lat": 46.438335, "lon": 11.6936234, "tags": {"aerialway": "station", "name": "Vajolet I", "public_transport": "station"}}, {"type": "node", "id": 3386628325, "lat": 46.5174253, "lon": 11.7515468, "tags": {"aerialway": "station", "aerialway:access": "exit", "aerialway:summer:access": "both", "name": "Gran Paradiso", "public_transport": "station"}}, {"type": "node", "id": 3622475403, "lat": 46.5550605, "lon": 11.813744, "tags": {"aerialway": "pylon"}}, {"type": "node", "id": 3622475404, "lat": 46.5542844, "lon": 11.8152987, "tags": {"aerialway": "pylon"}}, {"type": "node", "id": 3622475405, "lat": 46.5530226, "lon": 11.8178263, "tags": {"aerialway": "pylon"}}, {"type": "node", "id": 3622475406, "lat": 46.5522512, "lon": 11.8193714, "tags": {"aerialway": "pylon"}}, {"type": "node", "id": 3622475407, "lat": 46.5513756, "lon": 11.8211252, "tags": {"aerialway": "pylon"}}, {"type": "node", "id": 3622475408, "lat": 46.5511913, "lon": 11.8214944, "tags": {"aerialway": "pylon"}}, {"type": "node", "id": 3622475409, "lat": 46.5505773, "lon": 11.8227241, "tags": {"aerialway": "pylon"}}, {"type": "node", "id": 3622475410, "lat": 46.5499176, "lon": 11.8240455, "tags": {"aerialway": "pylon"}}, {"type": "node", "id": 3622475411, "lat": 46.5490807, "lon": 11.8257218, "tags": {"aerialway": "pylon"}}, {"type": "node", "id": 3622475412, "lat": 46.5481593, "lon": 11.8299663, "tags": {"aerialway": "pylon"}}, {"type": "node", "id": 3622475413, "lat": 46.5481299, "lon": 11.832292, "tags": {"aerialway": "pylon"}}, {"type": "node", "id": 3622475414, "lat": 46.5481015, "lon": 11.8345371, "tags": {"aerialway": "pylon"}}, {"type": "node", "id": 3622475415, "lat": 46.5480796, "lon": 11.8362682, "tags": {"aerialway": "pylon"}}, {"type": "node", "id": 3622475416, "lat": 46.5480529, "lon": 11.8383719, "tags": {"aerialway": "pylon"}}, {"type": "node", "id": 3622475417, "lat": 46.5480298, "lon": 11.8402003, "tags": {"aerialway": "pylon"}}, {"type": "node", "id": 3622475418, "lat": 46.5480093, "lon": 11.8418186, "tags": {"aerialway": "pylon"}}, {"type": "node", "id": 3622475419, "lat": 46.5525433, "lon": 11.8086832, "tags": {"aerialway": "pylon"}}, {"type": "node", "id": 3622475420, "lat": 46.5530439, "lon": 11.8075851, "tags": {"aerialway": "pylon"}}, {"type": "node", "id": 3622475421, "lat": 46.5533761, "lon": 11.8068566, "tags": {"aerialway": "pylon"}}, {"type": "node", "id": 3622475422, "lat": 46.5537581, "lon": 11.8060188, "tags": {"aerialway": "pylon"}}, {"type": "node", "id": 3622475423, "lat": 46.5538678, "lon": 11.8057782, "tags": {"aerialway": "pylon"}}, {"type": "node", "id": 3622475424, "lat": 46.5505219, "lon": 11.8057341, "tags": {"aerialway": "pylon"}}, {"type": "node", "id": 3622475425, "lat": 46.5509006, "lon": 11.8051581, "tags": {"aerialway": "pylon"}}, {"type": "node", "id": 3622475426, "lat": 46.5513871, "lon": 11.8044184, "tags": {"aerialway": "pylon"}}, {"type": "node", "id": 3622475427, "lat": 46.551943, "lon": 11.8035731, "tags": {"aerialway": "pylon"}}, {"type": "node", "id": 3622475428, "lat": 46.5523505, "lon": 11.8029533, "tags": {"aerialway": "pylon"}}, {"type": "node", "id": 3622475429, "lat": 46.5530404, "lon": 11.8019043, "tags": {"aerialway": "pylon"}}, {"type": "node", "id": 3622475430, "lat": 46.5536512, "lon": 11.8009755, "tags": {"aerialway": "pylon"}}, {"type": "node", "id": 3659756524, "lat": 46.5577136, "lon": 11.6636386, "tags": {"aerialway": "station", "aerialway:access": "both", "aerialway:summer:access": "both", "name": "Zur Sonne - Al Sole", "public_transport": "station"}}, {"type": "node", "id": 3660283808, "lat": 46.5652063, "lon": 11.6678836, "tags": {"aerialway": "pylon"}}, {"type": "node", "id": 3660283815, "lat": 46.5720992, "lon": 11.6709417, "tags": {"aerialway": "pylon"}}, {"type": "node", "id": 3704028099, "lat": 46.5147672, "lon": 11.637933, "tags": {"aerialway": "pylon"}}, {"type": "node", "id": 3704028100, "lat": 46.5154716, "lon": 11.6389606, "tags": {"aerialway": "pylon"}}, {"type": "node", "id": 3704028101, "lat": 46.5161885, "lon": 11.6400066, "tags": {"aerialway": "pylon"}}, {"type": "node", "id": 3704028102, "lat": 46.5168758, "lon": 11.6410093, "tags": {"aerialway": "pylon"}}, {"type": "node", "id": 3704028103, "lat": 46.5177491, "lon": 11.6422834, "tags": {"aerialway": "pylon"}}, {"type": "node", "id": 3704028104, "lat": 46.5185539, "lon": 11.6434576, "tags": {"aerialway": "pylon"}}, {"type": "node", "id": 3704028105, "lat": 46.5195033, "lon": 11.6448429, "tags": {"aerialway": "pylon"}}, {"type": "node", "id": 3704028106, "lat": 46.520383, "lon": 11.6461264, "tags": {"aerialway": "pylon"}}, {"type": "node", "id": 3704028107, "lat": 46.5209979, "lon": 11.6470236, "tags": {"aerialway": "pylon"}}, {"type": "node", "id": 3704028108, "lat": 46.5219828, "lon": 11.6484607, "tags": {"aerialway": "pylon"}}, {"type": "node", "id": 3704028109, "lat": 46.5227165, "lon": 11.6495312, "tags": {"aerialway": "pylon"}}, {"type": "node", "id": 3704028110, "lat": 46.5229607, "lon": 11.6498875, "tags": {"aerialway": "pylon"}}, {"type": "node", "id": 3704028111, "lat": 46.5234941, "lon": 11.6506659, "tags": {"aerialway": "pylon"}}, {"type": "node", "id": 3704028112, "lat": 46.5242653, "lon": 11.6517911, "tags": {"aerialway": "pylon"}}, {"type": "node", "id": 3704028113, "lat": 46.5249505, "lon": 11.652791, "tags": {"aerialway": "pylon"}}, {"type": "node", "id": 3704028114, "lat": 46.5254063, "lon": 11.653456, "tags": {"aerialway": "pylon"}}, {"type": "node", "id": 3705504140, "lat": 46.4742899, "lon": 11.8019697, "tags": {"aerialway": "station", "aerialway:access": "both", "aerialway:summer:access": "both", "ele": "2389", "name": "Col dei Rossi", "public_transport": "station"}}, {"type": "node", "id": 3705559087, "lat": 46.4576454, "lon": 11.7889485, "tags": {"aerialway": "station", "aerialway:access": "both", "aerialway:summer:access": "both", "ele": "1489", "name": "Alba", "public_transport": "station"}}, {"type": "node", "id": 3912537660, "lat": 46.4943425, "lon": 11.8719757, "tags": {"aerialway": "station", "aerialway:access": "both", "name": "Arabba Fly", "public_transport": "station"}}, {"type": "node", "id": 3966846384, "lat": 46.5376, "lon": 11.6052548, "tags": {"aerialway": "pylon"}}, {"type": "node", "id": 3966846385, "lat": 46.536539, "lon": 11.6046936, "tags": {"aerialway": "pylon"}}, {"type": "node", "id": 3966846386, "lat": 46.5357001, "lon": 11.6042498, "tags": {"aerialway": "pylon"}}, {"type": "node", "id": 3966846387, "lat": 46.5347219, "lon": 11.6037324, "tags": {"aerialway": "pylon"}}, {"type": "node", "id": 3966846389, "lat": 46.5327198, "lon": 11.6026734, "tags": {"aerialway": "pylon"}}, {"type": "node", "id": 3966846390, "lat": 46.53203, "lon": 11.6023086, "tags": {"aerialway": "pylon"}}, {"type": "node", "id": 3966846392, "lat": 46.5305817, "lon": 11.6015426, "tags": {"aerialway": "pylon"}}, {"type": "node", "id": 3966846393, "lat": 46.5293756, "lon": 11.6009047, "tags": {"aerialway": "pylon"}}, {"type": "node", "id": 3966846394, "lat": 46.5276503, "lon": 11.6201174, "tags": {"aerialway": "pylon"}}, {"type": "node", "id": 3966846395, "lat": 46.5281339, "lon": 11.6195562, "tags": {"aerialway": "pylon"}}, {"type": "node", "id": 3966846396, "lat": 46.5287416, "lon": 11.6188509, "tags": {"aerialway": "pylon"}}, {"type": "node", "id": 3966846397, "lat": 46.5297052, "lon": 11.6177326, "tags": {"aerialway": "pylon"}}, {"type": "node", "id": 3966846398, "lat": 46.5306245, "lon": 11.6166657, "tags": {"aerialway": "pylon"}}, {"type": "node", "id": 3966846399, "lat": 46.5316617, "lon": 11.615462, "tags": {"aerialway": "pylon"}}, {"type": "node", "id": 3966846400, "lat": 46.532583, "lon": 11.6143927, "tags": {"aerialway": "pylon"}}, {"type": "node", "id": 3966846401, "lat": 46.5335273, "lon": 11.6132967, "tags": {"aerialway": "pylon"}}, {"type": "node", "id": 3966846402, "lat": 46.5346908, "lon": 11.6119463, "tags": {"aerialway": "pylon"}}, {"type": "node", "id": 3966846403, "lat": 46.5353739, "lon": 11.6111534, "tags": {"aerialway": "pylon"}}, {"type": "node", "id": 3966846404, "lat": 46.5361424, "lon": 11.6102614, "tags": {"aerialway": "pylon"}}, {"type": "node", "id": 3966846405, "lat": 46.5369725, "lon": 11.6092979, "tags": {"aerialway": "pylon"}}, {"type": "node", "id": 3966851470, "lat": 46.541873, "lon": 11.6048664, "tags": {"aerialway": "pylon", "ref": "8", "source": "Schild am Mast"}}, {"type": "node", "id": 3966862391, "lat": 46.542674, "lon": 11.6227328, "tags": {"aerialway": "pylon"}}, {"type": "node", "id": 3966862392, "lat": 46.5414654, "lon": 11.6230122, "tags": {"aerialway": "pylon"}}, {"type": "node", "id": 3966862393, "lat": 46.5401857, "lon": 11.6233081, "tags": {"aerialway": "pylon"}}, {"type": "node", "id": 3966862394, "lat": 46.5390213, "lon": 11.6235773, "tags": {"aerialway": "pylon"}}, {"type": "node", "id": 3966862395, "lat": 46.5382473, "lon": 11.6237562, "tags": {"aerialway": "pylon"}}, {"type": "node", "id": 3966862396, "lat": 46.5374302, "lon": 11.6239452, "tags": {"aerialway": "pylon"}}, {"type": "node", "id": 3966862397, "lat": 46.536569, "lon": 11.6241443, "tags": {"aerialway": "pylon"}}, {"type": "node", "id": 3966862398, "lat": 46.5359156, "lon": 11.6242953, "tags": {"aerialway": "pylon"}}, {"type": "node", "id": 3966862399, "lat": 46.5351723, "lon": 11.6244671, "tags": {"aerialway": "pylon"}}, {"type": "node", "id": 3966862400, "lat": 46.5338898, "lon": 11.6247636, "tags": {"aerialway": "pylon"}}, {"type": "node", "id": 3966862401, "lat": 46.5327134, "lon": 11.6250356, "tags": {"aerialway": "pylon"}}, {"type": "node", "id": 3966862402, "lat": 46.5317212, "lon": 11.625265, "tags": {"aerialway": "pylon"}}, {"type": "node", "id": 3966862416, "lat": 46.5317668, "lon": 11.6369228, "tags": {"aerialway": "pylon"}}, {"type": "node", "id": 3966862418, "lat": 46.5324835, "lon": 11.6362144, "tags": {"aerialway": "pylon"}}, {"type": "node", "id": 3966862419, "lat": 46.5332682, "lon": 11.6354388, "tags": {"aerialway": "pylon"}}, {"type": "node", "id": 3966862420, "lat": 46.5337157, "lon": 11.6349965, "tags": {"aerialway": "pylon"}}, {"type": "node", "id": 3966862421, "lat": 46.5373685, "lon": 11.6368711, "tags": {"aerialway": "pylon"}}, {"type": "node", "id": 3966862422, "lat": 46.5379975, "lon": 11.6367694, "tags": {"aerialway": "pylon"}}, {"type": "node", "id": 3966862423, "lat": 46.5388444, "lon": 11.6366325, "tags": {"aerialway": "pylon"}}, {"type": "node", "id": 3966862424, "lat": 46.5402353, "lon": 11.6364077, "tags": {"aerialway": "pylon"}}, {"type": "node", "id": 3966862425, "lat": 46.5408735, "lon": 11.6363045, "tags": {"aerialway": "pylon"}}, {"type": "node", "id": 3966862426, "lat": 46.5417444, "lon": 11.6361637, "tags": {"aerialway": "pylon"}}, {"type": "node", "id": 3966862427, "lat": 46.5427314, "lon": 11.6360041, "tags": {"aerialway": "pylon"}}, {"type": "node", "id": 3966862428, "lat": 46.5436564, "lon": 11.6358545, "tags": {"aerialway": "pylon"}}, {"type": "node", "id": 3966862429, "lat": 46.5449601, "lon": 11.6356438, "tags": {"aerialway": "pylon"}}, {"type": "node", "id": 3966862432, "lat": 46.5459977, "lon": 11.635476, "tags": {"aerialway": "pylon"}}, {"type": "node", "id": 3967064760, "lat": 46.5510764, "lon": 11.6487106, "tags": {"aerialway": "pylon"}}, {"type": "node", "id": 3967064761, "lat": 46.5507329, "lon": 11.6487895, "tags": {"aerialway": "pylon"}}, {"type": "node", "id": 3967064762, "lat": 46.5520586, "lon": 11.6484849, "tags": {"aerialway": "pylon"}}, {"type": "node", "id": 3967064763, "lat": 46.5526642, "lon": 11.6483458, "tags": {"aerialway": "pylon"}}, {"type": "node", "id": 3967064764, "lat": 46.5530279, "lon": 11.6482622, "tags": {"aerialway": "pylon"}}, {"type": "node", "id": 3967064765, "lat": 46.5536569, "lon": 11.6481177, "tags": {"aerialway": "pylon"}}, {"type": "node", "id": 3967064766, "lat": 46.5540476, "lon": 11.6480279, "tags": {"aerialway": "pylon"}}, {"type": "node", "id": 3967064767, "lat": 46.5543894, "lon": 11.6607706, "tags": {"aerialway": "pylon"}}, {"type": "node", "id": 3967064768, "lat": 46.5550411, "lon": 11.6602889, "tags": {"aerialway": "pylon"}}, {"type": "node", "id": 3967064769, "lat": 46.5555924, "lon": 11.6598814, "tags": {"aerialway": "pylon"}}, {"type": "node", "id": 3967064770, "lat": 46.5556767, "lon": 11.659819, "tags": {"aerialway": "pylon"}}, {"type": "node", "id": 3967064771, "lat": 46.5558396, "lon": 11.6596986, "tags": {"aerialway": "pylon"}}, {"type": "node", "id": 3967064772, "lat": 46.5564788, "lon": 11.6592261, "tags": {"aerialway": "pylon"}}, {"type": "node", "id": 3967064773, "lat": 46.5574784, "lon": 11.6584871, "tags": {"aerialway": "pylon"}}, {"type": "node", "id": 3967064774, "lat": 46.5536682, "lon": 11.6613037, "tags": {"aerialway": "pylon"}}, {"type": "node", "id": 3967064775, "lat": 46.5529018, "lon": 11.6618702, "tags": {"aerialway": "pylon"}}, {"type": "node", "id": 3967064776, "lat": 46.5523013, "lon": 11.6623141, "tags": {"aerialway": "pylon"}}, {"type": "node", "id": 3967064777, "lat": 46.5519491, "lon": 11.6625744, "tags": {"aerialway": "pylon"}}, {"type": "node", "id": 3967064778, "lat": 46.5513964, "lon": 11.662983, "tags": {"aerialway": "pylon"}}, {"type": "node", "id": 3967064799, "lat": 46.5562292, "lon": 11.6634995, "tags": {"aerialway": "pylon"}}, {"type": "node", "id": 3967064800, "lat": 46.5569789, "lon": 11.6635697, "tags": {"aerialway": "pylon"}}, {"type": "node", "id": 3967064801, "lat": 46.5575874, "lon": 11.6636268, "tags": {"aerialway": "pylon"}}, {"type": "node", "id": 3967064802, "lat": 46.555387, "lon": 11.6634205, "tags": {"aerialway": "pylon"}}, {"type": "node", "id": 3967064803, "lat": 46.5549259, "lon": 11.6633773, "tags": {"aerialway": "pylon"}}, {"type": "node", "id": 3967064804, "lat": 46.5546109, "lon": 11.6633478, "tags": {"aerialway": "pylon"}}, {"type": "node", "id": 3967453286, "lat": 46.5215665, "lon": 11.6381959, "tags": {"aerialway": "pylon"}}, {"type": "node", "id": 3967453287, "lat": 46.5193706, "lon": 11.6381657, "tags": {"aerialway": "pylon"}}, {"type": "node", "id": 3967453288, "lat": 46.5203035, "lon": 11.6381785, "tags": {"aerialway": "pylon"}}, {"type": "node", "id": 3967453289, "lat": 46.5229888, "lon": 11.6382154, "tags": {"aerialway": "pylon"}}, {"type": "node", "id": 3967453300, "lat": 46.5243611, "lon": 11.6382343, "tags": {"aerialway": "pylon"}}, {"type": "node", "id": 3967453301, "lat": 46.5257692, "lon": 11.6382537, "tags": {"aerialway": "pylon"}}, {"type": "node", "id": 3967453302, "lat": 46.526571, "lon": 11.6382647, "tags": {"aerialway": "pylon"}}, {"type": "node", "id": 3967453303, "lat": 46.5276378, "lon": 11.6382794, "tags": {"aerialway": "pylon"}}, {"type": "node", "id": 3967453304, "lat": 46.5288603, "lon": 11.6382962, "tags": {"aerialway": "pylon"}}, {"type": "node", "id": 3967453305, "lat": 46.5298808, "lon": 11.6383102, "tags": {"aerialway": "pylon"}}, {"type": "node", "id": 3979761615, "lat": 46.4322871, "lon": 11.5458439, "tags": {"aerialway": "station"}}, {"type": "node", "id": 3979761616, "lat": 46.4441953, "lon": 11.5888346, "tags": {"aerialway": "station", "aerialway:access": "exit", "name": "Laurin - Laurino"}}, {"type": "node", "id": 3991725527, "lat": 46.7018879, "lon": 11.9277326, "tags": {"aerialway": "pylon"}}, {"type": "node", "id": 3991725528, "lat": 46.7027288, "lon": 11.9283649, "tags": {"aerialway": "pylon"}}, {"type": "node", "id": 3991725529, "lat": 46.7038216, "lon": 11.9291866, "tags": {"aerialway": "pylon"}}, {"type": "node", "id": 3991725530, "lat": 46.704265, "lon": 11.92952, "tags": {"aerialway": "pylon"}}, {"type": "node", "id": 4228747533, "lat": 46.5828901, "lon": 11.4480684, "tags": {"aerialway": "pylon"}}, {"type": "node", "id": 4228747534, "lat": 46.5863389, "lon": 11.4492519, "tags": {"aerialway": "pylon"}}, {"type": "node", "id": 4228747535, "lat": 46.593489, "lon": 11.4517305, "tags": {"aerialway": "pylon"}}, {"type": "node", "id": 4228747536, "lat": 46.5954026, "lon": 11.4523879, "tags": {"aerialway": "pylon"}}, {"type": "node", "id": 4228747537, "lat": 46.5876393, "lon": 11.4496975, "tags": {"aerialway": "pylon"}}, {"type": "node", "id": 4228747538, "lat": 46.5785335, "lon": 11.4465477, "tags": {"aerialway": "pylon"}}, {"type": "node", "id": 4228747539, "lat": 46.5886337, "lon": 11.4500482, "tags": {"aerialway": "pylon"}}, {"type": "node", "id": 4228747540, "lat": 46.5898135, "lon": 11.4504681, "tags": {"aerialway": "pylon"}}, {"type": "node", "id": 4228747542, "lat": 46.5911802, "lon": 11.4509375, "tags": {"aerialway": "pylon"}}, {"type": "node", "id": 4228747545, "lat": 46.5940986, "lon": 11.4519399, "tags": {"aerialway": "pylon"}}, {"type": "node", "id": 4228747546, "lat": 46.5772475, "lon": 11.4461074, "tags": {"aerialway": "pylon"}}, {"type": "node", "id": 4228747549, "lat": 46.5806248, "lon": 11.4472795, "tags": {"aerialway": "pylon"}}, {"type": "node", "id": 4228747551, "lat": 46.5923029, "lon": 11.4513231, "tags": {"aerialway": "pylon"}}, {"type": "node", "id": 4228747554, "lat": 46.5813822, "lon": 11.4475464, "tags": {"aerialway": "pylon"}}, {"type": "node", "id": 4228747555, "lat": 46.5798006, "lon": 11.4469943, "tags": {"aerialway": "pylon"}}, {"type": "node", "id": 4228747556, "lat": 46.5845547, "lon": 11.4486419, "tags": {"aerialway": "pylon"}}, {"type": "node", "id": 4229602217, "lat": 46.548246, "lon": 11.6481177, "tags": {"aerialway": "pylon"}}, {"type": "node", "id": 4229602218, "lat": 46.5481629, "lon": 11.6472886, "tags": {"aerialway": "pylon"}}, {"type": "node", "id": 4229602219, "lat": 46.5480632, "lon": 11.6462935, "tags": {"aerialway": "pylon"}}, {"type": "node", "id": 4229602220, "lat": 46.5478873, "lon": 11.6445375, "tags": {"aerialway": "pylon"}}, {"type": "node", "id": 4229602221, "lat": 46.5477442, "lon": 11.643109, "tags": {"aerialway": "pylon"}}, {"type": "node", "id": 4229602222, "lat": 46.547599, "lon": 11.6416593, "tags": {"aerialway": "pylon"}}, {"type": "node", "id": 4229602223, "lat": 46.5474715, "lon": 11.6403865, "tags": {"aerialway": "pylon"}}, {"type": "node", "id": 4229602224, "lat": 46.5473106, "lon": 11.6387807, "tags": {"aerialway": "pylon"}}, {"type": "node", "id": 4229602225, "lat": 46.5471407, "lon": 11.637084, "tags": {"aerialway": "pylon"}}, {"type": "node", "id": 4230418542, "lat": 46.5886204, "lon": 11.7000531, "tags": {"aerialway": "pylon"}}, {"type": "node", "id": 4230418543, "lat": 46.5876997, "lon": 11.6981689, "tags": {"aerialway": "pylon"}}, {"type": "node", "id": 4230418629, "lat": 46.5866463, "lon": 11.6960016, "tags": {"aerialway": "pylon"}}, {"type": "node", "id": 4230418630, "lat": 46.5857416, "lon": 11.6941408, "tags": {"aerialway": "pylon"}}, {"type": "node", "id": 4230418631, "lat": 46.5847381, "lon": 11.692094, "tags": {"aerialway": "pylon"}}, {"type": "node", "id": 4230418632, "lat": 46.5836022, "lon": 11.6897575, "tags": {"aerialway": "pylon"}}, {"type": "node", "id": 4230418633, "lat": 46.5823683, "lon": 11.6872498, "tags": {"aerialway": "pylon"}}, {"type": "node", "id": 4230418634, "lat": 46.5815403, "lon": 11.6855545, "tags": {"aerialway": "pylon"}}, {"type": "node", "id": 4230418635, "lat": 46.5805268, "lon": 11.6834791, "tags": {"aerialway": "pylon"}}, {"type": "node", "id": 4230418636, "lat": 46.5794195, "lon": 11.6812119, "tags": {"aerialway": "pylon"}}, {"type": "node", "id": 4230418637, "lat": 46.5786324, "lon": 11.6796002, "tags": {"aerialway": "pylon"}}, {"type": "node", "id": 4230418638, "lat": 46.5779237, "lon": 11.6781491, "tags": {"aerialway": "pylon"}}, {"type": "node", "id": 4232332784, "lat": 46.6934349, "lon": 11.8963821, "tags": {"aerialway": "pylon"}}, {"type": "node", "id": 4232333010, "lat": 46.6936793, "lon": 11.8971878, "tags": {"aerialway": "pylon"}}, {"type": "node", "id": 4232333020, "lat": 46.6938036, "lon": 11.8975974, "tags": {"aerialway": "pylon"}}, {"type": "node", "id": 4232333026, "lat": 46.6940106, "lon": 11.8982797, "tags": {"aerialway": "pylon"}}, {"type": "node", "id": 4232333135, "lat": 46.6949427, "lon": 11.9013515, "tags": {"aerialway": "pylon"}}, {"type": "node", "id": 4232333163, "lat": 46.6951398, "lon": 11.9020009, "tags": {"aerialway": "pylon"}}, {"type": "node", "id": 4232333225, "lat": 46.6955464, "lon": 11.903341, "tags": {"aerialway": "pylon"}}, {"type": "node", "id": 4232333289, "lat": 46.6962122, "lon": 11.9055353, "tags": {"aerialway": "pylon"}}, {"type": "node", "id": 4232333316, "lat": 46.6966453, "lon": 11.9210582, "tags": {"aerialway": "pylon"}}, {"type": "node", "id": 4232333331, "lat": 46.6967175, "lon": 11.9072007, "tags": {"aerialway": "pylon"}}, {"type": "node", "id": 4232333337, "lat": 46.6967676, "lon": 11.9200204, "tags": {"aerialway": "pylon"}}, {"type": "node", "id": 4232333354, "lat": 46.6969579, "lon": 11.9220608, "tags": {"aerialway": "pylon"}}, {"type": "node", "id": 4232333357, "lat": 46.6969803, "lon": 11.9182158, "tags": {"aerialway": "pylon"}}, {"type": "node", "id": 4232333397, "lat": 46.6971964, "lon": 11.9163822, "tags": {"aerialway": "pylon"}}, {"type": "node", "id": 4232333427, "lat": 46.6974449, "lon": 11.9142741, "tags": {"aerialway": "pylon"}}, {"type": "node", "id": 4232333430, "lat": 46.6974471, "lon": 11.9096051, "tags": {"aerialway": "pylon"}}, {"type": "node", "id": 4232333456, "lat": 46.6976167, "lon": 11.9128165, "tags": {"aerialway": "pylon"}}, {"type": "node", "id": 4232333495, "lat": 46.6977959, "lon": 11.9107547, "tags": {"aerialway": "pylon"}}, {"type": "node", "id": 4232333528, "lat": 46.6979514, "lon": 11.9237131, "tags": {"aerialway": "pylon"}}, {"type": "node", "id": 4232333653, "lat": 46.6986977, "lon": 11.9249543, "tags": {"aerialway": "pylon"}}, {"type": "node", "id": 4232333780, "lat": 46.699381, "lon": 11.9260907, "tags": {"aerialway": "pylon"}}, {"type": "node", "id": 4232333858, "lat": 46.7000445, "lon": 11.9271942, "tags": {"aerialway": "pylon"}}, {"type": "node", "id": 4232333881, "lat": 46.7003481, "lon": 11.927699, "tags": {"aerialway": "pylon"}}, {"type": "node", "id": 4264502405, "lat": 46.5093882, "lon": 11.7544659, "tags": {"aerialway": "pylon"}}, {"type": "node", "id": 4264502406, "lat": 46.5099837, "lon": 11.7527153, "tags": {"aerialway": "pylon"}}, {"type": "node", "id": 4264502407, "lat": 46.5100625, "lon": 11.7524835, "tags": {"aerialway": "pylon"}}, {"type": "node", "id": 4264502408, "lat": 46.5104909, "lon": 11.751224, "tags": {"aerialway": "pylon"}}, {"type": "node", "id": 4264502409, "lat": 46.5109152, "lon": 11.7499768, "tags": {"aerialway": "pylon"}}, {"type": "node", "id": 4264502410, "lat": 46.5112267, "lon": 11.7490608, "tags": {"aerialway": "pylon"}}, {"type": "node", "id": 4264502411, "lat": 46.5142871, "lon": 11.7400633, "tags": {"aerialway": "pylon"}}, {"type": "node", "id": 4264502412, "lat": 46.5135977, "lon": 11.7420902, "tags": {"aerialway": "pylon"}}, {"type": "node", "id": 4264502413, "lat": 46.513272, "lon": 11.7430478, "tags": {"aerialway": "pylon"}}, {"type": "node", "id": 4264502414, "lat": 46.5128335, "lon": 11.7443368, "tags": {"aerialway": "pylon"}}, {"type": "node", "id": 4264502415, "lat": 46.5121422, "lon": 11.7463692, "tags": {"aerialway": "pylon"}}, {"type": "node", "id": 4264502416, "lat": 46.5117657, "lon": 11.7474763, "tags": {"aerialway": "pylon"}}, {"type": "node", "id": 4264502417, "lat": 46.5114787, "lon": 11.74832, "tags": {"aerialway": "pylon"}}, {"type": "node", "id": 4264502418, "lat": 46.5098964, "lon": 11.7563885, "tags": {"aerialway": "pylon", "material": "steel"}}, {"type": "node", "id": 4264502419, "lat": 46.5095982, "lon": 11.7554834, "tags": {"aerialway": "pylon"}}, {"type": "node", "id": 4264502420, "lat": 46.5092021, "lon": 11.7542819, "tags": {"aerialway": "pylon"}}, {"type": "node", "id": 4264502421, "lat": 46.5090116, "lon": 11.7537037, "tags": {"aerialway": "pylon"}}, {"type": "node", "id": 4264502422, "lat": 46.5084194, "lon": 11.7519071, "tags": {"aerialway": "pylon"}}, {"type": "node", "id": 4264502423, "lat": 46.5079803, "lon": 11.7505745, "tags": {"aerialway": "pylon"}}, {"type": "node", "id": 4264502424, "lat": 46.5075256, "lon": 11.7491951, "tags": {"aerialway": "pylon"}}, {"type": "node", "id": 4264502425, "lat": 46.5071763, "lon": 11.7481353, "tags": {"aerialway": "pylon"}}, {"type": "node", "id": 4264502426, "lat": 46.5066306, "lon": 11.7464796, "tags": {"aerialway": "pylon"}}, {"type": "node", "id": 4264502427, "lat": 46.5058607, "lon": 11.7441883, "tags": {"aerialway": "pylon"}}, {"type": "node", "id": 4264502428, "lat": 46.5060097, "lon": 11.7446319, "tags": {"aerialway": "pylon"}}, {"type": "node", "id": 4269774663, "lat": 46.5767689, "lon": 11.6757847, "tags": {"aerialway": "pylon"}}, {"type": "node", "id": 4271142763, "lat": 46.5380073, "lon": 11.7424356, "tags": {"aerialway": "pylon"}}, {"type": "node", "id": 4271142764, "lat": 46.5388315, "lon": 11.7418801, "tags": {"aerialway": "pylon"}}, {"type": "node", "id": 4271142765, "lat": 46.5395191, "lon": 11.7414167, "tags": {"aerialway": "pylon"}}, {"type": "node", "id": 4271142766, "lat": 46.5400373, "lon": 11.7410675, "tags": {"aerialway": "pylon"}}, {"type": "node", "id": 4271142767, "lat": 46.5409213, "lon": 11.7404608, "tags": {"aerialway": "pylon"}}, {"type": "node", "id": 4271142768, "lat": 46.5413514, "lon": 11.7401462, "tags": {"aerialway": "pylon"}}, {"type": "node", "id": 4271142769, "lat": 46.5422233, "lon": 11.7395636, "tags": {"aerialway": "pylon"}}, {"type": "node", "id": 4271143071, "lat": 46.5430667, "lon": 11.7423786, "tags": {"aerialway": "pylon"}}, {"type": "node", "id": 4271143072, "lat": 46.543177, "lon": 11.7421226, "tags": {"aerialway": "pylon"}}, {"type": "node", "id": 4271143073, "lat": 46.5428197, "lon": 11.7429523, "tags": {"aerialway": "pylon"}}, {"type": "node", "id": 4271143074, "lat": 46.5422282, "lon": 11.7443259, "tags": {"aerialway": "pylon"}}, {"type": "node", "id": 4271143075, "lat": 46.5415671, "lon": 11.7458612, "tags": {"aerialway": "pylon"}}, {"type": "node", "id": 4271143076, "lat": 46.5410364, "lon": 11.7470935, "tags": {"aerialway": "pylon"}}, {"type": "node", "id": 4271143077, "lat": 46.5404921, "lon": 11.7483576, "tags": {"aerialway": "pylon"}}, {"type": "node", "id": 4271143078, "lat": 46.5399922, "lon": 11.7495184, "tags": {"aerialway": "pylon"}}, {"type": "node", "id": 4271143079, "lat": 46.5393583, "lon": 11.7509905, "tags": {"aerialway": "pylon"}}, {"type": "node", "id": 4271143080, "lat": 46.5393871, "lon": 11.7509235, "tags": {"aerialway": "pylon"}}, {"type": "node", "id": 4271143081, "lat": 46.5389777, "lon": 11.7518741, "tags": {"aerialway": "pylon"}}, {"type": "node", "id": 4271143082, "lat": 46.5412434, "lon": 11.7548879, "tags": {"aerialway": "pylon"}}, {"type": "node", "id": 4271143083, "lat": 46.539143, "lon": 11.7536905, "tags": {"aerialway": "pylon"}}, {"type": "node", "id": 4271143084, "lat": 46.5390127, "lon": 11.7536162, "tags": {"aerialway": "pylon"}}, {"type": "node", "id": 4271143085, "lat": 46.5423304, "lon": 11.7555059, "tags": {"aerialway": "pylon"}}, {"type": "node", "id": 4271143086, "lat": 46.5432115, "lon": 11.7560068, "tags": {"aerialway": "pylon"}}, {"type": "node", "id": 4271143087, "lat": 46.5446357, "lon": 11.7568166, "tags": {"aerialway": "pylon"}}, {"type": "node", "id": 4271143088, "lat": 46.5452622, "lon": 11.7571728, "tags": {"aerialway": "pylon"}}, {"type": "node", "id": 4271143089, "lat": 46.5462703, "lon": 11.757746, "tags": {"aerialway": "pylon"}}, {"type": "node", "id": 4271143090, "lat": 46.5475643, "lon": 11.7584817, "tags": {"aerialway": "pylon"}}, {"type": "node", "id": 4271143091, "lat": 46.5489057, "lon": 11.7592444, "tags": {"aerialway": "pylon"}}, {"type": "node", "id": 4271143092, "lat": 46.549804, "lon": 11.7597552, "tags": {"aerialway": "pylon"}}, {"type": "node", "id": 4271143093, "lat": 46.5521053, "lon": 11.7610756, "tags": {"aerialway": "pylon"}}, {"type": "node", "id": 4271143094, "lat": 46.5530259, "lon": 11.7615873, "tags": {"aerialway": "pylon"}}, {"type": "node", "id": 4271143096, "lat": 46.5332862, "lon": 11.7669311, "tags": {"aerialway": "pylon"}}, {"type": "node", "id": 4281113809, "lat": 46.5504312, "lon": 11.7946651, "tags": {"aerialway": "station", "aerialway:access": "both", "aerialway:summer:access": "both", "ele": "2150", "name": "Dantercepies", "public_transport": "station"}}, {"type": "node", "id": 4281113810, "lat": 46.5556488, "lon": 11.7679757, "tags": {"aerialway": "station", "aerialway:access": "both", "aerialway:summer:access": "both", "ele": "1646", "name": "Dantercepies", "public_transport": "station"}}, {"type": "node", "id": 4358923133, "lat": 46.6886615, "lon": 11.4218846, "tags": {"aerialway": "pylon"}}, {"type": "node", "id": 4358923146, "lat": 46.6889591, "lon": 11.4227154, "tags": {"aerialway": "pylon"}}, {"type": "node", "id": 4358923190, "lat": 46.6897157, "lon": 11.4248279, "tags": {"aerialway": "pylon"}}, {"type": "node", "id": 4358923251, "lat": 46.6905367, "lon": 11.42712, "tags": {"aerialway": "pylon"}}, {"type": "node", "id": 4358923290, "lat": 46.6909623, "lon": 11.4283082, "tags": {"aerialway": "pylon"}}, {"type": "node", "id": 4358923307, "lat": 46.6912109, "lon": 11.4290023, "tags": {"aerialway": "pylon"}}, {"type": "node", "id": 4358923344, "lat": 46.6919646, "lon": 11.4311069, "tags": {"aerialway": "pylon"}}, {"type": "node", "id": 4358923368, "lat": 46.6924557, "lon": 11.4324779, "tags": {"aerialway": "pylon"}}, {"type": "node", "id": 4358923417, "lat": 46.6932207, "lon": 11.434614, "tags": {"aerialway": "pylon"}}, {"type": "node", "id": 4358923442, "lat": 46.6938512, "lon": 11.4363743, "tags": {"aerialway": "pylon"}}, {"type": "node", "id": 4358923460, "lat": 46.6946327, "lon": 11.4385563, "tags": {"aerialway": "pylon"}}, {"type": "node", "id": 4358923506, "lat": 46.6952406, "lon": 11.4402538, "tags": {"aerialway": "pylon"}}, {"type": "node", "id": 4560145988, "lat": 46.7113051, "lon": 11.9509101, "tags": {"aerialway": "pylon"}}, {"type": "node", "id": 4560147789, "lat": 46.7119538, "lon": 11.951938, "tags": {"aerialway": "pylon"}}, {"type": "node", "id": 4560147790, "lat": 46.7130185, "lon": 11.9536253, "tags": {"aerialway": "pylon"}}, {"type": "node", "id": 4560147791, "lat": 46.7135641, "lon": 11.9544898, "tags": {"aerialway": "pylon"}}, {"type": "node", "id": 4560147792, "lat": 46.7143362, "lon": 11.9557134, "tags": {"aerialway": "pylon"}}, {"type": "node", "id": 4560147793, "lat": 46.7157181, "lon": 11.9579033, "tags": {"aerialway": "pylon"}}, {"type": "node", "id": 4560147794, "lat": 46.716864, "lon": 11.9597192, "tags": {"aerialway": "pylon"}}, {"type": "node", "id": 4560147800, "lat": 46.7182684, "lon": 11.961945, "tags": {"aerialway": "pylon"}}, {"type": "node", "id": 4560147801, "lat": 46.7188845, "lon": 11.9629214, "tags": {"aerialway": "pylon"}}, {"type": "node", "id": 4560148975, "lat": 46.7108097, "lon": 11.9505732, "tags": {"aerialway": "pylon"}}, {"type": "node", "id": 4560148976, "lat": 46.7103099, "lon": 11.9489918, "tags": {"aerialway": "pylon"}}, {"type": "node", "id": 4560148978, "lat": 46.7096964, "lon": 11.9470506, "tags": {"aerialway": "pylon"}}, {"type": "node", "id": 4560148979, "lat": 46.7081854, "lon": 11.9422693, "tags": {"aerialway": "pylon"}}, {"type": "node", "id": 4560148980, "lat": 46.7089272, "lon": 11.9446164, "tags": {"aerialway": "pylon"}}, {"type": "node", "id": 4560148981, "lat": 46.7050084, "lon": 11.9322168, "tags": {"aerialway": "pylon"}}, {"type": "node", "id": 4560148982, "lat": 46.7055716, "lon": 11.933995, "tags": {"aerialway": "pylon"}}, {"type": "node", "id": 4560148983, "lat": 46.7064991, "lon": 11.9368839, "tags": {"aerialway": "pylon"}}, {"type": "node", "id": 4560148984, "lat": 46.7067116, "lon": 11.9376061, "tags": {"aerialway": "pylon"}}, {"type": "node", "id": 4560148985, "lat": 46.7061071, "lon": 11.935676, "tags": {"aerialway": "pylon"}}, {"type": "node", "id": 4560148986, "lat": 46.7075392, "lon": 11.9402245, "tags": {"aerialway": "pylon"}}, {"type": "node", "id": 4623226844, "lat": 46.4734856, "lon": 11.8703987, "tags": {"aerialway": "pylon"}}, {"type": "node", "id": 4623226846, "lat": 46.4814804, "lon": 11.8787908, "tags": {"aerialway": "pylon"}}, {"type": "node", "id": 4623226847, "lat": 46.4778874, "lon": 11.875019, "tags": {"aerialway": "pylon"}}, {"type": "node", "id": 4623226848, "lat": 46.4950849, "lon": 11.8749733, "tags": {"aerialway": "pylon"}}, {"type": "node", "id": 4623226849, "lat": 46.4823636, "lon": 11.8790424, "tags": {"aerialway": "pylon"}}, {"type": "node", "id": 4623226850, "lat": 46.4849893, "lon": 11.8782004, "tags": {"aerialway": "pylon"}}, {"type": "node", "id": 4623226851, "lat": 46.4883495, "lon": 11.8771186, "tags": {"aerialway": "pylon"}}, {"type": "node", "id": 4623226852, "lat": 46.4918073, "lon": 11.8760169, "tags": {"aerialway": "pylon"}}, {"type": "node", "id": 4623226853, "lat": 46.4944428, "lon": 11.8751721, "tags": {"aerialway": "pylon"}}, {"type": "node", "id": 4623226854, "lat": 46.481253, "lon": 11.8697567, "tags": {"aerialway": "pylon"}}, {"type": "node", "id": 4623226855, "lat": 46.4900412, "lon": 11.8726911, "tags": {"aerialway": "pylon"}}, {"type": "node", "id": 4623231852, "lat": 46.4953857, "lon": 11.8734859, "tags": {"aerialway": "station", "aerialway:access": "both", "ele": "1602", "name": "Portados", "public_transport": "station"}}, {"type": "node", "id": 4623231853, "lat": 46.4839019, "lon": 11.8675634, "tags": {"aerialway": "station", "aerialway:access": "exit", "name": "Portados", "public_transport": "station"}}, {"type": "node", "id": 4707408835, "lat": 46.5901296, "lon": 11.4505767, "tags": {"aerialway": "station", "aerialway:access": "exit", "aerialway:summer:access": "no", "ele": "1840", "name": "Mittelstation - Stazione intermedia", "name:de": "Mittelstation", "name:it": "Stazione intermedia", "public_transport": "station"}}, {"type": "node", "id": 4827367424, "lat": 46.697813, "lon": 11.9108111, "tags": {"aerialway": "pylon"}},