{"version": 0.6, "generator": "Overpass API 0.7.62.10 2d4cfc48", "osm3s": {"timestamp_osm_base": "2026-02-08T12:52:26Z", "copyright": "The data included in this document is from www.openstreetmap.org. The data is made available under ODbL."}, "elements": [{"type": "node", "id": 290467985, "lat": 46.6899733, "lon": 10.5437935, "tags": {"addr:city": "Mals - Malles Venosta", "addr:city:de": "Mals", "addr:city:it": "Malles Venosta", "addr:housenumber": "1a", "addr:postcode": "39024", "addr:street": "Peter-Gl\u00fcckh-Platz - Piazza Peter Gl\u00fcckh", "addr:street:de": "Peter-Gl\u00fcckh-Platz", "addr:street:it": "Piazza Peter Gl\u00fcckh", "amenity": "pharmacy", "email": "info@apotheke-mals.com", "fax": "+39 0473 830552", "name": "Gerichtsapotheke Mals - Farmacia Distrettuale Malles Venosta", "name:de": "Gerichtsapotheke Mals", "name:it": "Farmacia Distrettuale Malles Venosta", "opening_hours": "Mo-Fr 08:30-12:00, 15:00-19:00; Sa 08:30-12:00", "operator": "Dr. Fragner-Unterpertinger Johannes", "phone": "+39 0473 831130", "ref:msal": "4047", "ref:vatin": "IT01542560212", "website": "https://www.apotheke-mals.com/"}}, {"type": "node", "id": 333696242, "lat": 46.400882, "lon": 10.8461831, "tags": {"addr:city": "Rabbi", "addr:housenumber": "127", "addr:place": "San Bernardo", "addr:postcode": "38020", "amenity": "pharmacy", "contact:phone": "+39 0463 808009", "dispensing": "yes", "healthcare": "pharmacy", "name": "Farmacia Comunale"}}, {"type": "node", "id": 483034375, "lat": 46.6180084, "lon": 10.5911632, "tags": {"amenity": "pharmacy", "dispensing": "yes", "name": "Prad am Stilfserjoch", "name:de": "Apotheke Prad am Stilfserjoch", "name:it": "Farmacia Prato allo Stelvio", "opening_hours": "Mo-Sa 08:30-12:30, Mo-We,Fr 14:30-18:30", "operator": "Koellemann Patrizia", "ref:msal": "4103", "ref:vatin": "IT03113140218", "source": "Ministero della Salute", "source:start_date": "2021-08-01", "wheelchair": "yes"}}, {"type": "node", "id": 870802942, "lat": 46.4629028, "lon": 10.4105483, "tags": {"amenity": "pharmacy"}}, {"type": "node", "id": 1145483483, "lat": 46.4124798, "lon": 10.4957327, "tags": {"amenity": "pharmacy", "healthcare": "pharmacy", "name": "Farmacia Zacchi Marina"}}, {"type": "node", "id": 1303364701, "lat": 46.6171859, "lon": 10.8592761, "tags": {"addr:city": "Latsch - Laces", "addr:city:de": "Latsch", "addr:city:it": "Laces", "addr:housenumber": "8", "addr:postcode": "39021", "addr:street": "Hauptplatz - Piazza Principale", "addr:street:de": "Hauptplatz", "addr:street:it": "Piazza Principale", "amenity": "pharmacy", "dispensing": "yes", "email": "farmacia.sonnenberg@rolmail.net", "name": "Sonnenberg", "opening_hours": "Mo-Fr 08:30-12:15,15:30-19:00; Sa 08:30-12:15; Su off", "operator": "Sonnenberg di Dott.ssa Tanchis Federica & C. S.A.S.", "phone": "+39 0473 623310", "ref:msal": "4124", "ref:vatin": "IT01696500212", "source": "Ministero della Salute", "source:start_date": "2013-04-01", "website": "https://www.farmaciasonnenberg.com/"}}, {"type": "node", "id": 1870349655, "lat": 46.6283655, "lon": 10.7776639, "tags": {"amenity": "pharmacy", "check_date:opening_hours": "2026-02-05", "dispensing": "yes", "name": "Farmacia Silandro - Apotheke Schlanders", "name:de": "Apotheke Schlanders", "name:it": "Farmacia Silandro", "opening_hours": "Mo-Fr 08:15-12:15,15:00-19:00; Sa 08:15-12:15", "operator": "Osterreicher Jurgen Klaus", "ref:msal": "4113", "ref:vatin": "IT02334560212", "website": "http://www.apotheke-schlanders.it/"}}, {"type": "node", "id": 2517398359, "lat": 46.6289587, "lon": 10.9020166, "tags": {"amenity": "pharmacy", "dispensing": "yes", "name": "Burgapotheke", "opening_hours": "Mo,Tu,We,Fr 08:30-12:30,15:00-19:00; Th,Sa 08:30-12:30; Su off", "operator": "Farmacia Castelbello S.N.C. di Telser Andrea & Trafoier Martina", "phone": "+39 0473 727061", "ref:msal": "4156", "ref:vatin": "IT02971780214"}}, {"type": "node", "id": 3481746394, "lat": 46.6164069, "lon": 10.7019963, "tags": {"addr:city": "Laas - Lasa", "addr:city:de": "Laas", "addr:city:it": "Lasa", "addr:housenumber": "39", "addr:postcode": "39023", "addr:street": "Vinschgaustra\u00dfe - Via Venosta", "addr:street:de": "Vinschgaustra\u00dfe", "addr:street:it": "Via Venosta", "amenity": "pharmacy", "dispensing": "yes", "name": "Gadria", "opening_hours": "Mo-Fr 08:30-12:30,15:00-19:00; Sa 08:30-12:30; Su off", "operator": "Haller Sigrid", "phone": "+39 0473 626398", "ref:msal": "4108", "ref:vatin": "IT01274390218", "wheelchair": "yes"}}, {"type": "node", "id": 4598018097, "lat": 46.6338526, "lon": 10.4576733, "tags": {"addr:city": "M\u00fcstair", "addr:country": "CH", "addr:postcode": "7537", "addr:street": "Cunfin", "amenity": "pharmacy", "dispensing": "yes", "email": "drogerie@conradsa.ch", "healthcare": "pharmacy", "name": "Toppharm", "opening_hours": "Mo-Su 09:00-12:00, 13:00-18:00", "operator": "Conrad SA", "phone": "+41 81 858 56 80", "website": "https://parcrom.ch/"}}, {"type": "node", "id": 5704424021, "lat": 46.6648614, "lon": 10.5823731, "tags": {"amenity": "pharmacy", "dispensing": "yes", "healthcare": "pharmacy", "name": "Gaudenz", "ref:msal": "18121", "ref:vatin": "IT02551630219"}}, {"type": "node", "id": 5704440433, "lat": 46.7249311, "lon": 10.858514, "tags": {"amenity": "pharmacy", "dispensing": "yes", "healthcare": "pharmacy", "name": "Apotheke Schnals", "operator": "Mazzotta Pietro", "ref:msal": "18225", "ref:vatin": "IT00729200212"}}, {"type": "node", "id": 10980614720, "lat": 46.6288539, "lon": 10.7742909, "tags": {"amenity": "pharmacy", "check_date:opening_hours": "2024-12-24", "healthcare": "pharmacy", "name": "Solaris", "opening_hours": "Mo-Th 14:30-18:30, Mo-Sa 08:15-12:15"}}]}