{"version": 0.6, "generator": "Overpass API 0.7.62.10 2d4cfc48", "osm3s": {"timestamp_osm_base": "2026-02-08T12:41:05Z", "copyright": "The data included in this document is from www.openstreetmap.org. The data is made available under ODbL."}, "elements": [{"type": "node", "id": 123394976, "lat": 46.7795881, "lon": 11.2254118, "tags": {"addr:city": "St. Martin in Passeier - San Martino in Passiria", "addr:housenumber": "85", "addr:postcode": "39010", "addr:street": "Passeirer Stra\u00dfe - Via Passiria", "brand": "Spar", "brand:wikidata": "Q610492", "contact:fax": "+39 0473 069 650", "contact:phone": "+39 0473 641 777", "name": "Despar", "opening_hours": "Mo-Fr 07:45-19:00; Sa 07:45-18:00", "shop": "supermarket", "source": "https://www.despar.it/de/geschaeft-despar/883/st-martin-in-passeier/#gref"}}, {"type": "node", "id": 910611568, "lat": 46.9098278, "lon": 11.3052949, "tags": {"addr:city": "Ridnaun - Ridanna", "addr:hamlet": "Kalchern", "addr:postcode": "39040", "addr:street": "Dorf", "addr:village": "Ridanna", "brand": "Spar", "brand:wikidata": "Q610492", "check_date:opening_hours": "2025-06-05", "name": "Spar", "opening_hours": "Mo-Sa 07:30-12:00,15:00-18:00", "shop": "supermarket"}}, {"type": "node", "id": 926680252, "lat": 46.831935, "lon": 11.166821, "tags": {"addr:city": "Moos in Passeier - Moso in Passiria", "addr:postcode": "39013", "addr:street": "Museumsstra\u00dfe - Via Del Museo", "brand": "Despar", "brand:wikidata": "Q610492", "level": "1", "name": "Despar", "opening_hours": "Mo-Fr 07:45-13:00, 15:00-19:00; Sa 07:45-13:00, 15:00-18:00", "operator": "Despar", "shop": "supermarket", "wheelchair": "yes"}}, {"type": "node", "id": 931751924, "lat": 46.8952813, "lon": 11.4323675, "tags": {"name": "Despar - Knollenberger", "shop": "supermarket"}}, {"type": "node", "id": 1350118992, "lat": 46.8991441, "lon": 11.4333522, "tags": {"addr:postcode": "39049", "addr:street": "Stadtplatz - Piazza Citt\u00e0", "brand": "EuroSpin", "brand:wikidata": "Q1374674", "brand:wikipedia": "it:Eurospin", "name": "EuroSpin", "opening_hours": "We-Sa 08:30-19:00", "shop": "supermarket", "website": "http://www.anjoka.it/eurospin-sterzing/"}}, {"type": "node", "id": 1544062895, "lat": 46.8611904, "lon": 10.9147748, "tags": {"contact:website": "https://www.venter.at/de", "name": "Venter Kaufh\u00e4usl & Sport 2000", "opening_hours": "Mo-Su 08:30-12:30, 15:00-18:00", "shop": "supermarket", "wheelchair": "no"}}, {"type": "node", "id": 1600576786, "lat": 46.8693819, "lon": 11.0261279, "tags": {"addr:city": "S\u00f6lden", "addr:country": "AT", "addr:housenumber": "11", "addr:postcode": "6456", "addr:street": "Ramolweg", "addr:suburb": "Obergurgl", "brand": "Spar", "brand:wikidata": "Q610492", "brand:wikipedia": "en:Spar (retailer)", "contact:phone": "+43 5256 6309", "name": "Spar", "opening_hours": "Mo-Fr 07:00-18:30; Sa 07:00-18:00; Su 09:00-12:30", "shop": "supermarket"}}, {"type": "node", "id": 1994259618, "lat": 46.9000003, "lon": 11.4305608, "tags": {"check_date": "2024-07-21", "name": "Gschwentner", "shop": "supermarket"}}, {"type": "node", "id": 2289332842, "lat": 46.891607, "lon": 11.4372043}, {"type": "node", "id": 2289332845, "lat": 46.8920993, "lon": 11.4367823}, {"type": "node", "id": 2289332870, "lat": 46.8918988, "lon": 11.4378765}, {"type": "node", "id": 2289332881, "lat": 46.8923883, "lon": 11.4374257}, {"type": "node", "id": 2431292271, "lat": 46.8942123, "lon": 11.4301387, "tags": {"brand:wikidata": "Q130079552", "name": "Poli Supermarket", "operator:wikidata": "Q3907243", "shop": "supermarket"}}, {"type": "node", "id": 2537349085, "lat": 46.784781, "lon": 11.2276922, "tags": {"addr:city": "St. Martin in Passeier - San Martino in Passiria", "addr:housenumber": "51", "addr:postcode": "39010", "addr:street": "Dorfstra\u00dfe - Via del Villaggio", "brand": "Conad", "brand:wikidata": "Q639075", "contact:phone": "+39 0473 641 241", "name": "C+C Supermarket Passeier", "opening_hours": "Mo-Fr 08:00-18:30; Sa 08:00-12:00", "operator": "Werner Platter", "shop": "supermarket", "wheelchair": "yes"}}, {"type": "node", "id": 2755987103, "lat": 46.897793, "lon": 11.4315093, "tags": {"addr:city": "Sterzing - Vipiteno", "addr:city:de": "Sterzing", "addr:city:it": "Vipiteno", "addr:housenumber": "22", "addr:postcode": "39049", "addr:street": "Neustadt - Citt\u00e0 Nuova", "addr:street:de": "Neustadt", "addr:street:it": "Citt\u00e0 Nuova", "name": "Gut & Gerne - Regionale Spezialit\u00e4ten", "opening_hours": "Mo-Fr 09:30-13:00,14:00-18:30; Sa 09:30-13:00,14:00-18:00; PH closed; Su 10:00-15:00", "shop": "supermarket", "wheelchair": "limited", "wheelchair:step_height": "3"}}, {"type": "node", "id": 2755992469, "lat": 46.8118813, "lon": 11.2460762, "tags": {"name": "Bio- + Reformhaus Hofer", "organic": "only", "shop": "supermarket"}}, {"type": "node", "id": 3259387836, "lat": 46.8110688, "lon": 11.246504}, {"type": "node", "id": 3259393412, "lat": 46.8111298, "lon": 11.2465793}, {"type": "node", "id": 3259393413, "lat": 46.8112014, "lon": 11.246708}, {"type": "node", "id": 3259393414, "lat": 46.8110601, "lon": 11.246881}, {"type": "node", "id": 3259393415, "lat": 46.8109967, "lon": 11.2467737}, {"type": "node", "id": 3259393416, "lat": 46.8109655, "lon": 11.2468234}, {"type": "node", "id": 3259393417, "lat": 46.8109013, "lon": 11.2467201}, {"type": "node", "id": 3259393878, "lat": 46.8110669, "lon": 11.2468725}, {"type": "node", "id": 4823558592, "lat": 46.8920703, "lon": 11.4367909}, {"type": "node", "id": 4823558604, "lat": 46.8921284, "lon": 11.4367897}, {"type": "node", "id": 5002999151, "lat": 46.8916286, "lon": 11.4372541, "tags": {"entrance": "yes"}}, {"type": "node", "id": 5002999152, "lat": 46.8916321, "lon": 11.4371789, "tags": {"entrance": "yes"}}, {"type": "node", "id": 5002999173, "lat": 46.8918089, "lon": 11.4369996}, {"type": "node", "id": 5035994671, "lat": 46.8111343, "lon": 11.2460571, "tags": {"addr:city": "St. Leonhard in Passeier - San Leonardo in Passiria", "addr:housenumber": "39", "addr:postcode": "39015", "addr:street": "Passeirer Stra\u00dfe - Via Passiria", "brand": "Spar", "brand:wikidata": "Q610492", "brand:wikipedia": "en:Spar (retailer)", "contact:phone": "+39 0473 659 149", "name": "Despar", "operator": "Winkler", "shop": "supermarket", "source": "TV Passeier"}}, {"type": "node", "id": 5038595119, "lat": 46.7903354, "lon": 11.2322199, "tags": {"contact:phone": "+39 0473 641 166", "name": "Frischmarkt Raffl", "shop": "supermarket", "source": "TV Passeier"}}, {"type": "node", "id": 6844025595, "lat": 46.8971499, "lon": 11.4317242, "tags": {"addr:housenumber": "32a", "addr:street": "Neustadt - Via Citt\u00e0 Nuova", "check_date": "2023-08-22", "name": "Gut & Gerne", "opening_hours": "Mo-We,Fr,Sa 09:00-18:00; Th 09:00-14:00; Su off", "shop": "supermarket"}}, {"type": "node", "id": 10681508697, "lat": 46.8651418, "lon": 11.3108875, "tags": {"branch": "Sch\u00f6lzhorn", "brand": "Spar", "brand:wikidata": "Q610492", "contact:website": "https://www.despar.it/de/geschaeft-despar/251/ratschings/", "name": "Despar", "opening_hours": "Mo-Sa 07:30-12:00, 15:00-18:00; PH off", "shop": "supermarket"}}, {"type": "node", "id": 12137792631, "lat": 46.8826951, "lon": 11.3793602}, {"type": "node", "id": 12137792632, "lat": 46.8827383, "lon": 11.3791514}, {"type": "node", "id": 12137792633, "lat": 46.8827827, "lon": 11.3791742}, {"type": "node", "id": 12137792634, "lat": 46.8827743, "lon": 11.3792268}, {"type": "node", "id": 12137792635, "lat": 46.8829486, "lon": 11.3792983}, {"type": "node", "id": 12137792636, "lat": 46.8829287, "lon": 11.3794168}, {"type": "node", "id": 12137792637, "lat": 46.8828982, "lon": 11.379406}, {"type": "node", "id": 12137792638, "lat": 46.8828884, "lon": 11.3794719}, {"type": "node", "id": 12137792639, "lat": 46.8829294, "lon": 11.3794856}, {"type": "node", "id": 12137792640, "lat": 46.882919, "lon": 11.3797953}, {"type": "node", "id": 12137792641, "lat": 46.8826788, "lon": 11.3797014}, {"type": "node", "id": 12137792642, "lat": 46.8827376, "lon": 11.379378}, {"type": "node", "id": 12137792643, "lat": 46.88296, "lon": 11.379573}, {"type": "node", "id": 12137792644, "lat": 46.8829191, "lon": 11.3795587}, {"type": "node", "id": 12218213045, "lat": 46.8827014, "lon": 11.3790789}, {"type": "node", "id": 12218213046, "lat": 46.882685, "lon": 11.379163}, {"type": "node", "id": 12218213047, "lat": 46.8826987, "lon": 11.3791687}, {"type": "node", "id": 12218213048, "lat": 46.8826581, "lon": 11.3793775}, {"type": "node", "id": 12218213049, "lat": 46.882642, "lon": 11.3793707}, {"type": "node", "id": 12218213050, "lat": 46.8826248, "lon": 11.379459}, {"type": "node", "id": 12218213051, "lat": 46.8825131, "lon": 11.3794125}, {"type": "node", "id": 12218213052, "lat": 46.8825342, "lon": 11.3793038}, {"type": "node", "id": 12218213053, "lat": 46.8825163, "lon": 11.3792964}, {"type": "node", "id": 12218213054, "lat": 46.8825693, "lon": 11.3790239}, {"type": "node", "id": 12863424480, "lat": 46.8808407, "lon": 11.4383719, "tags": {"name": "Top Stop Market", "shop": "supermarket"}}, {"type": "way", "id": 219802390, "nodes": [2289332881, 4823558604, 2289332845, 4823558592, 5002999173, 5002999152, 2289332842, 5002999151, 2289332870, 2289332881], "tags": {"addr:city": "Sterzing - Vipiteno", "addr:city:de": "Sterzing", "addr:city:it": "Vipiteno", "addr:housenumber": "1", "addr:postcode": "39049", "addr:street": "Ing. Karl Linder Stra\u00dfe - Via Ing. Karl Linder", "addr:street:de": "Ing. Karl Linder Stra\u00dfe", "addr:street:it": "Via Ing. Karl Linder", "brand": "Eurospar", "brand:wikidata": "Q12309283", "building": "yes", "name": "Eurospar", "opening_hours": "Mo-Sa 08:00-20:00; Su 08:30-19:30", "operator": "Aspiag Service Srl", "shop": "supermarket", "wheelchair": "yes"}}, {"type": "way", "id": 319519050, "nodes": [3259387836, 3259393412, 3259393413, 3259393878, 3259393414, 3259393415, 3259393416, 3259393417, 3259387836], "tags": {"building": "yes", "name": "C&C Euromarkt", "shop": "supermarket", "wheelchair": "yes"}}, {"type": "way", "id": 1311269566, "nodes": [12137792631, 12137792632, 12137792633, 12137792634, 12137792635, 12137792636, 12137792637, 12137792638, 12137792639, 12137792644, 12137792643, 12137792640, 12137792641, 12137792642, 12137792631], "tags": {"building": "yes", "shop": "supermarket"}}, {"type": "way", "id": 1320343905, "nodes": [12218213054, 12218213053, 12218213052, 12218213051, 12218213050, 12218213049, 12218213048, 12218213047, 12218213046, 12218213045, 12218213054], "tags": {"building": "yes", "name": "Despar Trenkwalder", "shop": "supermarket"}}]}