{"version": 0.6, "generator": "Overpass API 0.7.62.10 2d4cfc48", "osm3s": {"timestamp_osm_base": "2026-02-08T12:32:00Z", "copyright": "The data included in this document is from www.openstreetmap.org. The data is made available under ODbL."}, "elements": [{"type": "node", "id": 270541913, "lat": 46.8947884, "lon": 11.9134554, "tags": {"bus": "yes", "highway": "bus_stop", "name": "Klammer", "name:de": "Klammer", "public_transport": "platform"}}, {"type": "node", "id": 270542101, "lat": 46.8899729, "lon": 11.8631819, "tags": {"highway": "bus_stop", "name": "M\u00fchlwald, Dorf - Selva dei Molini, Paese", "name:de": "M\u00fchlwald, Dorf", "name:it": "Selva dei Molini, Paese", "operator": "Info@sta.bz.it", "public_transport": "platform"}}, {"type": "node", "id": 270542574, "lat": 46.9079865, "lon": 11.8110775, "tags": {"highway": "bus_stop", "name": "Niederlechenbr\u00fccke - Ponte Niederlechen", "name:de": "Niederlechenbr\u00fccke", "name:it": "Ponte Niederlechen", "public_transport": "platform"}}, {"type": "node", "id": 270542955, "lat": 46.8915549, "lon": 11.8712797, "tags": {"departures_board": "timetable", "highway": "bus_stop", "name": "M\u00fchlwaldersee - Lago di Selva dei Molini", "name:de": "M\u00fchlwaldersee", "name:it": "Lago di Selva dei Molini", "public_transport": "platform"}}, {"type": "node", "id": 283560750, "lat": 46.9908837, "lon": 11.9634435, "tags": {"bus": "yes", "highway": "bus_stop", "name": "M\u00fchlegg - Costa Molini", "name:de": "M\u00fchlegg", "name:it": "Costa Molini", "public_transport": "platform", "shelter": "no"}}, {"type": "node", "id": 475046561, "lat": 46.7526993, "lon": 11.680582, "tags": {"bench": "yes", "bin": "yes", "covered": "yes", "highway": "bus_stop", "lit": "yes", "name": "Natz, Kirche - Naz, Chiesa", "name:de": "Natz, Kirche", "public_transport": "platform", "shelter": "yes", "tactile_paving": "no"}}, {"type": "node", "id": 757288109, "lat": 46.7901411, "lon": 11.7099299, "tags": {"highway": "bus_stop", "name": "Abzweigung Fr\u00f6llerberg - Bivio Monte Frella", "name:de": "Abzweigung Fr\u00f6llerberg", "name:it": "Bivio Monte Frella", "public_transport": "platform"}}, {"type": "node", "id": 757288120, "lat": 46.7931589, "lon": 11.704636, "tags": {"highway": "bus_stop", "name": "Gruber", "name:de": "Gruber", "public_transport": "platform"}}, {"type": "node", "id": 757288129, "lat": 46.7874761, "lon": 11.6949527, "tags": {"bench": "no", "bin": "no", "highway": "bus_stop", "lit": "no", "name": "Abzweigung Rodenecker Alm", "name:de": "Abzweigung Rodenecker Alm", "public_transport": "platform", "shelter": "no", "tactile_paving": "no"}}, {"type": "node", "id": 757288154, "lat": 46.7883437, "lon": 11.6785956, "tags": {"highway": "bus_stop", "name": "Abzweigung Nauders - Bivio Nauders", "name:de": "Abzweigung Nauders", "name:it": "Bivio Nauders", "public_transport": "platform"}}, {"type": "node", "id": 757294458, "lat": 46.7810701, "lon": 11.6887667, "tags": {"highway": "bus_stop", "name": "Gewerbezone Bergis", "name:de": "Gewerbezone Bergis", "public_transport": "platform"}}, {"type": "node", "id": 757294505, "lat": 46.7788349, "lon": 11.6903785, "tags": {"bench": "yes", "bin": "yes", "covered": "yes", "highway": "bus_stop", "lit": "yes", "name": "Vill, Feuerwehr - Villa, Vigili del Fuoco", "name:de": "Vill, Feuerwehr", "name:it": "Villa, Vigili del Fuoco", "public_transport": "platform", "shelter": "yes", "tactile_paving": "no"}}, {"type": "node", "id": 758567023, "lat": 46.7486514, "lon": 11.7510114, "tags": {"highway": "bus_stop", "name": "Huben - Masi", "name:de": "Huben", "name:it": "Masi", "public_transport": "platform"}}, {"type": "node", "id": 758567069, "lat": 46.7489506, "lon": 11.7507392, "tags": {"highway": "bus_stop", "name": "Huben - Masi", "name:de": "Huben", "name:it": "Masi", "public_transport": "platform"}}, {"type": "node", "id": 863148936, "lat": 46.8113478, "lon": 11.7677967, "tags": {"highway": "bus_stop", "name": "D\u00f6rfl - Villetta", "name:de": "D\u00f6rfl", "name:it": "Villetta", "public_transport": "platform", "shelter": "yes"}}, {"type": "node", "id": 863149081, "lat": 46.8158887, "lon": 11.7356761, "tags": {"highway": "bus_stop", "name": "Lodenwelt", "name:de": "Lodenwelt", "public_transport": "platform", "shelter": "yes"}}, {"type": "node", "id": 864589612, "lat": 46.8112937, "lon": 11.8026316, "tags": {"highway": "bus_stop", "name": "Sankt Sigmund - San Sigismondo", "name:de": "Sankt Sigmund", "name:it": "San Sigismondo", "public_transport": "platform"}}, {"type": "node", "id": 864590579, "lat": 46.8081851, "lon": 11.8120933, "tags": {"highway": "bus_stop", "name": "Gisse", "name:de": "Gisse", "public_transport": "platform"}}, {"type": "node", "id": 864593263, "lat": 46.8060936, "lon": 11.8358608, "tags": {"bench": "yes", "bin": "no", "covered": "no", "highway": "bus_stop", "name": "Kiens, Zentrum A - Chienes, Centro A", "name:de": "Kiens, Zentrum A", "name:it": "Chienes, Centro A", "public_transport": "platform", "ref": "A", "ref:IFOPT": "it:22021:1185:0:7036", "shelter": "no", "tactile_paving": "no"}}, {"type": "node", "id": 864594374, "lat": 46.8019595, "lon": 11.844888, "tags": {"bench": "yes", "bin": "yes", "highway": "bus_stop", "lit": "no", "name": "Abzweigung Ehrenburg - Bivio Casteldarne", "name:de": "Abzweigung Ehrenburg", "name:it": "Bivio Casteldarne", "public_transport": "platform", "shelter": "yes", "tactile_paving": "no"}}, {"type": "node", "id": 864600030, "lat": 46.81541, "lon": 11.723573, "tags": {"bench": "yes", "bin": "yes", "bus": "yes", "highway": "bus_stop", "lit": "no", "name": "Vintl, Bahnhof B - Vandoies, Stazione B", "name:de": "Vintl, Bahnhof B", "name:it": "Vandoies, Stazione B", "public_transport": "platform", "ref": "1179", "ref:IFOPT": "it:22021:1179:2:7023", "shelter": "yes", "tactile_paving": "no"}}, {"type": "node", "id": 893409705, "lat": 46.8971481, "lon": 11.702192, "tags": {"bench": "yes", "bin": "no", "direction": "both", "highway": "bus_stop", "name": "Pfunders, L\u00e4rcher - Fundres, L\u00e4rcher", "name:de": "Pfunders, L\u00e4rcher", "name:it": "Fundres, L\u00e4rcher", "public_transport": "platform", "shelter": "yes"}}, {"type": "node", "id": 931620498, "lat": 46.9694802, "lon": 11.9290307, "tags": {"bench": "yes", "bin": "no", "highway": "bus_stop", "lit": "no", "name": "Arzbach", "name:de": "Arzbach", "public_transport": "platform", "shelter": "yes", "tactile_paving": "no"}}, {"type": "node", "id": 939103963, "lat": 46.8554728, "lon": 11.5144482, "tags": {"bench": "yes", "bin": "yes", "highway": "bus_stop", "lit": "no", "name": "Br\u00fccke Pfulters - Ponte Fuldres", "name:de": "Br\u00fccke Pfulters", "name:it": "Ponte Fuldres", "public_transport": "platform", "shelter": "yes", "tactile_paving": "no"}}, {"type": "node", "id": 939103980, "lat": 46.855697, "lon": 11.5136459, "tags": {"bench": "yes", "bin": "yes", "highway": "bus_stop", "lit": "no", "name": "Br\u00fccke Pfulters - Ponte Fuldres", "name:de": "Br\u00fccke Pfulters", "name:it": "Ponte Fuldres", "public_transport": "platform", "shelter": "yes", "tactile_paving": "no"}}, {"type": "node", "id": 939104002, "lat": 46.8716945, "lon": 11.4850037, "tags": {"bench": "yes", "bin": "yes", "highway": "bus_stop", "name": "Freienfeld, Kreisverkehr - Campo di Trens, Rotatoria", "name:de": "Freienfeld, Kreisverkehr", "name:it": "Campo di Trens, Rotatoria", "public_transport": "platform", "shelter": "yes", "tactile_paving": "no"}}, {"type": "node", "id": 946869066, "lat": 46.7498621, "lon": 11.65905, "tags": {"bench": "yes", "bin": "yes", "covered": "yes", "highway": "bus_stop", "lit": "yes", "name": "Raas - Rasa", "name:de": "Raas", "name:it": "Rasa", "public_transport": "platform", "shelter": "yes", "tactile_paving": "no"}}, {"type": "node", "id": 1224537755, "lat": 46.8156932, "lon": 11.7373089, "tags": {"highway": "bus_stop", "name": "Lodenwelt", "name:de": "Lodenwelt", "public_transport": "platform", "shelter": "yes"}}, {"type": "node", "id": 1224537969, "lat": 46.8109332, "lon": 11.8032174, "tags": {"bench": "yes", "bin": "yes", "highway": "bus_stop", "lit": "no", "name": "Sankt Sigmund - San Sigismondo", "name:de": "Sankt Sigmund", "name:it": "San Sigismondo", "public_transport": "platform", "shelter": "yes", "tactile_paving": "no"}}, {"type": "node", "id": 1224538069, "lat": 46.7830294, "lon": 11.6693848, "tags": {"bench": "no", "bin": "no", "highway": "bus_stop", "lit": "no", "name": "Putzerhof", "name:de": "Putzerhof", "public_transport": "platform", "shelter": "no", "tactile_paving": "no"}}, {"type": "node", "id": 1224538078, "lat": 46.8114491, "lon": 11.7661783, "tags": {"highway": "bus_stop", "name": "D\u00f6rfl - Villetta", "name:de": "D\u00f6rfl", "name:it": "Villetta", "public_transport": "platform", "shelter": "yes"}}, {"type": "node", "id": 1224538093, "lat": 46.7827607, "lon": 11.669268, "tags": {"bench": "yes", "bin": "yes", "highway": "bus_stop", "lit": "yes", "name": "Putzerhof", "name:de": "Putzerhof", "public_transport": "platform", "shelter": "yes", "tactile_paving": "no"}}, {"type": "node", "id": 1224538126, "lat": 46.8153127, "lon": 11.7238645, "tags": {"bench": "yes", "bin": "yes", "bus": "yes", "check_date:shelter": "2025-10-14", "highway": "bus_stop", "lit": "no", "name": "Vintl, Bahnhof - Vandoies, Stazione", "name:de": "Vintl, Bahnhof", "name:it": "Vandoies, Stazione", "public_transport": "platform", "ref": "1179", "shelter": "yes", "tactile_paving": "no"}}, {"type": "node", "id": 1224538139, "lat": 46.8082849, "lon": 11.8126444, "tags": {"bench": "no", "bin": "no", "highway": "bus_stop", "name": "Gisse", "name:de": "Gisse", "public_transport": "platform", "shelter": "no"}}, {"type": "node", "id": 1234527112, "lat": 46.7853051, "lon": 11.9092793, "tags": {"bench": "yes", "bin": "no", "bus": "yes", "highway": "bus_stop", "name": "Sankt Lorenzen, Heilig Kreuz - San Lorenzo, Santa Croce", "name:de": "Sankt Lorenzen, Heilig Kreuz", "name:it": "San Lorenzo, Santa Croce", "public_transport": "platform", "shelter": "yes"}}, {"type": "node", "id": 1234527114, "lat": 46.784379, "lon": 11.8954777, "tags": {"bus": "yes", "highway": "bus_stop", "name": "Sankt Lorenzen, Sonnenburg - San Lorenzo, Castel Badia", "name:de": "Sankt Lorenzen, Sonnenburg", "name:it": "San Lorenzo, Castel Badia", "public_transport": "platform"}}, {"type": "node", "id": 1234527118, "lat": 46.7854797, "lon": 11.910423, "tags": {"bench": "yes", "bus": "yes", "highway": "bus_stop", "name": "Sankt Lorenzen, Heilig Kreuz - San Lorenzo, Santa Croce", "name:de": "Sankt Lorenzen, Heilig Kreuz", "name:it": "San Lorenzo, Santa Croce", "public_transport": "platform", "shelter": "yes"}}, {"type": "node", "id": 1234527119, "lat": 46.8022199, "lon": 11.8448701, "tags": {"highway": "bus_stop", "name": "Abzweigung Ehrenburg - Bivio Casteldarne", "name:de": "Abzweigung Ehrenburg", "name:it": "Bivio Casteldarne", "public_transport": "platform", "shelter": "yes"}}, {"type": "node", "id": 1234527121, "lat": 46.784418, "lon": 11.8962033, "tags": {"bench": "yes", "bin": "no", "bus": "yes", "highway": "bus_stop", "name": "Sankt Lorenzen, Sonnenburg - San Lorenzo, Castel Badia", "name:de": "Sankt Lorenzen, Sonnenburg", "name:it": "San Lorenzo, Castel Badia", "public_transport": "platform", "shelter": "yes"}}, {"type": "node", "id": 1234527123, "lat": 46.8064638, "lon": 11.8354628, "tags": {"bench": "yes", "bin": "yes", "covered": "yes", "highway": "bus_stop", "name": "Kiens, Zentrum B - Chienes, Centro B", "name:de": "Kiens, Zentrum B", "name:it": "Chienes, Centro B", "public_transport": "platform", "ref:IFOPT": "it:22021:1185:0:7035", "shelter": "yes", "tactile_paving": "no"}}, {"type": "node", "id": 1388893121, "lat": 46.7549743, "lon": 11.6819421, "tags": {"bench": "yes", "bin": "no", "highway": "bus_stop", "lit": "yes", "name": "Vereinshaus - Casa della Cultura", "name:de": "Vereinshaus", "public_transport": "platform", "shelter": "yes", "tactile_paving": "no"}}, {"type": "node", "id": 1388893285, "lat": 46.7634322, "lon": 11.6839151, "tags": {"bench": "yes", "highway": "bus_stop", "name": "Viums, Oberdorf - Fiumes, Oberdorf", "name:de": "Viums, Oberdorf", "name:it": "Fiumes, Oberdorf", "public_transport": "platform", "shelter": "no"}}, {"type": "node", "id": 1388893291, "lat": 46.763618, "lon": 11.684028, "tags": {"bench": "yes", "bin": "yes", "highway": "bus_stop", "lit": "yes", "name": "Viums, Oberdorf - Fiumes, Oberdorf", "name:de": "Viums, Oberdorf", "name:it": "Fiumes, Oberdorf", "public_transport": "platform", "shelter": "yes", "tactile_paving": "no"}}, {"type": "node", "id": 1388893386, "lat": 46.764484, "lon": 11.6824267, "tags": {"bench": "no", "highway": "bus_stop", "name": "Viums, Kirche - Fiumes, Chiesa", "name:de": "Viums, Kirche", "name:it": "Fiumes, Chiesa", "public_transport": "platform", "shelter": "no", "tactile_paving": "no"}}, {"type": "node", "id": 1388893389, "lat": 46.7646193, "lon": 11.6824649, "tags": {"bench": "yes", "covered": "yes", "highway": "bus_stop", "name": "Viums, Kirche - Fiumes, Chiesa", "name:de": "Viums, Kirche", "name:it": "Fiumes, Chiesa", "passenger_information_display": "yes", "public_transport": "platform", "route_ref": "328", "shelter": "yes", "tactile_paving": "no"}}, {"type": "node", "id": 1405563443, "lat": 46.8426813, "lon": 11.6244711, "tags": {"bench": "yes", "bin": "yes", "bus": "yes", "highway": "bus_stop", "lit": "yes", "name": "Vals, Alpenrose", "name:de": "Vals, Alpenrose", "public_transport": "platform", "shelter": "yes", "tactile_paving": "no"}}, {"type": "node", "id": 1405563458, "lat": 46.8510382, "lon": 11.6217807, "tags": {"bench": "yes", "bin": "no", "covered": "yes", "highway": "bus_stop", "name": "Kabinenbahn Jochtal - Cabinovia Jochtal", "name:de": "Kabinenbahn Jochtal", "name:it": "Cabinovia Jochtal", "public_transport": "platform", "shelter": "yes", "tactile_paving": "no"}}, {"type": "node", "id": 1449040179, "lat": 46.8665295, "lon": 11.4981638, "tags": {"bench": "no", "bin": "no", "highway": "bus_stop", "name": "Abzweigung Valgen\u00e4un - Bivio Valgenauna", "name:de": "Abzweigung Valgen\u00e4un", "name:it": "Bivio Valgenauna", "public_transport": "platform", "shelter": "no"}}, {"type": "node", "id": 1449040180, "lat": 46.8666649, "lon": 11.498249, "tags": {"bench": "yes", "bin": "no", "highway": "bus_stop", "name": "Abzweigung Valgen\u00e4un - Bivio Valgenauna", "name:de": "Abzweigung Valgen\u00e4un", "name:it": "Bivio Valgenauna", "public_transport": "platform", "shelter": "yes"}}, {"type": "node", "id": 1545933237, "lat": 46.773077, "lon": 11.6649871, "tags": {"bench": "yes", "bin": "yes", "bus": "yes", "highway": "bus_stop", "lit": "yes", "name": "Schabs, Peintnerhof - Sciaves, Peintnerhof", "name:de": "Schabs, Peintnerhof", "name:it": "Sciaves, Peintnerhof", "passenger_information_display": "yes", "public_transport": "platform", "shelter": "yes", "tactile_paving": "no"}}, {"type": "node", "id": 1545933269, "lat": 46.781722, "lon": 11.8911796, "tags": {"highway": "bus_stop", "name": "Pflaurenz - Floronzo", "name:de": "Pflaurenz", "name:it": "Floronzo", "public_transport": "platform"}}, {"type": "node", "id": 1559871608, "lat": 46.8158137, "lon": 11.9326376, "tags": {"highway": "bus_stop", "name": "Sankt Georgen, Kirche - San Giorgio, Chiesa", "name:de": "Sankt Georgen, Kirche", "name:it": "San Giorgio, Chiesa", "public_transport": "platform", "shelter": "no"}}, {"type": "node", "id": 1559871610, "lat": 46.8135961, "lon": 11.934816, "tags": {"bench": "no", "bin": "no", "bus": "yes", "departures_board": "timetable", "highway": "bus_stop", "level": "0", "lit": "no", "name": "Sankt Georgen, Mitte - San Giorgio, Centro", "name:de": "Sankt Georgen, Mitte", "name:it": "San Giorgio, Centro", "public_transport": "platform", "shelter": "no", "tactile_paving": "no"}}, {"type": "node", "id": 1559871611, "lat": 46.7992212, "lon": 11.9367904, "tags": {"bus": "yes", "highway": "bus_stop", "name": "Bruneck, Krankenhaus Toldtstra\u00dfe - Brunico, Ospedale Via Toldt", "name:de": "Bruneck, Krankenhaus Toldtstra\u00dfe", "name:it": "Brunico, Ospedale Via Toldt", "public_transport": "platform"}}, {"type": "node", "id": 1559871615, "lat": 46.8190624, "lon": 11.9324231, "tags": {"highway": "bus_stop", "name": "Sankt Georgen, In der Lahn - San Giorgio, In der Lahn", "name:de": "Sankt Georgen, In der Lahn", "name:it": "San Giorgio, In der Lahn", "public_transport": "platform", "shelter": "no"}}, {"type": "node", "id": 1559871616, "lat": 46.8123822, "lon": 11.9338805, "tags": {"bus": "yes", "departures_board": "timetable", "highway": "bus_stop", "name": "Sankt Georgen, Gremsenstra\u00dfe - San Giorgio, Via Gremsen", "name:de": "Sankt Georgen, Gremsenstra\u00dfe", "name:it": "San Giorgio, Via Gremsen", "public_transport": "platform", "shelter": "yes"}}, {"type": "node", "id": 1559871617, "lat": 46.8180824, "lon": 11.9305349, "tags": {"highway": "bus_stop", "name": "Sankt Georgen, Vereinshaus - San Giorgio, Casa delle Associazioni", "name:de": "Sankt Georgen, Vereinshaus", "name:it": "San Giorgio, Casa delle Associazioni", "public_transport": "platform", "shelter": "yes"}}, {"type": "node", "id": 1563493916, "lat": 46.9382612, "lon": 11.4416602, "tags": {"bench": "no", "bin": "no", "highway": "bus_stop", "lit": "yes", "name": "Gossensass, Bahnhof - Colle Isarco, Stazione", "name:de": "Gossensass, Bahnhof", "name:it": "Colle Isarco, Stazione", "public_transport": "platform", "shelter": "no", "tactile_paving": "no"}}, {"type": "node", "id": 1577077332, "lat": 46.8175675, "lon": 11.7073728, "tags": {"highway": "bus_stop", "name": "Haslach", "name:de": "Haslach", "public_transport": "platform"}}, {"type": "node", "id": 1577077338, "lat": 46.8204727, "lon": 11.7637386, "tags": {"highway": "bus_stop", "name": "Pirgstaller", "name:de": "Pirgstaller", "public_transport": "platform"}}, {"type": "node", "id": 1577077344, "lat": 46.8280932, "lon": 11.7698786, "tags": {"highway": "bus_stop", "name": "Ziener", "name:de": "Ziener", "public_transport": "platform"}}, {"type": "node", "id": 1577077345, "lat": 46.8280623, "lon": 11.7709222, "tags": {"highway": "bus_stop", "name": "Ziener", "name:de": "Ziener", "public_transport": "platform"}}, {"type": "node", "id": 1577077349, "lat": 46.820488, "lon": 11.7635607, "tags": {"highway": "bus_stop", "name": "Pirgstaller", "name:de": "Pirgstaller", "public_transport": "platform"}}, {"type": "node", "id": 1577077351, "lat": 46.8299281, "lon": 11.7789531, "tags": {"bench": "no", "bin": "no", "highway": "bus_stop", "lit": "no", "name": "Terenten, Wiedenhofer - Terento, Wiedenhofer", "name:de": "Terenten, Wiedenhofer", "name:it": "Terento, Wiedenhofer", "public_transport": "platform", "shelter": "no", "tactile_paving": "no"}}, {"type": "node", "id": 1577077357, "lat": 46.8177926, "lon": 11.7089404, "tags": {"bench": "no", "bin": "no", "highway": "bus_stop", "lit": "no", "name": "Haslach", "name:de": "Haslach", "public_transport": "platform", "shelter": "no", "tactile_paving": "no"}}, {"type": "node", "id": 1577077362, "lat": 46.8253761, "lon": 11.7685605, "tags": {"highway": "bus_stop", "name": "Gfaller", "name:de": "Gfaller", "public_transport": "platform"}}, {"type": "node", "id": 1577077365, "lat": 46.8254442, "lon": 11.7687207, "tags": {"highway": "bus_stop", "name": "Gfaller", "name:de": "Gfaller", "public_transport": "platform"}}, {"type": "node", "id": 1598230036, "lat": 46.8086261, "lon": 11.883436, "tags": {"bench": "yes", "bin": "no", "bus": "yes", "highway": "bus_stop", "lit": "yes", "name": "Abzweigung Pfalzen Dorf - Bivio Falzes Paese", "name:de": "Abzweigung Pfalzen Dorf", "name:it": "Bivio Falzes Paese", "public_transport": "platform", "shelter": "no", "tactile_paving": "no"}}, {"type": "node", "id": 1606670875, "lat": 46.7889942, "lon": 11.868808, "tags": {"bench": "no", "bin": "no", "bus": "yes", "highway": "bus_stop", "lit": "no", "name": "Kniepass - La Serra", "name:de": "Kniepass", "name:it": "La Serra", "public_transport": "platform", "shelter": "no", "tactile_paving": "no"}}, {"type": "node", "id": 1606670876, "lat": 46.7896824, "lon": 11.8673007, "tags": {"bench": "no", "bin": "no", "bus": "yes", "highway": "bus_stop", "name": "Kniepass - La Serra", "name:de": "Kniepass", "name:it": "La Serra", "public_transport": "platform", "shelter": "no"}}, {"type": "node", "id": 1611120668, "lat": 46.7866862, "lon": 11.9153035, "tags": {"bench": "yes", "bin": "no", "highway": "bus_stop", "lit": "yes", "name": "Industriezone Sankt Lorenzen - Zona Industriale San Lorenzo", "name:de": "Industriezone Sankt Lorenzen", "name:it": "Zona Industriale San Lorenzo", "public_transport": "platform", "shelter": "no", "tactile_paving": "no"}}, {"type": "node", "id": 1611121438, "lat": 46.7875824, "lon": 11.9192583, "tags": {"highway": "bus_stop", "name": "Industriezone Sankt Lorenzen - Zona Industriale San Lorenzo", "name:de": "Industriezone Sankt Lorenzen", "name:it": "Zona Industriale San Lorenzo", "public_transport": "platform"}}, {"type": "node", "id": 1611121556, "lat": 46.7875404, "lon": 11.9207743, "tags": {"bench": "no", "bin": "no", "highway": "bus_stop", "lit": "no", "name": "Bruneck, Industriezone West - Brunico, Zona Industriale Ovest", "name:de": "Bruneck, Industriezone West", "name:it": "Brunico, Zona Industriale Ovest", "public_transport": "platform", "shelter": "no", "tactile_paving": "no"}}, {"type": "node", "id": 1611121601, "lat": 46.7880034, "lon": 11.9226578, "tags": {"highway": "bus_stop", "name": "Bruneck, Industriezone West - Brunico, Zona Industriale Ovest", "name:de": "Bruneck, Industriezone West", "name:it": "Brunico, Zona Industriale Ovest", "public_transport": "platform"}}, {"type": "node", "id": 1619052280, "lat": 46.8371714, "lon": 11.9444622, "tags": {"bench": "yes", "bin": "no", "highway": "bus_stop", "lit": "no", "name": "Gais, Kreisverkehr - Gais, Rotatoria", "name:de": "Gais, Kreisverkehr", "name:it": "Gais, Rotatoria", "public_transport": "platform", "shelter": "yes", "tactile_paving": "no"}}, {"type": "node", "id": 1619052289, "lat": 46.8372316, "lon": 11.9442736, "tags": {"bench": "yes", "bin": "no", "highway": "bus_stop", "lit": "no", "name": "Gais, Kreisverkehr - Gais, Rotatoria", "name:de": "Gais, Kreisverkehr", "name:it": "Gais, Rotatoria", "public_transport": "platform", "shelter": "yes", "tactile_paving": "no"}}, {"type": "node", "id": 1622722582, "lat": 46.7924594, "lon": 11.9301892, "tags": {"bench": "no", "bin": "no", "bus": "yes", "highway": "bus_stop", "name": "Bruneck, Sankt-Lorenzner-Stra\u00dfe - Brunico, Via San Lorenzo", "name:de": "Bruneck, Sankt-Lorenzner-Stra\u00dfe", "name:it": "Brunico, Via San Lorenzo", "public_transport": "platform", "shelter": "no", "tactile_paving": "no"}}, {"type": "node", "id": 1622722751, "lat": 46.7925825, "lon": 11.9300268, "tags": {"bus": "yes", "highway": "bus_stop", "name": "Bruneck, Sankt-Lorenzner-Stra\u00dfe - Brunico, Via San Lorenzo", "name:de": "Bruneck, Sankt-Lorenzner-Stra\u00dfe", "name:it": "Brunico, Via San Lorenzo", "public_transport": "platform"}}, {"type": "node", "id": 1644318064, "lat": 46.7964408, "lon": 11.9222034, "tags": {"highway": "bus_stop", "name": "Stegen Br\u00fccke - Ponte di Stegona", "name:de": "Stegen Br\u00fccke", "name:it": "Ponte di Stegona", "public_transport": "platform"}}, {"type": "node", "id": 1644318067, "lat": 46.7965428, "lon": 11.9224255, "tags": {"highway": "bus_stop", "name": "Stegen Br\u00fccke - Ponte di Stegona", "name:de": "Stegen Br\u00fccke", "name:it": "Ponte di Stegona", "public_transport": "platform"}}, {"type": "node", "id": 1675562890, "lat": 47.0028054, "lon": 11.5049695, "tags": {"bench": "no", "bin": "no", "bus": "yes", "highway": "bus_stop", "lit": "yes", "name": "Brenner, Bahnhof - Brennero, Stazione", "name:de": "Brenner, Bahnhof", "name:it": "Brennero, Stazione", "public_transport": "platform", "shelter": "no", "tactile_paving": "no"}}, {"type": "node", "id": 1817632115, "lat": 46.8154683, "lon": 11.9354647, "tags": {"bench": "no", "bin": "no", "highway": "bus_stop", "lit": "no", "name": "Sankt Georgen, Kehlburgweg - San Giorgio, Via Kehlburg", "name:de": "Sankt Georgen, Kehlburgweg", "name:it": "San Giorgio, Via Kehlburg", "public_transport": "platform", "shelter": "no", "tactile_paving": "no"}}, {"type": "node", "id": 1842439239, "lat": 46.8096824, "lon": 11.9357165, "tags": {"bench": "no", "bin": "no", "highway": "bus_stop", "name": "Sankt Georgen, Fischerweg - San Giorgio, Via dei Pescatori", "name:de": "Sankt Georgen, Fischerweg", "name:it": "San Giorgio, Via dei Pescatori", "public_transport": "platform", "shelter": "no"}}, {"type": "node", "id": 1854457965, "lat": 46.8302658, "lon": 11.7903686, "tags": {"highway": "bus_stop", "name": "Neuwirt", "name:de": "Neuwirt", "public_transport": "platform"}}, {"type": "node", "id": 1854457969, "lat": 46.830324, "lon": 11.7899506, "tags": {"highway": "bus_stop", "name": "Neuwirt", "name:de": "Neuwirt", "public_transport": "platform"}}, {"type": "node", "id": 1854457971, "lat": 46.8305887, "lon": 11.7747045, "tags": {"highway": "bus_stop", "name": "Terentner Hof", "public_transport": "platform"}}, {"type": "node", "id": 1854457975, "lat": 46.8306507, "lon": 11.7745179, "tags": {"highway": "bus_stop", "name": "Terentner Hof", "public_transport": "platform"}}, {"type": "node", "id": 1980021595, "lat": 46.7692681, "lon": 11.6645566, "tags": {"bench": "yes", "bin": "no", "covered": "yes", "highway": "bus_stop", "lit": "yes", "name": "Schabs, Apotheke - Sciaves, Farmacia", "name:de": "Schabs, Apotheke", "name:it": "Sciaves, Farmacia", "passenger_information_display": "yes", "public_transport": "platform", "shelter": "yes", "tactile_paving": "no"}}, {"type": "node", "id": 1980021608, "lat": 46.769315, "lon": 11.6643711, "tags": {"bench": "yes", "bin": "no", "covered": "yes", "highway": "bus_stop", "lit": "yes", "name": "Schabs, Apotheke - Sciaves, Farmacia", "name:de": "Schabs, Apotheke", "name:it": "Sciaves, Farmacia", "public_transport": "platform", "shelter": "yes", "tactile_paving": "no"}}, {"type": "node", "id": 1992396051, "lat": 46.9366498, "lon": 11.4453343, "tags": {"bench": "no", "highway": "bus_stop", "lit": "yes", "name": "Gossensass, Dorf - Colle Isarco, Paese", "name:de": "Gossensass, Dorf", "name:it": "Colle Isarco, Paese", "public_transport": "platform", "shelter": "no", "tactile_paving": "no"}}, {"type": "node", "id": 1992396061, "lat": 46.9375039, "lon": 11.4447133, "tags": {"bench": "yes", "bin": "yes", "highway": "bus_stop", "lit": "yes", "name": "Gossensass, Dorf - Colle Isarco, Paese", "name:de": "Gossensass, Dorf", "name:it": "Colle Isarco, Paese", "public_transport": "platform", "shelter": "yes", "tactile_paving": "no"}}, {"type": "node", "id": 2038685179, "lat": 46.7831108, "lon": 11.9023985, "tags": {"bench": "yes", "bin": "yes", "bus": "yes", "highway": "bus_stop", "lit": "yes", "name": "St. Lorenzen, Kirche - S. Lorenzo, Chiesa", "name:de": "St. Lorenzen, Kirche", "name:it": "S. Lorenzo, Chiesa", "public_transport": "platform", "shelter": "yes", "tactile_paving": "no"}}, {"type": "node", "id": 2133321818, "lat": 46.7961287, "lon": 11.9363832, "tags": {"bench": "yes", "bin": "no", "highway": "bus_stop", "lit": "yes", "name": "Bruneck, Rathaus - Brunico, Municipio", "name:de": "Bruneck, Rathaus", "name:it": "Brunico, Municipio", "public_transport": "platform", "shelter": "yes", "tactile_paving": "no"}}, {"type": "node", "id": 2151483017, "lat": 46.8716264, "lon": 11.4869662, "tags": {"bench": "yes", "bin": "yes", "highway": "bus_stop", "lit": "yes", "name": "Freienfeld, Kreisverkehr - Campo di Trens, Rotatoria", "name:de": "Freienfeld, Kreisverkehr", "name:it": "Campo di Trens, Rotatoria", "public_transport": "platform", "shelter": "yes", "tactile_paving": "no"}}, {"type": "node", "id": 2151484270, "lat": 46.8758496, "lon": 11.4799385, "tags": {"bus": "yes", "highway": "bus_stop", "name": "Abzweigung Trens - Bivio Trens", "name:de": "Abzweigung Trens", "name:it": "Bivio Trens", "public_transport": "platform", "shelter": "yes"}}, {"type": "node", "id": 2151484628, "lat": 46.8755388, "lon": 11.4803282, "tags": {"bench": "yes", "bin": "no", "bus": "yes", "check_date:shelter": "2025-09-12", "highway": "bus_stop", "name": "Abzweigung Trens - Bivio Trens", "name:de": "Abzweigung Trens", "name:it": "Bivio Trens", "public_transport": "platform", "shelter": "yes"}}, {"type": "node", "id": 2151485865, "lat": 46.8778023, "lon": 11.4737713, "tags": {"highway": "bus_stop", "public_transport": "platform"}}, {"type": "node", "id": 2151486463, "lat": 46.8811723, "lon": 11.4594797, "tags": {"bus": "yes", "highway": "bus_stop", "name": "Sprechenstein - Castelpietra", "name:de": "Sprechenstein", "name:it": "Castelpietra", "public_transport": "platform", "shelter": "yes"}}, {"type": "node", "id": 2151486998, "lat": 46.8814585, "lon": 11.4593863, "tags": {"bench": "no", "bin": "no", "bus": "yes", "highway": "bus_stop", "lit": "no", "name": "Sprechenstein - Castelpietra", "name:de": "Sprechenstein", "name:it": "Collepietra", "public_transport": "platform", "shelter": "no", "tactile_paving": "no"}}, {"type": "node", "id": 2151487708, "lat": 46.8830254, "lon": 11.4482625, "tags": {"highway": "bus_stop", "name": "Abzweigung Elzenbaum - Bivio Pruno", "name:de": "Abzweigung Elzenbaum", "name:it": "Bivio Pruno", "public_transport": "platform"}}, {"type": "node", "id": 2151488365, "lat": 46.8822359, "lon": 11.4499415, "tags": {"highway": "bus_stop", "name": "Abzweigung Elzenbaum - Bivio Pruno", "name:de": "Abzweigung Elzenbaum", "name:it": "Bivio Pruno", "public_transport": "platform"}}, {"type": "node", "id": 2197624215, "lat": 46.9146118, "lon": 11.5183554, "tags": {"bus": "yes", "highway": "bus_stop", "name": "Abzweigung Obertulfer - Bivio Tulve di Sopra", "name:de": "Abzweigung Obertulfer", "name:it": "Bivio Tulve di Sopra", "public_transport": "platform"}}, {"type": "node", "id": 2326445212, "lat": 46.8301372, "lon": 11.7793271, "tags": {"highway": "bus_stop", "name": "Terenten, Wiedenhofer - Terento, Wiedenhofer", "name:de": "Terenten, Wiedenhofer", "name:it": "Terento, Wiedenhofer", "public_transport": "platform"}}, {"type": "node", "id": 2328413443, "lat": 46.8021792, "lon": 11.9048743, "tags": {"highway": "bus_stop", "name": "Abzweigung Breitenberg - Bivio Montelargo", "name:de": "Abzweigung Breitenberg", "name:it": "Bivio Montelargo", "public_transport": "platform"}}, {"type": "node", "id": 2328413557, "lat": 46.8115012, "lon": 11.8830508, "tags": {"bench": "yes", "bin": "yes", "bus": "yes", "departures_board": "yes", "highway": "bus_stop", "lit": "yes", "name": "Pfalzen, Rathaus - Falzes, Municipio", "name:de": "Pfalzen, Rathaus", "name:it": "Falzes, Municipio", "operator": "\u00d6ffentlich", "public_transport": "platform", "shelter": "yes", "tactile_paving": "no"}}, {"type": "node", "id": 2328413564, "lat": 46.8164002, "lon": 11.8614733, "tags": {"highway": "bus_stop", "name": "Issing, Pfalzner Stra\u00dfe - Issengo, Via Falzes", "name:de": "Issing, Pfalzner Stra\u00dfe", "name:it": "Issengo, Via Falzes", "public_transport": "platform"}}, {"type": "node", "id": 2328413573, "lat": 46.8172349, "lon": 11.8377701, "tags": {"highway": "bus_stop", "name": "Unterhofern - Corti di Sotto", "name:de": "Unterhofern", "name:it": "Corti di Sotto", "public_transport": "platform"}}, {"type": "node", "id": 2328413574, "lat": 46.8206221, "lon": 11.8388021, "tags": {"highway": "bus_stop", "name": "Hofern - Corti", "name:de": "Hofern", "name:it": "Corti", "public_transport": "platform"}}, {"type": "node", "id": 2328413575, "lat": 46.8275351, "lon": 11.8058945, "tags": {"highway": "bus_stop", "name": "Pichlern, Schnurrer - Colli in Pusteria, Schnurrer", "name:de": "Pichlern, Schnurrer", "name:it": "Colli in Pusteria, Schnurrer", "public_transport": "platform"}}, {"type": "node", "id": 2328414091, "lat": 46.8324546, "lon": 11.767865, "tags": {"highway": "bus_stop", "name": "Pilling", "name:de": "Pilling", "public_transport": "platform"}}, {"type": "node", "id": 2328414150, "lat": 46.8375973, "lon": 11.7554619, "tags": {"direction": "both", "highway": "bus_stop", "name": "Margen - Marga", "name:de": "Margen", "name:it": "Marga", "public_transport": "platform"}}, {"type": "node", "id": 2328414246, "lat": 46.8337666, "lon": 11.7611114, "tags": {"highway": "bus_stop", "name": "Hohenb\u00fchl - Collalto", "name:de": "Hohenb\u00fchl", "name:it": "Collalto", "public_transport": "platform"}}, {"type": "node", "id": 2328414478, "lat": 46.8334367, "lon": 11.7654128, "tags": {"highway": "bus_stop", "name": "Abzweigung Sonnberg - Bivio Sonnberg", "name:de": "Abzweigung Sonnberg", "name:it": "Bivio Sonnberg", "public_transport": "platform"}}, {"type": "node", "id": 2331859833, "lat": 46.8288344, "lon": 11.7968504, "tags": {"highway": "bus_stop", "name": "Winnebach", "name:de": "Winnebach", "public_transport": "platform"}}, {"type": "node", "id": 2331859834, "lat": 46.8271453, "lon": 11.810324, "tags": {"highway": "bus_stop", "name": "Pichlern, Niederhof", "name:de": "Pichlern, Niederhof", "public_transport": "platform"}}, {"type": "node", "id": 2331859843, "lat": 46.8292643, "lon": 11.8230433, "tags": {"highway": "bus_stop", "name": "Rieder", "name:de": "Rieder", "public_transport": "platform"}}, {"type": "node", "id": 2331859950, "lat": 46.8040207, "lon": 11.8987452, "tags": {"bus": "yes", "highway": "bus_stop", "name": "Kronbichl", "name:de": "Kronbichl", "public_transport": "platform", "shelter": "no"}}, {"type": "node", "id": 2331859951, "lat": 46.8033726, "lon": 11.8998295, "tags": {"highway": "bus_stop", "name": "Kronbichl", "name:de": "Kronbichl", "public_transport": "platform"}}, {"type": "node", "id": 2331859952, "lat": 46.8048492, "lon": 11.9110766, "tags": {"highway": "bus_stop", "name": "Abzweigung Greinwalden - Bivio Grimaldo", "name:de": "Abzweigung Greinwalden", "name:it": "Bivio Grimaldo", "public_transport": "platform"}}, {"type": "node", "id": 2331860081, "lat": 46.8183162, "lon": 11.8486394, "tags": {"highway": "bus_stop", "name": "M\u00fchlen - Molini", "name:de": "M\u00fchlen", "name:it": "Molini", "public_transport": "platform"}}, {"type": "node", "id": 2331860082, "lat": 46.8190298, "lon": 11.848198, "tags": {"highway": "bus_stop", "name": "M\u00fchlen - Molini", "name:de": "M\u00fchlen", "name:it": "Molini", "public_transport": "platform", "shelter": "yes"}}, {"type": "node", "id": 2331860227, "lat": 46.800013, "lon": 11.9384625, "tags": {"bench": "yes", "bin": "no", "bus": "yes", "highway": "bus_stop", "lit": "yes", "name": "Bruneck, Krankenhaus Hoferstra\u00dfe - Brunico, Ospedale Via Hofer", "name:de": "Bruneck, Krankenhaus Hoferstra\u00dfe", "name:it": "Brunico, Ospedale Via Hofer", "public_transport": "platform", "shelter": "no", "tactile_paving": "no"}}, {"type": "node", "id": 2331860303, "lat": 46.7995392, "lon": 11.9386132, "tags": {"bench": "yes", "bin": "yes", "bus": "yes", "highway": "bus_stop", "lit": "no", "name": "Bruneck, Krankenhaus Hoferstra\u00dfe - Brunico, Ospedale Via Hofer", "name:de": "Bruneck, Krankenhaus Hoferstra\u00dfe", "name:it": "Brunico, Ospedale Via Hofer", "public_transport": "platform", "shelter": "yes", "tactile_paving": "no"}}, {"type": "node", "id": 2331861246, "lat": 46.7942748, "lon": 11.9305244, "tags": {"bench": "yes", "bin": "yes", "bus": "yes", "highway": "bus_stop", "lit": "no", "name": "Bruneck, Bahnhof - Brunico, Stazione", "name:de": "Bruneck, Bahnhof", "name:it": "Brunico, Stazione", "name:lld": "Bornech, Staziun", "public_transport": "platform", "ref": "F", "route_ref": "420.1;420.2", "shelter": "yes", "tactile_paving": "no"}}, {"type": "node", "id": 2331861435, "lat": 46.7885915, "lon": 11.9210217, "tags": {"bench": "no", "bin": "no", "highway": "bus_stop", "name": "Bruneck, Industriezone West - Brunico, Zona Industriale Ovest", "name:de": "Bruneck, Industriezone West", "name:it": "Brunico, Zona Industriale Ovest", "public_transport": "platform", "shelter": "no"}}, {"type": "node", "id": 2331862051, "lat": 46.8288388, "lon": 11.822819, "tags": {"highway": "bus_stop", "name": "Rieder", "name:de": "Rieder", "public_transport": "platform"}}, {"type": "node", "id": 2353640068, "lat": 46.9469836, "lon": 11.8645464, "tags": {"bench": "no", "bin": "no", "highway": "bus_stop", "name": "Wei\u00dfenbach, Reichegg - Rio Bianco, Reichegg", "name:de": "Wei\u00dfenbach, Reichegg", "name:it": "Rio Bianco, Reichegg", "public_transport": "platform", "shelter": "no", "tactile_paving": "no"}}, {"type": "node", "id": 2353640070, "lat": 46.9470374, "lon": 11.8648821, "tags": {"bench": "no", "bin": "no", "highway": "bus_stop", "name": "Wei\u00dfenbach, Reichegg - Rio Bianco, Reichegg", "name:de": "Wei\u00dfenbach, Reichegg", "name:it": "Rio Bianco, Reichegg", "public_transport": "platform", "shelter": "no", "tactile_paving": "no"}}, {"type": "node", "id": 2398486021, "lat": 46.916833, "lon": 11.4438374, "tags": {"bench": "yes", "bin": "no", "bus": "yes", "highway": "bus_stop", "lit": "yes", "name": "Abzweigung Ried - Bivio Novale", "name:de": "Abzweigung Ried", "name:it": "Bivio Novale", "public_transport": "platform", "shelter": "yes", "tactile_paving": "no"}}, {"type": "node", "id": 2417832043, "lat": 46.91156, "lon": 11.9486965, "tags": {"bench": "yes", "bin": "no", "bus": "yes", "highway": "bus_stop", "lit": "no", "name": "Taufers, Pfarre - Tures, Parrocchia", "name:de": "Taufers, Pfarre", "name:it": "Tures, Parrocchia", "public_transport": "platform", "shelter": "yes", "tactile_paving": "no"}}, {"type": "node", "id": 2417832044, "lat": 46.9029571, "lon": 11.94508, "tags": {"bench": "yes", "bin": "no", "bus": "yes", "highway": "bus_stop", "lit": "no", "name": "M\u00fchlen, Moosstockstra\u00dfe - Molini di Tures, Via Moosstock", "name:de": "M\u00fchlen, Moosstockstra\u00dfe", "name:it": "Molini di Tures, Via Moosstock", "public_transport": "platform", "shelter": "yes", "tactile_paving": "no"}}, {"type": "node", "id": 2424143816, "lat": 46.8659023, "lon": 11.9489124, "tags": {"bench": "yes", "bin": "yes", "highway": "bus_stop", "lit": "yes", "name": "Uttenheim, Br\u00fccke - Villa Ottone, Ponte", "name:de": "Uttenheim, Br\u00fccke", "name:it": "Villa Ottone, Ponte", "public_transport": "platform", "shelter": "yes", "tactile_paving": "no"}}, {"type": "node", "id": 2424144741, "lat": 46.8652864, "lon": 11.9485981, "tags": {"bench": "yes", "highway": "bus_stop", "name": "Uttenheim Br\u00fccke", "public_transport": "platform", "shelter": "yes"}}, {"type": "node", "id": 2424145672, "lat": 46.8610233, "lon": 11.9485096, "tags": {"bench": "yes", "bin": "yes", "highway": "bus_stop", "name": "Uttenheim, Parkplatz - Villa Ottone, Parcheggio", "name:de": "Uttenheim, Parkplatz", "name:it": "Villa Ottone, Parcheggio", "public_transport": "platform", "shelter": "yes"}}, {"type": "node", "id": 2424146068, "lat": 46.8376585, "lon": 11.9471438, "tags": {"bench": "yes", "bin": "yes", "highway": "bus_stop", "lit": "no", "name": "Gais, Dorf - Gais, Paese", "name:de": "Gais, Dorf", "name:it": "Gais, Paese", "public_transport": "platform", "shelter": "yes", "tactile_paving": "no"}}, {"type": "node", "id": 2424150921, "lat": 46.9034223, "lon": 11.9449489, "tags": {"bench": "yes", "bin": "yes", "bus": "yes", "highway": "bus_stop", "lit": "no", "name": "M\u00fchlen, Moosstockstra\u00dfe - Molini di Tures, Via Moosstock", "name:de": "M\u00fchlen, Moosstockstra\u00dfe", "name:it": "Molini di Tures, Via Moosstock", "public_transport": "platform", "shelter": "yes", "tactile_paving": "no"}}, {"type": "node", "id": 2424151963, "lat": 46.8987924, "lon": 11.9430902, "tags": {"bench": "yes", "bin": "no", "bus": "yes", "highway": "bus_stop", "lit": "yes", "name": "M\u00fchlen, Raika - Molini di Tures, Raika", "name:de": "M\u00fchlen, Raika", "name:it": "Molini di Tures, Raika", "public_transport": "platform", "shelter": "yes", "tactile_paving": "no"}}, {"type": "node", "id": 2424152005, "lat": 46.8989348, "lon": 11.943281, "tags": {"bench": "no", "bin": "no", "bus": "yes", "highway": "bus_stop", "lit": "no", "name": "M\u00fchlen, Raika - Molini di Tures, Raika", "name:de": "M\u00fchlen, Raika", "name:it": "Molini di Tures, Raika", "public_transport": "platform", "shelter": "no", "tactile_paving": "no"}}, {"type": "node", "id": 2459597548, "lat": 46.7835882, "lon": 11.8958436, "tags": {"bus": "yes", "highway": "bus_stop", "name": "Sankt Lorenzen, Altenheim - San Lorenzo, Ospizio", "name:de": "Sankt Lorenzen, Altenheim", "name:it": "San Lorenzo, Ospizio", "name:lld": "San Laur\u00ebnz, Ospize", "public_transport": "platform"}}, {"type": "node", "id": 2459597552, "lat": 46.7836526, "lon": 11.8976717, "tags": {"bus": "yes", "highway": "bus_stop", "name": "Sankt Lorenzen, Altenheim - San Lorenzo, Ospizio", "name:de": "Sankt Lorenzen, Altenheim", "name:it": "San Lorenzo, Ospizio", "name:lld": "San Laur\u00ebnz, Ospize", "public_transport": "platform", "shelter": "yes"}}, {"type": "node", "id": 2459597553, "lat": 46.7837339, "lon": 11.8977389, "tags": {"bus": "yes", "highway": "bus_stop", "name": "Sankt Lorenzen, Altenheim - San Lorenzo, Ospizio", "name:de": "Sankt Lorenzen, Altenheim", "name:it": "San Lorenzo, Ospizio", "name:lld": "San Laur\u00ebnz, Ospize", "public_transport": "platform"}}, {"type": "node", "id": 2459597554, "lat": 46.7837658, "lon": 11.8957072, "tags": {"bus": "yes", "highway": "bus_stop", "name": "Sankt Lorenzen, Altenheim - San Lorenzo, Ospizio", "name:de": "Sankt Lorenzen, Altenheim", "name:it": "San Lorenzo, Ospizio", "name:lld": "San Laur\u00ebnz, Ospize", "public_transport": "platform"}}, {"type": "node", "id": 2459683617, "lat": 46.770799, "lon": 11.8952109, "tags": {"highway": "bus_stop", "name": "Moos, Fraktionshalle - Pal\u00f9, Sala delle frazioni", "name:de": "Moos, Fraktionshalle", "name:it": "Pal\u00f9, Sala delle frazioni", "public_transport": "platform"}}, {"type": "node", "id": 2547497960, "lat": 46.9117372, "lon": 11.9485522, "tags": {"bench": "yes", "bin": "no", "bus": "yes", "highway": "bus_stop", "lit": "no", "name": "Taufers, Pfarre - Tures, Parrocchia", "name:de": "Taufers, Pfarre", "name:it": "Tures, Parrocchia", "public_transport": "platform", "shelter": "yes", "tactile_paving": "no"}}, {"type": "node", "id": 2611540072, "lat": 46.9043224, "lon": 11.9431056, "tags": {"bus": "yes", "highway": "bus_stop", "name": "M\u00fchlen, Peinte - Molini di Tures, Peinte", "name:de": "M\u00fchlen, Peinte", "name:it": "Molini di Tures, Peinte", "public_transport": "platform"}}, {"type": "node", "id": 2611540075, "lat": 46.9042428, "lon": 11.943193, "tags": {"bus": "yes", "highway": "bus_stop", "name": "M\u00fchlen, Peinte - Molini di Tures, Peinte", "name:de": "M\u00fchlen, Peinte", "name:it": "Molini di Tures, Peinte", "public_transport": "platform"}}, {"type": "node", "id": 2625676365, "lat": 46.9793861, "lon": 11.4849814, "tags": {"bench": "yes", "bin": "no", "bus": "yes", "check_date:shelter": "2025-06-28", "highway": "bus_stop", "lit": "no", "name": "Brennerbad - Terme di Brennero", "name:de": "Brennerbad", "name:it": "Terme di Brennero", "public_transport": "platform", "shelter": "yes", "tactile_paving": "no"}}, {"type": "node", "id": 2625685895, "lat": 46.9794776, "lon": 11.4848102, "tags": {"bench": "no", "bin": "no", "bus": "yes", "check_date:shelter": "2025-06-28", "highway": "bus_stop", "lit": "no", "name": "Brennerbad - Terme di Brennero", "name:de": "Brennerbad", "name:it": "Terme di Brennero", "public_transport": "platform", "shelter": "no", "tactile_paving": "no"}}, {"type": "node", "id": 2971738562, "lat": 46.7870294, "lon": 11.4347427, "tags": {"highway": "bus_stop", "name": "Sack", "name:de": "Sack", "name:it": "Sack", "network": "TVS", "official_name": "Pens (Sarntal), Sack - Pennes (Sarentino), Sack", "official_name:de": "Pens (Sarntal), Sack", "official_name:it": "Pennes (Sarentino), Sack", "operator": "STA", "public_transport": "platform", "ref": "60", "ref:IFOPT": "it:22021:579:0:9188", "shelter": "yes"}}, {"type": "node", "id": 2971738566, "lat": 46.7871215, "lon": 11.4346963, "tags": {"highway": "bus_stop", "name": "Sack", "name:de": "Sack", "name:it": "Sack", "network": "TVS", "official_name": "Pens (Sarntal), Sack - Pennes (Sarentino), Sack", "official_name:de": "Pens (Sarntal), Sack", "official_name:it": "Pennes (Sarentino), Sack", "operator": "STA", "public_transport": "platform", "ref": "60", "ref:IFOPT": "it:22021:579:0:9187"}}, {"type": "node", "id": 3043855270, "lat": 46.9330409, "lon": 11.9375373, "tags": {"bench": "no", "bin": "no", "highway": "bus_stop", "lit": "no", "name": "Kabinenbahn Speikboden - Cabinovia Monte Spicco", "name:de": "Kabinenbahn Speikboden", "name:it": "Cabinovia Monte Spicco", "public_transport": "platform", "shelter": "no", "tactile_paving": "no"}}, {"type": "node", "id": 3043855274, "lat": 46.9331998, "lon": 11.9377184, "tags": {"bench": "no", "bin": "no", "highway": "bus_stop", "lit": "no", "name": "Kabinenbahn Speikboden - Cabinovia Monte Spicco", "name:de": "Kabinenbahn Speikboden", "name:it": "Cabinovia Monte Spicco", "public_transport": "platform", "shelter": "no", "tactile_paving": "no"}}, {"type": "node", "id": 3105222010, "lat": 46.8032519, "lon": 11.9371564, "tags": {"bus": "yes", "highway": "bus_stop", "name": "Bruneck, Anichsiedlung - Brunico, Rione Anich", "name:de": "Bruneck, Anichsiedlung", "name:it": "Brunico, Rione Anich", "public_transport": "platform"}}, {"type": "node", "id": 3105222011, "lat": 46.8033903, "lon": 11.9373598, "tags": {"bus": "yes", "highway": "bus_stop", "name": "Bruneck, Anichsiedlung - Brunico, Rione Anich", "name:de": "Bruneck, Anichsiedlung", "name:it": "Brunico, Rione Anich", "public_transport": "platform"}}, {"type": "node", "id": 3107525417, "lat": 46.7965018, "lon": 11.929377, "tags": {"highway": "bus_stop", "name": "Stegen, Marco-Polo-Stra\u00dfe - Stegona, Via Marco Polo", "name:de": "Stegen, Marco-Polo-Stra\u00dfe", "name:it": "Stegona, Via Marco Polo", "public_transport": "platform"}}, {"type": "node", "id": 3107545652, "lat": 46.7829764, "lon": 11.902391, "tags": {"bench": "yes", "bus": "yes", "highway": "bus_stop", "name": "St. Lorenzen, Kirche - S. Lorenzo, Chiesa", "name:de": "St. Lorenzen, Kirche", "name:it": "S. Lorenzo, Chiesa", "public_transport": "platform", "shelter": "no"}}, {"type": "node", "id": 3109138103, "lat": 46.796251, "lon": 11.9370787, "tags": {"bench": "yes", "bin": "no", "highway": "bus_stop", "lit": "yes", "name": "Bruneck, Graben - Brunico, Bastioni", "name:de": "Bruneck, Graben", "name:it": "Brunico, Bastioni", "public_transport": "platform", "shelter": "no", "tactile_paving": "no"}}, {"type": "node", "id": 3109138112, "lat": 46.7946531, "lon": 11.9357931, "tags": {"bus": "yes", "highway": "bus_stop", "name": "Tschurtschenthalerpark - Parco Tschurtschenthaler", "name:de": "Tschurtschenthalerpark", "name:it": "Parco Tschurtschenthaler", "public_transport": "platform"}}, {"type": "node", "id": 3110735602, "lat": 46.8442412, "lon": 11.9506369, "tags": {"bench": "no", "bin": "yes", "highway": "bus_stop", "lit": "no", "name": "Gewerbegebiet Gais - Zona Produttiva Gais", "name:de": "Gewerbegebiet Gais", "name:it": "Zona Produttiva Gais", "public_transport": "platform", "shelter": "no", "tactile_paving": "no"}}, {"type": "node", "id": 3166299870, "lat": 46.8443073, "lon": 11.950488, "tags": {"bench": "no", "bin": "yes", "highway": "bus_stop", "lit": "no", "name": "Gewerbegebiet Gais - Zona Produttiva Gais", "name:de": "Gewerbegebiet Gais", "name:it": "Zona Produttiva Gais", "public_transport": "platform", "shelter": "no", "tactile_paving": "no"}}, {"type": "node", "id": 3204940513, "lat": 46.7970518, "lon": 11.9400583, "tags": {"highway": "bus_stop", "name": "Bruneck, Kapuzinerplatz - Brunico, Piazza Cappuccini", "name:de": "Bruneck, Kapuzinerplatz", "name:it": "Brunico, Piazza Cappuccini", "public_transport": "platform"}}, {"type": "node", "id": 3204940514, "lat": 46.7968838, "lon": 11.9398488, "tags": {"bench": "yes", "bin": "no", "highway": "bus_stop", "lit": "no", "name": "Bruneck, Kapuzinerplatz - Brunico, Piazza Cappuccini", "name:de": "Bruneck, Kapuzinerplatz", "name:it": "Brunico, Piazza Cappuccini", "public_transport": "platform", "shelter": "yes", "tactile_paving": "no"}}, {"type": "node", "id": 3237867985, "lat": 46.7993096, "lon": 11.9331079, "tags": {"highway": "bus_stop", "name": "Stegen, Anton-Steger-Stra\u00dfe - Stegona, Via Anton Steger", "name:de": "Stegen, Anton-Steger-Stra\u00dfe", "name:it": "Stegona, Via Anton Steger", "public_transport": "platform"}}, {"type": "node", "id": 3258412052, "lat": 46.8017962, "lon": 11.9340289, "tags": {"bench": "no", "bin": "no", "bus": "yes", "departures_board": "timetable", "highway": "bus_stop", "lit": "yes", "name": "Stegen, Fabrikstra\u00dfe - Stegona, Via delle fabbriche", "name:de": "Stegen, Fabrikstra\u00dfe", "name:it": "Stegona, Via delle fabbriche", "public_transport": "platform", "shelter": "no", "tactile_paving": "no"}}, {"type": "node", "id": 3258421358, "lat": 46.7998339, "lon": 11.9261476, "tags": {"highway": "bus_stop", "name": "Bruneck, Rienzfeldstra\u00dfe - Brunico, Via Campi della Rienza", "name:de": "Bruneck, Rienzfeldstra\u00dfe", "name:it": "Brunico, Via Campi della Rienza", "public_transport": "platform"}}, {"type": "node", "id": 3258421359, "lat": 46.7984138, "lon": 11.9304062, "tags": {"highway": "bus_stop", "name": "Stegen, Althingstra\u00dfe - Stegona, Via Althing", "name:de": "Stegen, Althingstra\u00dfe", "name:it": "Stegona, Via Althing", "public_transport": "platform"}}, {"type": "node", "id": 3258421360, "lat": 46.7960417, "lon": 11.9259123, "tags": {"highway": "bus_stop", "name": "Stegen, Feuerwehr - Stegona, Vigili del Fuoco", "name:de": "Stegen, Feuerwehr", "name:it": "Stegona, Vigili del Fuoco", "public_transport": "platform"}}, {"type": "node", "id": 3259776446, "lat": 46.801659, "lon": 11.9337295, "tags": {"bench": "yes", "bin": "no", "bus": "yes", "departures_board": "timetable", "highway": "bus_stop", "lit": "no", "name": "Stegen, Fabrikstra\u00dfe - Stegona, Via delle fabbriche", "name:de": "Stegen, Fabrikstra\u00dfe", "name:it": "Stegona, Via delle fabbriche", "public_transport": "platform", "shelter": "yes", "tactile_paving": "no"}}, {"type": "node", "id": 3265137356, "lat": 46.8030701, "lon": 11.9497464, "tags": {"bench": "no", "highway": "bus_stop", "name": "Dietenheim, Kirche - Teodone, Chiesa", "name:de": "Dietenheim, Kirche", "name:it": "Teodone, Chiesa", "public_transport": "platform", "shelter": "no"}}, {"type": "node", "id": 3578141696, "lat": 46.8998016, "lon": 11.458528, "tags": {"bench": "yes", "check_date:bench": "2023-08-21", "covered": "yes", "highway": "bus_stop", "name": "Wiesen, Kirche - Prati, Chiesa", "name:de": "Wiesen, Kirche", "name:it": "Prati, Chiesa", "operator": "Wipptaler Reisen", "public_transport": "platform", "shelter": "yes"}}, {"type": "node", "id": 3578142598, "lat": 46.9675548, "lon": 11.6019566, "tags": {"bench": "yes", "bus": "yes", "highway": "bus_stop", "name": "Sankt Jakob, Feuerwehr - San Giacomo, Vigili del fuoco", "name:de": "Sankt Jakob, Feuerwehr", "name:it": "San Giacomo, Vigili del fuoco", "network": "SAD", "operator": "SAD", "public_transport": "platform", "shelter": "yes"}}, {"type": "node", "id": 3578293164, "lat": 46.7763144, "lon": 11.8789378, "tags": {"bench": "yes", "bus": "yes", "highway": "bus_stop", "name": "Aue", "name:de": "Aue", "public_transport": "platform", "shelter": "yes", "source": "https://www.sii.bz.it/de"}}, {"type": "node", "id": 3658500434, "lat": 46.8296956, "lon": 11.7760698, "tags": {"bench": "yes", "bin": "yes", "covered": "yes", "highway": "bus_stop", "lit": "yes", "name": "Terenten, Dorf - Terento, Paese", "name:de": "Terenten, Dorf", "name:it": "Terento, Paese", "public_transport": "platform", "shelter": "yes", "tactile_paving": "no"}}, {"type": "node", "id": 3736485810, "lat": 46.9197824, "lon": 11.5207002, "tags": {"bus": "yes", "highway": "bus_stop", "name": "Afens Br\u00fccke - Avenes Ponte", "name:de": "Afens Br\u00fccke", "name:it": "Avenes Ponte", "public_transport": "platform"}}, {"type": "node", "id": 3736485815, "lat": 46.9548256, "lon": 11.5379063, "tags": {"bus": "yes", "highway": "bus_stop", "name": "Ralsbaur", "name:de": "Ralsbaur", "public_transport": "platform"}}, {"type": "node", "id": 3736485816, "lat": 46.9657458, "lon": 11.5817494, "tags": {"highway": "bus_stop", "name": "Platz - Piazza", "name:de": "Platz", "name:it": "Piazza", "public_transport": "platform"}}, {"type": "node", "id": 3736485821, "lat": 46.972601, "lon": 11.6214803, "tags": {"bus": "yes", "highway": "bus_stop", "name": "Kinzen", "name:de": "Kinzen", "public_transport": "platform"}}, {"type": "node", "id": 3904774548, "lat": 46.7923928, "lon": 11.4396704, "tags": {"direction": "both", "highway": "bus_stop", "name": "Asten - Laste", "name:de": "Asten", "name:it": "Laste", "network": "TVS", "official_name": "Pens (Sarntal), Asten - Pennes (Sarentino), Laste", "official_name:de": "Pens (Sarntal), Asten", "official_name:it": "Pennes (Sarentino), Laste", "operator": "STA", "public_transport": "platform"}}, {"type": "node", "id": 3909656074, "lat": 46.7719098, "lon": 11.867973, "tags": {"highway": "bus_stop", "name": "Abzweigung Montal - Bivio Montana", "name:de": "Abzweigung Montal", "name:it": "Bivio Montana", "name:lld": "Burcia Mant\u00ebna", "public_transport": "platform", "source": "https://www.sii.bz.it/de"}}, {"type": "node", "id": 3909673534, "lat": 46.7722825, "lon": 11.8688698, "tags": {"highway": "bus_stop", "name": "Abzweigung Montal - Bivio Montana", "name:de": "Abzweigung Montal", "name:it": "Bivio Montana", "name:lld": "Burcia Mant\u00ebna", "public_transport": "platform", "source": "https://www.sii.bz.it/de"}}, {"type": "node", "id": 3909682323, "lat": 46.7762961, "lon": 11.879609, "tags": {"bench": "yes", "bus": "yes", "highway": "bus_stop", "name": "Aue", "name:de": "Aue", "public_transport": "platform", "shelter": "yes", "source": "https://www.sii.bz.it/de"}}, {"type": "node", "id": 3909709059, "lat": 46.7818349, "lon": 11.9040134, "tags": {"bench": "yes", "bus": "yes", "highway": "bus_stop", "name": "Sankt Lorenzen, Bahnhof - San Lorenzo, Stazione", "name:de": "Sankt Lorenzen, Bahnhof", "name:it": "San Lorenzo, Stazione", "name:lld": "Sant Laur\u00ebnz, Staziun", "public_transport": "platform", "shelter": "yes", "source": "https://www.sii.bz.it/it"}}, {"type": "node", "id": 3939098209, "lat": 46.860633, "lon": 11.948418, "tags": {"bench": "yes", "bin": "yes", "highway": "bus_stop", "lit": "yes", "name": "Uttenheim, Parkplatz - Villa Ottone, Parcheggio", "name:de": "Uttenheim, Parkplatz", "name:it": "Villa Ottone, Parcheggio", "public_transport": "platform", "shelter": "yes", "tactile_paving": "no"}}, {"type": "node", "id": 4221184608, "lat": 46.8670389, "lon": 11.4801877, "tags": {"highway": "bus_stop", "name": "Stilfes, Sportplatz - Stilves, Campo Sportivo", "name:de": "Stilfes, Sportplatz", "name:it": "Stilves, Campo Sportivo", "public_transport": "platform"}}, {"type": "node", "id": 4323441622, "lat": 46.887283, "lon": 11.9458413, "tags": {"bench": "yes", "bin": "no", "highway": "bus_stop", "name": "Gewerbegebiet M\u00fchlen - Zona Produttiva Molini", "name:de": "Gewerbegebiet M\u00fchlen", "name:it": "Zona Produttiva Molini", "public_transport": "platform", "shelter": "yes"}}, {"type": "node", "id": 4323531101, "lat": 46.965341, "lon": 11.9230059, "tags": {"bench": "no", "bin": "no", "highway": "bus_stop", "lit": "yes", "name": "Gisse", "name:de": "Gisse", "public_transport": "platform", "shelter": "no", "tactile_paving": "no"}}, {"type": "node", "id": 4323531102, "lat": 46.9471834, "lon": 11.9230628, "tags": {"bench": "no", "bin": "no", "highway": "bus_stop", "lit": "no", "name": "Hatzler", "name:de": "Hatzler", "public_transport": "platform", "shelter": "no", "tactile_paving": "no"}}, {"type": "node", "id": 4323531105, "lat": 46.9510827, "lon": 11.9216526, "tags": {"bench": "yes", "bin": "no", "highway": "bus_stop", "lit": "yes", "name": "Luttach, Tourismusb\u00fcro - Lutago, Ufficio Turistico", "name:de": "Luttach, Tourismusb\u00fcro", "name:it": "Lutago, Ufficio Turistico", "public_transport": "platform", "shelter": "yes", "tactile_paving": "no"}}, {"type": "node", "id": 4323531106, "lat": 46.9511875, "lon": 11.921394, "tags": {"bench": "yes", "bin": "no", "highway": "bus_stop", "lit": "no", "name": "Luttach, Tourismusb\u00fcro - Lutago, Ufficio Turistico", "name:de": "Luttach, Tourismusb\u00fcro", "name:it": "Lutago, Ufficio Turistico", "public_transport": "platform", "shelter": "yes", "tactile_paving": "no"}}, {"type": "node", "id": 4323531107, "lat": 46.9837676, "lon": 11.9478193, "tags": {"bench": "no", "bin": "no", "highway": "bus_stop", "lit": "yes", "name": "Sankt Johann, Adler - San Giovanni, Adler", "name:de": "Sankt Johann, Adler", "name:it": "San Giovanni, Adler", "public_transport": "platform", "shelter": "no", "tactile_paving": "no"}}, {"type": "node", "id": 4323531108, "lat": 46.9779702, "lon": 11.938554, "tags": {"bench": "yes", "highway": "bus_stop", "name": "St. Johann Kohler", "public_transport": "platform", "shelter": "no"}}, {"type": "node", "id": 4323531109, "lat": 46.9817174, "lon": 11.9426827, "tags": {"bench": "yes", "bin": "no", "highway": "bus_stop", "lit": "no", "name": "Sankt Johann, Schachen - San Giovanni, Schachen", "name:de": "Sankt Johann, Schachen", "name:it": "San Giovanni, Schachen", "public_transport": "platform", "shelter": "yes", "tactile_paving": "no"}}, {"type": "node", "id": 4323531110, "lat": 46.974815, "lon": 11.9349064, "tags": {"bench": "yes", "bin": "no", "highway": "bus_stop", "lit": "yes", "name": "Sankt Martin - San Martino", "name:de": "Sankt Martin", "name:it": "San Martino", "public_transport": "platform", "shelter": "yes", "tactile_paving": "no"}}, {"type": "node", "id": 4323531111, "lat": 46.9757731, "lon": 11.935936, "tags": {"bench": "no", "bin": "no", "highway": "bus_stop", "lit": "yes", "name": "Sankt Martin - San Martino", "name:de": "Sankt Martin", "name:it": "San Martino", "public_transport": "platform", "shelter": "no", "tactile_paving": "no"}}, {"type": "node", "id": 4325333407, "lat": 46.9872061, "lon": 11.9517799, "tags": {"bench": "no", "bin": "no", "highway": "bus_stop", "name": "H. Ahrntaler Hof", "public_transport": "platform", "shelter": "no"}}, {"type": "node", "id": 4354624919, "lat": 46.773264, "lon": 11.6647514, "tags": {"bench": "yes", "bin": "yes", "bus": "yes", "covered": "yes", "highway": "bus_stop", "lit": "yes", "name": "Schabs, Peintnerhof - Sciaves, Peintnerhof", "name:de": "Schabs, Peintnerhof", "name:it": "Sciaves, Peintnerhof", "passenger_information_display": "yes", "public_transport": "platform", "shelter": "yes", "tactile_paving": "no"}}, {"type": "node", "id": 4357249157, "lat": 46.7770463, "lon": 11.6353591, "tags": {"bench": "yes", "bin": "no", "bus": "yes", "highway": "bus_stop", "lit": "no", "name": "Ladritsch", "name:de": "Ladritsch", "public_transport": "platform", "shelter": "yes", "tactile_paving": "no"}}, {"type": "node", "id": 4357249165, "lat": 46.7771694, "lon": 11.6354509, "tags": {"bench": "no", "bin": "no", "bus": "yes", "highway": "bus_stop", "lit": "no", "name": "Ladritsch", "name:de": "Ladritsch", "public_transport": "platform", "shelter": "no", "tactile_paving": "no"}}, {"type": "node", "id": 4562520948, "lat": 46.8112129, "lon": 11.9064855, "tags": {"bus": "yes", "highway": "bus_stop", "name": "Greinwalden - Grimaldo", "name:de": "Greinwalden", "name:it": "Grimaldo", "public_transport": "platform"}}, {"type": "node", "id": 4562520949, "lat": 46.8111058, "lon": 11.9063694, "tags": {"bus": "yes", "highway": "bus_stop", "name": "Greinwalden - Grimaldo", "name:de": "Greinwalden", "name:it": "Grimaldo", "public_transport": "platform"}}, {"type": "node", "id": 4876699732, "lat": 46.9587428, "lon": 11.5442047, "tags": {"bus": "yes", "highway": "bus_stop", "name": "Kematen, Kirche - Caminata, Chiesa", "name:de": "Kematen, Kirche", "name:it": "Caminata, Chiesa", "public_transport": "platform"}}, {"type": "node", "id": 4876699733, "lat": 46.9586707, "lon": 11.5442677, "tags": {"bus": "yes", "highway": "bus_stop", "name": "Kematen, Kirche - Caminata, Chiesa", "name:de": "Kematen, Kirche", "name:it": "Caminata, Chiesa", "public_transport": "platform"}}, {"type": "node", "id": 4876731200, "lat": 46.9000022, "lon": 11.4625146, "tags": {"highway": "bus_stop", "name": "Wiesen, Rathaus - Prati, Municipio", "name:de": "Wiesen, Rathaus", "name:it": "Prati, Municipio", "public_transport": "platform"}}, {"type": "node", "id": 4876731201, "lat": 46.8998956, "lon": 11.4624988, "tags": {"highway": "bus_stop", "name": "Wiesen, Rathaus - Prati, Municipio", "name:de": "Wiesen, Rathaus", "name:it": "Prati, Municipio", "public_transport": "platform"}}, {"type": "node", "id": 4970181876, "lat": 46.8949541, "lon": 11.8240042, "tags": {"bench": "yes", "highway": "bus_stop", "name": "Wegerm\u00fchlen", "name:de": "Wegerm\u00fchlen", "public_transport": "platform"}}, {"type": "node", "id": 4970318160, "lat": 46.8930313, "lon": 11.8338687, "tags": {"bench": "yes", "covered": "yes", "highway": "bus_stop", "name": "Wassermann", "name:de": "Wassermann", "public_transport": "platform"}}, {"type": "node", "id": 4970318161, "lat": 46.8951499, "lon": 11.8238126, "tags": {"bench": "no", "covered": "no", "highway": "bus_stop", "name": "Wegerm\u00fchlen", "name:de": "Wegerm\u00fchlen", "public_transport": "platform"}}, {"type": "node", "id": 4970329440, "lat": 46.8935979, "lon": 11.8320663, "tags": {"bench": "no", "highway": "bus_stop", "name": "Wassermann", "name:de": "Wassermann", "public_transport": "platform", "shelter": "no"}}, {"type": "node", "id": 4989567261, "lat": 46.7767933, "lon": 11.6279882, "tags": {"amenity": "shelter", "bench": "yes", "bin": "no", "highway": "bus_stop", "lit": "no", "name": "Festung Franzensfeste - Forte Fortezza", "name:de": "Festung Franzensfeste", "name:it": "Forte Fortezza", "public_transport": "platform", "shelter": "yes", "shelter_type": "public_transport", "tactile_paving": "no"}}, {"type": "node", "id": 4989567262, "lat": 46.7766456, "lon": 11.6278153, "tags": {"amenity": "shelter", "bench": "yes", "bin": "no", "highway": "bus_stop", "lit": "no", "name": "Festung Franzensfeste - Forte Fortezza", "name:de": "Festung Franzensfeste", "name:it": "Forte Fortezza", "public_transport": "platform", "ref:IFOPT": "it:22021:1168:0:41019", "shelter": "yes", "shelter_type": "public_transport", "tactile_paving": "no"}}, {"type": "node", "id": 5022981109, "lat": 46.9050578, "lon": 11.446699, "tags": {"highway": "bus_stop", "name": "Schmuders, Pretz - Smudres, Pretz", "name:de": "Schmuders, Pretz", "name:it": "Smudres, Pretz", "public_transport": "platform"}}, {"type": "node", "id": 5022981110, "lat": 46.9046155, "lon": 11.4461417, "tags": {"highway": "bus_stop", "name": "Schmuders, Pretz - Smudres, Pretz", "name:de": "Schmuders, Pretz", "name:it": "Smudres, Pretz", "public_transport": "platform"}}, {"type": "node", "id": 5022981275, "lat": 46.8952515, "lon": 11.4452614, "tags": {"highway": "bus_stop", "name": "Am Moosfeld - Campo Pal\u00fa", "name:de": "Am Moosfeld", "name:it": "Campo Pal\u00fa", "public_transport": "platform"}}, {"type": "node", "id": 5117253521, "lat": 46.7639288, "lon": 11.6428792, "tags": {"bench": "no", "bin": "yes", "bus": "yes", "highway": "bus_stop", "name": "Flixbus Brixen / Vahrn - Flixbus Bressanone / Varna", "name:de": "Flixbus Brixen / Vahrn", "name:it": "Flixbus Bressanone / Varna", "note:route_ref": "Flixbus 095, 486, N1586", "operator": "Flixbus", "public_transport": "platform", "route_ref": "095;486;N1586", "shelter": "no", "tactile_paving": "no"}}, {"type": "node", "id": 5218201633, "lat": 46.7473266, "lon": 11.7573539, "tags": {"highway": "bus_stop", "name": "L\u00fcsen, Unterdorf - Luson, Unterdorf", "name:de": "L\u00fcsen, Unterdorf", "name:it": "Luson, Unterdorf", "public_transport": "platform"}}, {"type": "node", "id": 5218201634, "lat": 46.7475153, "lon": 11.7565903, "tags": {"highway": "bus_stop", "name": "L\u00fcsen, Unterdorf - Luson, Unterdorf", "name:de": "L\u00fcsen, Unterdorf", "name:it": "Luson, Unterdorf", "public_transport": "platform"}}, {"type": "node", "id": 5218201635, "lat": 46.7461143, "lon": 11.7622863, "tags": {"bus": "yes", "departures_board": "timetable", "highway": "bus_stop", "name": "L\u00fcsen, Dorf - Luson, Paese", "name:de": "L\u00fcsen, Dorf", "name:it": "Luson, Paese", "public_transport": "platform"}}, {"type": "node", "id": 5218201636, "lat": 46.7460773, "lon": 11.7624049, "tags": {"bus": "yes", "departures_board": "timetable", "highway": "bus_stop", "name": "L\u00fcsen, Dorf - Luson, Paese", "name:de": "L\u00fcsen, Dorf", "name:it": "Luson, Paese", "public_transport": "platform"}}, {"type": "node", "id": 5218201637, "lat": 46.7435017, "lon": 11.7692977, "tags": {"highway": "bus_stop", "name": "Abzweigung Rungg - Bivio Ronco", "name:de": "Abzweigung Rungg", "name:it": "Bivio Ronco", "public_transport": "platform"}}, {"type": "node", "id": 5218201638, "lat": 46.7437918, "lon": 11.7682382, "tags": {"highway": "bus_stop", "name": "Abzweigung Rungg - Bivio Ronco", "name:de": "Abzweigung Rungg", "name:it": "Bivio Ronco", "public_transport": "platform"}}, {"type": "node", "id": 5221353021, "lat": 46.9087512, "lon": 11.9592339, "tags": {"bus": "yes", "highway": "bus_stop", "name": "Industriezone Sand in Taufers - Zona Industriale Campo Tures", "name:de": "Industriezone Sand in Taufers", "name:it": "Zona Industriale Campo Tures", "public_transport": "platform"}}, {"type": "node", "id": 5221353022, "lat": 46.9084509, "lon": 11.9587487, "tags": {"bus": "yes", "highway": "bus_stop", "name": "Industriezone Sand in Taufers - Zona Industriale Campo Tures", "name:de": "Industriezone Sand in Taufers", "name:it": "Zona Industriale Campo Tures", "public_transport": "platform"}}, {"type": "node", "id": 5223592228, "lat": 46.9522566, "lon": 11.4546881, "tags": {"bench": "yes", "highway": "bus_stop", "name": "Pontigl - Ponticolo", "name:de": "Pontigl", "name:it": "Ponticolo", "public_transport": "platform", "shelter": "yes", "tactile_paving": "no"}}, {"type": "node", "id": 5283672237, "lat": 46.7689964, "lon": 11.6513251, "tags": {"bench": "yes", "bin": "no", "highway": "bus_stop", "lit": "yes", "name": "Ladestatt Schabs - Ladestatt Sciaves", "name:de": "Ladestatt Schabs", "name:it": "Ladestatt Sciaves", "public_transport": "platform", "shelter": "yes", "tactile_paving": "no"}}, {"type": "node", "id": 5286425787, "lat": 46.9879449, "lon": 11.9564053, "tags": {"bench": "yes", "bin": "no", "highway": "bus_stop", "lit": "yes", "name": "Schmied in der Au", "name:de": "Schmied in der Au", "public_transport": "platform", "shelter": "no", "tactile_paving": "no"}}, {"type": "node", "id": 5286425788, "lat": 46.9880775, "lon": 11.9565893, "tags": {"bench": "yes", "bin": "no", "highway": "bus_stop", "lit": "yes", "name": "Schmied in der Au", "name:de": "Schmied in der Au", "public_transport": "platform", "shelter": "yes", "tactile_paving": "no"}}, {"type": "node", "id": 5465480105, "lat": 46.921114, "lon": 11.8025649, "tags": {"direction": "both", "highway": "bus_stop", "name": "Rinsbacher", "name:de": "Rinsbacher", "public_transport": "platform"}}, {"type": "node", "id": 5465480106, "lat": 46.9178755, "lon": 11.8040496, "tags": {"highway": "bus_stop", "name": "Lappach, Dorf - Lappago, Paese", "name:de": "Lappach, Dorf", "name:it": "Lappago, Paese", "public_transport": "platform"}}, {"type": "node", "id": 5628634540, "lat": 46.9274106, "lon": 11.4494657, "tags": {"bench": "no", "bin": "no", "bus": "yes", "check_date:lit": "2024-03-08", "highway": "bus_stop", "lit": "no", "name": "Bl\u00e4tterm\u00fchle", "name:de": "Bl\u00e4tterm\u00fchle", "public_transport": "platform", "shelter": "no", "tactile_paving": "no"}}, {"type": "node", "id": 5628843110, "lat": 46.9002037, "lon": 11.4504092, "tags": {"bus": "yes", "highway": "bus_stop", "name": "Schloss Moos - Castel Pal\u00f9", "name:de": "Schloss Moos", "name:it": "Castel Pal\u00f9", "public_transport": "platform"}}, {"type": "node", "id": 5628843111, "lat": 46.8997771, "lon": 11.460164, "tags": {"bus": "yes", "highway": "bus_stop", "name": "Wiesen, Kirche - Prati, Chiesa", "name:de": "Wiesen, Kirche", "name:it": "Prati, Chiesa", "public_transport": "platform"}}, {"type": "node", "id": 5628843113, "lat": 46.9010531, "lon": 11.4710597, "tags": {"bus": "yes", "highway": "bus_stop", "name": "Oberwiesen - Prati di Sopra", "name:de": "Oberwiesen", "name:it": "Prati di Sopra", "public_transport": "platform"}}, {"type": "node", "id": 5628843114, "lat": 46.9000881, "lon": 11.4812669, "tags": {"bus": "yes", "highway": "bus_stop", "name": "Abzweigung Tulfer - Bivio Tulve", "name:de": "Abzweigung Tulfer", "name:it": "Bivio Tulve", "public_transport": "platform"}}, {"type": "node", "id": 5628843115, "lat": 46.916885, "lon": 11.5142656, "tags": {"bus": "yes", "highway": "bus_stop", "name": "Afens - Avenes", "name:de": "Afens", "name:it": "Avenes", "public_transport": "platform"}}, {"type": "node", "id": 5628843116, "lat": 46.9294908, "lon": 11.5233023, "tags": {"bench": "no", "bin": "no", "bus": "yes", "highway": "bus_stop", "lit": "no", "name": "Ried - Novale", "name:de": "Ried", "name:it": "Novale", "public_transport": "platform", "shelter": "no", "tactile_paving": "no"}}, {"type": "node", "id": 5628878309, "lat": 46.9365421, "lon": 11.5315727, "tags": {"bus": "yes", "highway": "bus_stop", "name": "Burgum - Borgone", "name:de": "Burgum", "name:it": "Borgone", "public_transport": "platform"}}, {"type": "node", "id": 5628878310, "lat": 46.9493, "lon": 11.5385742, "tags": {"bus": "yes", "highway": "bus_stop", "name": "Fussendra\u00df - Fossa Trues", "name:de": "Fussendra\u00df", "name:it": "Fossa Trues", "public_transport": "platform"}}, {"type": "node", "id": 5628878311, "lat": 46.9598655, "lon": 11.5492789, "tags": {"bus": "yes", "highway": "bus_stop", "name": "Kematen, Boar - Caminata, Boar", "name:de": "Kematen, Boar", "name:it": "Caminata, Boar", "public_transport": "platform"}}, {"type": "node", "id": 5628878312, "lat": 46.9619531, "lon": 11.5553599, "tags": {"bus": "yes", "highway": "bus_stop", "name": "Grube - Fosse", "name:de": "Grube", "name:it": "Fosse", "public_transport": "platform"}}, {"type": "node", "id": 5628878313, "lat": 46.9635467, "lon": 11.561635, "tags": {"bus": "yes", "highway": "bus_stop", "name": "Gorgler", "name:de": "Gorgler", "public_transport": "platform"}}, {"type": "node", "id": 5628878314, "lat": 46.963179, "lon": 11.5667685, "tags": {"bus": "yes", "highway": "bus_stop", "name": "Rain - Riva", "name:de": "Rain", "name:it": "Riva", "public_transport": "platform"}}, {"type": "node", "id": 5628878315, "lat": 46.9659626, "lon": 11.5765438, "tags": {"bus": "yes", "highway": "bus_stop", "name": "Barter", "name:de": "Barter", "public_transport": "platform"}}, {"type": "node", "id": 5628878316, "lat": 46.9653541, "lon": 11.5896951, "tags": {"bench": "no", "bin": "no", "bus": "yes", "highway": "bus_stop", "lit": "no", "name": "Sankt Jakob, Oberlehen - San Giacomo, Oberlehen", "name:de": "Sankt Jakob, Oberlehen", "name:it": "San Giacomo, Oberlehen", "public_transport": "platform", "shelter": "no", "tactile_paving": "no"}}, {"type": "node", "id": 5628878317, "lat": 46.966065, "lon": 11.5953083, "tags": {"bench": "no", "bin": "no", "bus": "yes", "highway": "bus_stop", "lit": "no", "name": "Sankt Jakob, Knappenhof - San Giacomo, Knappenhof", "name:de": "Sankt Jakob, Knappenhof", "name:it": "San Giacomo, Knappenhof", "public_transport": "platform", "shelter": "no", "tactile_paving": "no"}}, {"type": "node", "id": 5628878318, "lat": 46.9705415, "lon": 11.6123615, "tags": {"bus": "yes", "highway": "bus_stop", "name": "Reichmessner", "name:de": "Reichmessner", "public_transport": "platform"}}, {"type": "node", "id": 5628878319, "lat": 46.9718719, "lon": 11.6167684, "tags": {"bus": "yes", "highway": "bus_stop", "name": "Blasig", "name:de": "Blasig", "public_transport": "platform"}}, {"type": "node", "id": 5629028281, "lat": 46.909705, "lon": 11.4572121, "tags": {"bus": "yes", "direction": "both", "highway": "bus_stop", "name": "Braunhof", "name:de": "Braunhof", "public_transport": "platform"}}, {"type": "node", "id": 5629028282, "lat": 46.8989901, "lon": 11.4440132, "tags": {"bench": "no", "bin": "no", "bus": "yes", "highway": "bus_stop", "lit": "no", "name": "Flains, Radl - Flaines, Radl", "name:de": "Flains, Radl", "name:it": "Flaines, Radl", "public_transport": "platform", "shelter": "no", "tactile_paving": "no"}}, {"type": "node", "id": 5658637329, "lat": 46.7635513, "lon": 11.7546774, "tags": {"highway": "bus_stop", "name": "Tulper", "name:de": "Tulper", "public_transport": "platform"}}, {"type": "node", "id": 5690616113, "lat": 46.7488924, "lon": 11.7428025, "tags": {"bus": "yes", "highway": "bus_stop", "name": "Glibiser S\u00e4ge", "name:de": "Glibiser S\u00e4ge", "public_transport": "platform"}}, {"type": "node", "id": 5690616114, "lat": 46.7487723, "lon": 11.7427783, "tags": {"bus": "yes", "highway": "bus_stop", "name": "Glibiser S\u00e4ge", "name:de": "Glibiser S\u00e4ge", "public_transport": "platform"}}, {"type": "node", "id": 5840879114, "lat": 46.7957631, "lon": 11.9362039, "tags": {"bench": "yes", "bin": "yes", "bus": "yes", "highway": "bus_stop", "lit": "yes", "name": "Bruneck, Graben - Brunico, Bastioni", "name:de": "Bruneck, Graben", "name:it": "Brunico, Bastioni", "public_transport": "platform", "shelter": "yes", "tactile_paving": "no"}}, {"type": "node", "id": 6066534128, "lat": 46.8187346, "lon": 11.8882586, "tags": {"bench": "yes", "bin": "no", "bus": "yes", "highway": "bus_stop", "name": "Oberpfalzen, Agarter Platzl - Falzes di Sopra, Piazzetta Agarter", "name:de": "Oberpfalzen, Agarter Platzl", "name:it": "Falzes di Sopra, Piazzetta Agarter", "public_transport": "platform", "shelter": "yes", "tactile_paving": "no"}}, {"type": "node", "id": 6287087728, "lat": 46.9181889, "lon": 11.9592117, "tags": {"bench": "no", "bin": "no", "bus": "yes", "highway": "bus_stop", "lit": "no", "name": "Sand in Taufers, Daimer - Campo Tures, Daimer", "name:de": "Sand in Taufers, Daimer", "name:it": "Campo Tures, Daimer", "public_transport": "platform", "shelter": "no", "tactile_paving": "no"}}, {"type": "node", "id": 6287087729, "lat": 46.9181054, "lon": 11.9595001, "tags": {"bench": "no", "bin": "no", "bus": "yes", "highway": "bus_stop", "lit": "yes", "name": "Sand in Taufers, Daimer - Campo Tures, Daimer", "name:de": "Sand in Taufers, Daimer", "name:it": "Campo Tures, Daimer", "public_transport": "platform", "shelter": "no", "tactile_paving": "no"}}, {"type": "node", "id": 6287087730, "lat": 46.9179553, "lon": 11.9577493, "tags": {"bench": "no", "bin": "no", "bus": "yes", "highway": "bus_stop", "lit": "yes", "name": "Sand in Taufers, Wiesenhofstra\u00dfe - Campo Tures, Via Wiesenhof", "name:de": "Sand in Taufers, Wiesenhofstra\u00dfe", "name:it": "Campo Tures, Via Wiesenhof", "public_transport": "platform", "shelter": "no", "tactile_paving": "no"}}, {"type": "node", "id": 6287087731, "lat": 46.9173341, "lon": 11.9573797, "tags": {"bench": "yes", "bin": "no", "bus": "yes", "highway": "bus_stop", "lit": "no", "name": "Sand in Taufers, Wiesenhofstra\u00dfe - Campo Tures, Via Wiesenhof", "name:de": "Sand in Taufers, Wiesenhofstra\u00dfe", "name:it": "Campo Tures, Via Wiesenhof", "public_transport": "platform", "shelter": "no", "tactile_paving": "no"}}, {"type": "node", "id": 6287087734, "lat": 46.9188173, "lon": 11.9512835, "tags": {"bench": "yes", "bin": "yes", "bus": "yes", "highway": "bus_stop", "lit": "yes", "name": "Sand in Taufers, Busbahnhof - Campo Tures, Autostazione", "name:de": "Sand in Taufers, Busbahnhof", "name:it": "Campo Tures, Autostazione", "public_transport": "platform", "shelter": "yes", "tactile_paving": "no"}}, {"type": "node", "id": 6287087737, "lat": 46.9208879, "lon": 11.9505889, "tags": {"bench": "yes", "bus": "yes", "highway": "bus_stop", "public_transport": "platform", "shelter": "no"}}, {"type": "node", "id": 6287087739, "lat": 46.9491822, "lon": 11.9223275, "tags": {"highway": "bus_stop", "public_transport": "platform", "shelter": "no"}}, {"type": "node", "id": 6287087740, "lat": 46.9510189, "lon": 11.9212412, "tags": {"bench": "no", "bin": "no", "highway": "bus_stop", "lit": "no", "name": "Luttach, Tourismusb\u00fcro - Lutago, Ufficio Turistico", "name:de": "Luttach, Tourismusb\u00fcro", "name:it": "Lutago, Ufficio Turistico", "public_transport": "platform", "shelter": "no", "tactile_paving": "no"}}, {"type": "node", "id": 6287087741, "lat": 46.9578346, "lon": 11.9204564, "tags": {"bench": "no", "bin": "no", "bus": "yes", "highway": "bus_stop", "lit": "yes", "name": "Oberluttach - Lutago di Sopra", "name:de": "Oberluttach", "name:it": "Lutago di Sopra", "public_transport": "platform", "shelter": "no", "tactile_paving": "no"}}, {"type": "node", "id": 6287087742, "lat": 46.958693, "lon": 11.9203751, "tags": {"bench": "yes", "bin": "no", "bus": "yes", "highway": "bus_stop", "lit": "yes", "name": "Oberluttach - Lutago di Sopra", "name:de": "Oberluttach", "name:it": "Lutago di Sopra", "public_transport": "platform", "shelter": "yes", "tactile_paving": "no"}}, {"type": "node", "id": 6287087743, "lat": 46.9669618, "lon": 11.9246186, "tags": {"bench": "yes", "bin": "no", "highway": "bus_stop", "name": "Gisse", "name:de": "Gisse", "public_transport": "platform", "shelter": "yes", "tactile_paving": "no"}}, {"type": "node", "id": 6287087751, "lat": 46.9166425, "lon": 11.9609946, "tags": {"bench": "yes", "bin": "no", "bus": "yes", "highway": "bus_stop", "lit": "no", "name": "Sand in Taufers, Uhle - Campo Tures, Uhle", "name:de": "Sand in Taufers, Uhle", "name:it": "Campo Tures, Uhle", "public_transport": "platform", "shelter": "no", "tactile_paving": "no"}}, {"type": "node", "id": 6287087752, "lat": 46.91643, "lon": 11.9612789, "tags": {"bench": "no", "bin": "no", "bus": "yes", "highway": "bus_stop", "lit": "no", "name": "Sand in Taufers, Uhle - Campo Tures, Uhle", "name:de": "Sand in Taufers, Uhle", "name:it": "Campo Tures, Uhle", "public_transport": "platform", "shelter": "no", "tactile_paving": "no"}}, {"type": "node", "id": 6287087753, "lat": 46.9118676, "lon": 11.9614042, "tags": {"bus": "yes", "highway": "bus_stop", "name": "Sand in Taufers, Cascade - Campo Tures, Cascade", "name:de": "Sand in Taufers, Cascade", "name:it": "Campo Tures, Cascade", "public_transport": "platform", "shelter": "no"}}, {"type": "node", "id": 6287087754, "lat": 46.9030906, "lon": 11.9555129, "tags": {"bench": "yes", "bin": "no", "bus": "yes", "highway": "bus_stop", "name": "Abzweigung Kematen - Bivio Caminata", "name:de": "Abzweigung Kematen", "name:it": "Bivio Caminata", "public_transport": "platform", "shelter": "yes", "tactile_paving": "no"}}, {"type": "node", "id": 6287087755, "lat": 46.9040507, "lon": 11.9559091, "tags": {"bus": "yes", "highway": "bus_stop", "name": "Abzweigung Kematen - Bivio Caminata", "name:de": "Abzweigung Kematen", "name:it": "Bivio Caminata", "public_transport": "platform"}}, {"type": "node", "id": 6287087756, "lat": 46.9003092, "lon": 11.9510655, "tags": {"bus": "yes", "highway": "bus_stop", "name": "M\u00fchlen, Sportzone - Molini, Zona Sportiva", "name:de": "M\u00fchlen, Sportzone", "name:it": "Molini, Zona Sportiva", "public_transport": "platform"}}, {"type": "node", "id": 6287087758, "lat": 46.9013951, "lon": 11.9441556, "tags": {"bus": "yes", "highway": "bus_stop", "note": "no sign visible", "public_transport": "platform"}}, {"type": "node", "id": 6287087760, "lat": 46.9015298, "lon": 11.944038, "tags": {"bus": "yes", "highway": "bus_stop", "name": "Hotel Egitzhof", "public_transport": "platform"}}, {"type": "node", "id": 6289187963, "lat": 46.9778135, "lon": 11.937389, "tags": {"highway": "bus_stop", "name": "Sankt Johann, Steinpent - San Giovanni, Steinpent", "name:de": "Sankt Johann, Steinpent", "name:it": "San Giovanni, Steinpent", "public_transport": "platform"}}, {"type": "node", "id": 6289187964, "lat": 46.9782355, "lon": 11.9378797, "tags": {"bench": "no", "bin": "no", "highway": "bus_stop", "name": "Sankt Johann, Steinpent - San Giovanni, Steinpent", "name:de": "Sankt Johann, Steinpent", "name:it": "San Giovanni, Steinpent", "public_transport": "platform", "shelter": "no"}}, {"type": "node", "id": 6289187965, "lat": 46.9840965, "lon": 11.9481483, "tags": {"bench": "no", "bin": "no", "highway": "bus_stop", "lit": "no", "name": "Sankt Johann, Adler - San Giovanni, Adler", "name:de": "Sankt Johann, Adler", "name:it": "San Giovanni, Adler", "public_transport": "platform", "shelter": "no", "tactile_paving": "no"}}, {"type": "node", "id": 6289187967, "lat": 46.9907838, "lon": 11.9629947, "tags": {"bench": "no", "bin": "no", "highway": "bus_stop", "name": "M\u00fchlegg - Costa Molini", "name:de": "M\u00fchlegg", "name:it": "Costa Molini", "public_transport": "platform", "shelter": "no"}}, {"type": "node", "id": 6289187982, "lat": 46.9119749, "lon": 11.9616759, "tags": {"bench": "no", "bus": "yes", "highway": "bus_stop", "name": "Sand in Taufers, Cascade - Campo Tures, Cascade", "name:de": "Sand in Taufers, Cascade", "name:it": "Campo Tures, Cascade", "public_transport": "platform", "shelter": "no"}}, {"type": "node", "id": 6291587517, "lat": 46.9619436, "lon": 11.9200789, "tags": {"highway": "bus_stop", "public_transport": "platform", "shelter": "no"}}, {"type": "node", "id": 6291587519, "lat": 46.9817892, "lon": 11.9422827, "tags": {"bench": "yes", "bin": "no", "highway": "bus_stop", "lit": "no", "name": "Sankt Johann, Schachen - San Giovanni, Schachen", "name:de": "Sankt Johann, Schachen", "name:it": "San Giovanni, Schachen", "public_transport": "platform", "shelter": "no", "tactile_paving": "no"}}, {"type": "node", "id": 6295209965, "lat": 46.9208608, "lon": 11.9504736, "tags": {"bus": "yes", "highway": "bus_stop", "note": "no sign visible", "public_transport": "platform", "shelter": "no"}}, {"type": "node", "id": 6295209966, "lat": 46.9460168, "lon": 11.9231044, "tags": {"bench": "no", "bin": "no", "highway": "bus_stop", "lit": "yes", "name": "Hatzler", "name:de": "Hatzler", "public_transport": "platform", "shelter": "no", "tactile_paving": "no"}}, {"type": "node", "id": 6295209968, "lat": 46.9696023, "lon": 11.9294781, "tags": {"bench": "no", "bin": "no", "highway": "bus_stop", "lit": "no", "name": "Arzbach", "name:de": "Arzbach", "public_transport": "platform", "shelter": "no", "tactile_paving": "no"}}, {"type": "node", "id": 6295209972, "lat": 46.9872405, "lon": 11.9514683, "tags": {"bench": "no", "bin": "no", "highway": "bus_stop", "name": "H. Ahrntaler Hof", "public_transport": "platform", "shelter": "no"}}, {"type": "node", "id": 6447569941, "lat": 46.8790967, "lon": 11.7197621, "tags": {"bus": "yes", "highway": "bus_stop", "name": "Schaldern", "public_transport": "platform"}}, {"type": "node", "id": 6447569943, "lat": 46.8889943, "lon": 11.7081816, "tags": {"bus": "yes", "highway": "bus_stop", "name": "Alpenbar", "name:de": "Alpenbar", "public_transport": "platform"}}, {"type": "node", "id": 6489984713, "lat": 46.8430026, "lon": 11.7291276, "tags": {"bench": "yes", "highway": "bus_stop", "name": "Weitental, M\u00fcllerbr\u00fccke - Vallarga, Ponte M\u00fcller", "name:de": "Weitental, M\u00fcllerbr\u00fccke", "name:it": "Vallarga, Ponte M\u00fcller", "public_transport": "platform", "shelter": "no"}}, {"type": "node", "id": 6534710268, "lat": 46.775299, "lon": 11.9195511, "tags": {"bench": "yes", "highway": "bus_stop", "name": "Hurtm\u00fchle", "name:de": "Hurtm\u00fchle", "public_transport": "platform"}}, {"type": "node", "id": 6534710269, "lat": 46.7752914, "lon": 11.9192943, "tags": {"bench": "yes", "highway": "bus_stop", "name": "Hurtm\u00fchle", "name:de": "Hurtm\u00fchle", "public_transport": "platform", "shelter": "yes"}}, {"type": "node", "id": 6534710270, "lat": 46.7699633, "lon": 11.9239149, "tags": {"bench": "yes", "bus": "yes", "highway": "bus_stop", "name": "Stefansdorf, Abzweigung Reischach - Santo Stefano, Bivio Riscone", "name:de": "Stefansdorf, Abzweigung Reischach", "name:it": "Santo Stefano, Bivio Riscone", "public_transport": "platform"}}, {"type": "node", "id": 6534710271, "lat": 46.7700217, "lon": 11.9236821, "tags": {"bench": "yes", "bus": "yes", "highway": "bus_stop", "name": "Stefansdorf, Abzweigung Reischach - Santo Stefano, Bivio Riscone", "name:de": "Stefansdorf, Abzweigung Reischach", "name:it": "Santo Stefano, Bivio Riscone", "public_transport": "platform", "shelter": "yes"}}, {"type": "node", "id": 6534710274, "lat": 46.7712283, "lon": 11.9425664, "tags": {"bench": "yes", "bus": "yes", "highway": "bus_stop", "name": "Kabinenbahn Kronplatz - Cabinovia Plan de Corones", "name:de": "Kabinenbahn Kronplatz", "name:it": "Cabinovia Plan de Corones", "public_transport": "platform", "shelter": "yes"}}, {"type": "node", "id": 6770379580, "lat": 46.8148178, "lon": 11.7223786, "tags": {"bus": "yes", "highway": "bus_stop", "name": "Bahnhof", "public_transport": "platform", "ref": "1179", "shelter": "yes"}}, {"type": "node", "id": 7195988613, "lat": 46.7589571, "lon": 11.6383387, "tags": {"bench": "yes", "bus": "yes", "departures_board": "timetable", "highway": "bus_stop", "name": "Handwerkerzone Forch - Zona artigianale Forch", "name:de": "Handwerkerzone Forch", "name:it": "Zona artigianale Forch", "public_transport": "platform", "shelter": "yes"}}, {"type": "node", "id": 7256449831, "lat": 46.829891, "lon": 11.5364221, "tags": {"bench": "no", "bin": "no", "highway": "bus_stop", "name": "Mauls BBT - Mules BBT", "name:de": "Mauls BBT", "name:it": "Mules BBT", "public_transport": "platform", "shelter": "no", "tactile_paving": "no"}}, {"type": "node", "id": 7521871024, "lat": 46.8151984, "lon": 11.8821375, "tags": {"bench": "yes", "bin": "no", "bus": "yes", "highway": "bus_stop", "name": "Oberpfalzen, Sichelburgstra\u00dfe - Falzes di Sopra, Via Sichelburg", "name:de": "Oberpfalzen, Sichelburgstra\u00dfe", "name:it": "Falzes di Sopra, Via Sichelburg", "public_transport": "platform", "shelter": "yes", "tactile_paving": "no"}}, {"type": "node", "id": 7521871025, "lat": 46.8133392, "lon": 11.8805679, "tags": {"bench": "no", "bin": "no", "bus": "yes", "highway": "bus_stop", "lit": "no", "name": "Pfalzen, Grundschule - Falzes, Scuola Elementare", "name:de": "Pfalzen, Grundschule", "name:it": "Falzes, Scuola Elementare", "public_transport": "platform", "shelter": "no", "tactile_paving": "no"}}, {"type": "node", "id": 7521882351, "lat": 46.8117222, "lon": 11.8828669, "tags": {"bench": "no", "bin": "no", "bus": "yes", "departures_board": "yes", "highway": "bus_stop", "lit": "yes", "name": "Pfalzen, Rathaus - Falzes, Municipio", "name:de": "Pfalzen, Rathaus", "name:it": "Falzes, Municipio", "operator": "\u00d6ffentlich", "public_transport": "platform", "shelter": "no", "tactile_paving": "no"}}, {"type": "node", "id": 7521882370, "lat": 46.8169984, "lon": 11.8853147, "tags": {"bench": "yes", "bin": "yes", "bus": "yes", "highway": "bus_stop", "lit": "no", "name": "Oberpfalzen, Osn Platzl - Falzes di Sopra, Piazzetta Osn", "name:de": "Oberpfalzen, Osn Platzl", "name:it": "Falzes di Sopra, Piazzetta Osn", "public_transport": "platform", "shelter": "yes", "tactile_paving": "no"}}, {"type": "node", "id": 7796672523, "lat": 46.7848376, "lon": 11.9404855, "tags": {"highway": "bus_stop", "name": "Kaiserwarte", "name:de": "Kaiserwarte", "public_transport": "platform"}}, {"type": "node", "id": 7798840202, "lat": 46.8314148, "lon": 11.535821, "tags": {"bench": "no", "bin": "no", "highway": "bus_stop", "lit": "yes", "name": "Mauls BBT - Mules BBT", "name:de": "Mauls BBT", "name:it": "Mules BBT", "public_transport": "platform", "ref:IFOPT": "it:22021:3025:0:2884", "shelter": "no", "tactile_paving": "no"}}, {"type": "node", "id": 8060574873, "lat": 46.8903649, "lon": 11.8832261, "tags": {"bus": "yes", "highway": "bus_stop", "name": "Moarh\u00f6fe", "name:de": "Moarh\u00f6fe", "public_transport": "platform"}}, {"type": "node", "id": 8060574874, "lat": 46.8927525, "lon": 11.8971964, "tags": {"bus": "yes", "highway": "bus_stop", "name": "Bruggerbr\u00fccke - Ponte Brugger", "name:de": "Bruggerbr\u00fccke", "name:it": "Ponte Brugger", "public_transport": "platform"}}, {"type": "node", "id": 8060574875, "lat": 46.8890201, "lon": 11.8524239, "tags": {"bus": "yes", "highway": "bus_stop", "name": "M\u00fchlwald, Sportzone - Selva dei Molini, Zona Sportiva", "name:de": "M\u00fchlwald, Sportzone", "name:it": "Selva dei Molini, Zona Sportiva", "public_transport": "platform"}}, {"type": "node", "id": 8257940656, "lat": 47.0137991, "lon": 11.5070929, "tags": {"bus": "yes", "highway": "bus_stop", "name": "Brennersee Venntal", "network": "VVT", "network:wikidata": "Q1668732", "public_transport": "platform"}}, {"type": "node", "id": 8278607104, "lat": 46.8791141, "lon": 11.7195991, "tags": {"bench": "no", "bin": "no", "bus": "yes", "highway": "bus_stop", "lit": "no", "name": "Schaldern", "public_transport": "platform", "shelter": "no", "tactile_paving": "no"}}, {"type": "node", "id": 8572999478, "lat": 46.7526062, "lon": 11.6805572, "tags": {"bench": "yes", "bin": "yes", "highway": "bus_stop", "lit": "no", "name": "Natz, Kirche - Naz, Chiesa", "name:de": "Natz, Kirche", "public_transport": "platform", "shelter": "no", "tactile_paving": "no"}}, {"type": "node", "id": 8580816854, "lat": 46.7548741, "lon": 11.6815891, "tags": {"bench": "yes", "highway": "bus_stop", "name": "Vereinshaus - Casa della Cultura", "name:de": "Vereinshaus", "public_transport": "platform", "shelter": "yes"}}, {"type": "node", "id": 8632160854, "lat": 46.749938, "lon": 11.6591475, "tags": {"bench": "no", "bin": "no", "highway": "bus_stop", "lit": "yes", "name": "Raas - Rasa", "name:de": "Raas", "name:it": "Rasa", "public_transport": "platform", "shelter": "no", "tactile_paving": "no"}}, {"type": "node", "id": 8636299155, "lat": 46.7690483, "lon": 11.6655136, "tags": {"bench": "yes", "bin": "no", "highway": "bus_stop", "lit": "yes", "name": "Schabs, Zentrum - Sciaves, Centro", "name:de": "Schabs, Zentrum", "name:it": "Sciaves, Municipio", "passenger_information_display": "yes", "public_transport": "platform", "shelter": "yes", "tactile_paving": "no"}}, {"type": "node", "id": 8636299156, "lat": 46.7693803, "lon": 11.6654537, "tags": {"bench": "yes", "bin": "no", "highway": "bus_stop", "lit": "yes", "name": "Schabs, Zentrum - Sciaves, Centro", "name:de": "Schabs, Zentrum", "name:it": "Sciaves, Municipio", "public_transport": "platform", "shelter": "no", "tactile_paving": "no"}}, {"type": "node", "id": 8636681528, "lat": 46.7703278, "lon": 11.665794, "tags": {"highway": "bus_stop", "name": "Schabs, Rathaus - Sciaves, Municipio", "name:de": "Schabs, Rathaus", "name:it": "Sciaves, Municipio", "passenger_information_display": "yes", "public_transport": "platform"}}, {"type": "node", "id": 8637609417, "lat": 46.7975324, "lon": 11.6689063, "tags": {"bench": "no", "bin": "no", "highway": "bus_stop", "lit": "yes", "name": "M\u00fchlbach, Zentrum - Rio di Pusteria, Centro", "name:de": "M\u00fchlbach, Zentrum", "name:it": "Rio di Pusteria, Centro", "public_transport": "platform", "shelter": "no", "tactile_paving": "no"}}, {"type": "node", "id": 8637609418, "lat": 46.7973126, "lon": 11.6685986, "tags": {"bench": "yes", "bin": "yes", "highway": "bus_stop", "lit": "yes", "name": "M\u00fchlbach, Zentrum - Rio di Pusteria, Centro", "name:de": "M\u00fchlbach, Zentrum", "name:it": "Rio di Pusteria, Centro", "public_transport": "platform", "shelter": "yes", "tactile_paving": "no"}}, {"type": "node", "id": 8642696327, "lat": 46.7694345, "lon": 11.6537133, "tags": {"bench": "no", "bin": "no", "highway": "bus_stop", "lit": "no", "name": "Ladestatt Schabs - Ladestatt Sciaves", "name:de": "Ladestatt Schabs", "name:it": "Ladestatt Sciaves", "public_transport": "platform", "shelter": "no", "tactile_paving": "no"}}, {"type": "node", "id": 8647480269, "lat": 46.7446965, "lon": 11.6972557, "tags": {"highway": "bus_stop", "name": "Walder", "name:de": "Walder", "public_transport": "platform"}}, {"type": "node", "id": 8647480270, "lat": 46.7454189, "lon": 11.6968808, "tags": {"highway": "bus_stop", "name": "Walder", "name:de": "Walder", "public_transport": "platform"}}, {"type": "node", "id": 8648287656, "lat": 46.7589149, "lon": 11.6665672, "tags": {"bench": "yes", "bin": "no", "highway": "bus_stop", "lit": "no", "name": "Fl\u00f6tscher Weiher", "name:de": "Fl\u00f6tscher Weiher", "public_transport": "platform", "shelter": "yes", "tactile_paving": "no"}}, {"type": "node", "id": 8648287660, "lat": 46.7595943, "lon": 11.6657099, "tags": {"bench": "no", "bin": "no", "highway": "bus_stop", "lit": "no", "name": "Fl\u00f6tscher Weiher", "name:de": "Fl\u00f6tscher Weiher", "public_transport": "platform", "shelter": "no", "tactile_paving": "no"}}, {"type": "node", "id": 8648731846, "lat": 46.763557, "lon": 11.6605067, "tags": {"bench": "no", "bin": "no", "bus": "yes", "highway": "bus_stop", "lit": "yes", "name": "Gewerbezone F\u00f6rche - Zona Produttiva F\u00f6rche", "name:de": "Gewerbezone F\u00f6rche", "name:it": "Zona Produttiva F\u00f6rche", "public_transport": "platform", "shelter": "yes", "tactile_paving": "no"}}, {"type": "node", "id": 8669826083, "lat": 46.7891042, "lon": 11.6106334, "tags": {"bench": "yes", "bin": "yes", "bus": "yes", "highway": "bus_stop", "lit": "yes", "name": "Franzensfeste, Bahnhof - Fortezza, Stazione", "name:de": "Franzensfeste, Bahnhof", "name:it": "Fortezza, Stazione", "public_transport": "platform", "shelter": "yes", "tactile_paving": "no", "wheelchair": "yes"}}, {"type": "node", "id": 8669826084, "lat": 46.7844224, "lon": 11.6146047, "tags": {"bench": "yes", "bin": "no", "bus": "yes", "highway": "bus_stop", "lit": "no", "name": "Franzensfeste, Marconiplatz - Fortezza, Piazza Marconi", "name:de": "Franzensfeste, Marconiplatz", "name:it": "Fortezza, Piazza Marconi", "public_transport": "platform", "shelter": "yes", "tactile_paving": "no"}}, {"type": "node", "id": 8669826085, "lat": 46.7843145, "lon": 11.6144042, "tags": {"bench": "yes", "bin": "yes", "bus": "yes", "highway": "bus_stop", "lit": "no", "name": "Franzensfeste, Marconiplatz - Fortezza, Piazza Marconi", "name:de": "Franzensfeste, Marconiplatz", "name:it": "Fortezza, Piazza Marconi", "public_transport": "platform", "shelter": "yes", "tactile_paving": "no"}}, {"type": "node", "id": 8669826110, "lat": 46.7761399, "lon": 11.6417588, "tags": {"bench": "yes", "highway": "bus_stop", "name": "Aicha, Kirche - Aica, Chiesa", "name:de": "Aicha, Kirche", "name:it": "Aica, Chiesa", "passenger_information_display": "yes", "public_transport": "platform", "ref:IFOPT": "it:22021:1166:0:7895"}}, {"type": "node", "id": 8669826111, "lat": 46.7763617, "lon": 11.6417534, "tags": {"highway": "bus_stop", "name": "Aicha, Kirche - Aica, Chiesa", "name:de": "Aicha, Kirche", "name:it": "Aica, Chiesa", "public_transport": "platform"}}, {"type": "node", "id": 8669978880, "lat": 46.8529284, "lon": 11.5175568, "tags": {"bench": "no", "bin": "no", "highway": "bus_stop", "lit": "yes", "name": "Mauls - Mules", "name:de": "Mauls", "name:it": "Mules", "public_transport": "platform", "shelter": "no", "tactile_paving": "no"}}, {"type": "node", "id": 8669978881, "lat": 46.8528712, "lon": 11.5173582, "tags": {"bench": "yes", "bin": "no", "highway": "bus_stop", "lit": "no", "name": "Mauls - Mules", "name:de": "Mauls", "name:it": "Mules", "public_transport": "platform", "shelter": "yes", "tactile_paving": "no"}}, {"type": "node", "id": 8669978883, "lat": 46.8183306, "lon": 11.5390972, "tags": {"bench": "yes", "bin": "yes", "highway": "bus_stop", "name": "Grasstein - Le Cave", "name:de": "Grasstein", "name:it": "Le Cave", "public_transport": "platform", "shelter": "yes"}}, {"type": "node", "id": 8669978884, "lat": 46.8179323, "lon": 11.5395351, "tags": {"bench": "yes", "covered": "yes", "highway": "bus_stop", "name": "Grasstein - Le Cave", "name:de": "Grasstein", "name:it": "Le Cave", "public_transport": "platform", "shelter": "yes"}}, {"type": "node", "id": 8669978885, "lat": 46.8079321, "lon": 11.5740953, "tags": {"highway": "bus_stop", "name": "Mittewald - Mezzaselva", "name:de": "Mittewald", "name:it": "Mezzaselva", "public_transport": "platform"}}, {"type": "node", "id": 8669978886, "lat": 46.8081175, "lon": 11.5738707, "tags": {"highway": "bus_stop", "name": "Mittewald - Mezzaselva", "name:de": "Mittewald", "name:it": "Mezzaselva", "public_transport": "platform"}}, {"type": "node", "id": 8669978888, "lat": 46.7967392, "lon": 11.6045894, "tags": {"bench": "yes", "highway": "bus_stop", "name": "Oberau - Pradisopra", "name:de": "Oberau", "name:it": "Pradisopra", "public_transport": "platform", "shelter": "yes", "tactile_paving": "no"}}, {"type": "node", "id": 8669978889, "lat": 46.7966745, "lon": 11.6040784, "tags": {"highway": "bus_stop", "name": "Oberau - Pradisopra", "name:de": "Oberau", "name:it": "Pradisopra", "public_transport": "platform", "tactile_paving": "no"}}, {"type": "node", "id": 8669978891, "lat": 46.7930845, "lon": 11.6081352, "tags": {"bench": "yes", "bin": "yes", "highway": "bus_stop", "lit": "yes", "name": "Franzensfeste, Sams - Fortezza, Sams", "name:de": "Franzensfeste, Sams", "name:it": "Fortezza, Sams", "public_transport": "platform", "shelter": "yes", "tactile_paving": "no"}}, {"type": "node", "id": 8669978893, "lat": 46.792477, "lon": 11.6097519, "tags": {"bench": "no", "bin": "no", "highway": "bus_stop", "lit": "yes", "name": "Franzensfeste, Sams - Fortezza, Sams", "name:de": "Franzensfeste, Sams", "name:it": "Fortezza, Sams", "public_transport": "platform", "shelter": "no", "tactile_paving": "no"}}, {"type": "node", "id": 8673030999, "lat": 46.7590162, "lon": 11.6381136, "tags": {"bus": "yes", "departures_board": "timetable", "highway": "bus_stop", "name": "Handwerkerzone Forch - Zona artigianale Forch", "name:de": "Handwerkerzone Forch", "name:it": "Zona artigianale Forch", "public_transport": "platform", "shelter": "yes"}}, {"type": "node", "id": 8676312533, "lat": 46.7950159, "lon": 11.9291896, "tags": {"highway": "bus_stop", "name": "Stegener Marktplatz - Piazza Mercato di Stegona", "name:de": "Stegener Marktplatz", "name:it": "Piazza Mercato di Stegona", "public_transport": "platform", "route_ref": "420.3"}}, {"type": "node", "id": 8679425178, "lat": 46.8950744, "lon": 11.4450791, "tags": {"highway": "bus_stop", "name": "Am Moosfeld - Campo Pal\u00fa", "name:de": "Am Moosfeld", "name:it": "Campo Pal\u00fa", "public_transport": "platform"}}, {"type": "node", "id": 8682298763, "lat": 46.7817289, "lon": 11.8909454, "tags": {"highway": "bus_stop", "name": "Pflaurenz - Floronzo", "name:de": "Pflaurenz", "name:it": "Floronzo", "public_transport": "platform"}}, {"type": "node", "id": 8682298768, "lat": 46.7724398, "lon": 11.8678408, "tags": {"bench": "no", "bin": "no", "highway": "bus_stop", "name": "Abzweigung Montal - Bivio Montana", "name:de": "Abzweigung Montal", "name:it": "Bivio Montana", "name:lld": "Burcia Mant\u00ebna", "public_transport": "platform", "shelter": "no", "source": "https://www.sii.bz.it/de"}}, {"type": "node", "id": 8684297816, "lat": 46.7939752, "lon": 11.9328254, "tags": {"bench": "no", "bin": "yes", "highway": "bus_stop", "lit": "yes", "name": "Bruneck, Michael-Pacher-Stra\u00dfe - Brunico, Via Michael Pacher", "name:de": "Bruneck, Michael-Pacher-Stra\u00dfe", "name:it": "Brunico, Via Michael Pacher", "public_transport": "platform", "shelter": "no", "tactile_paving": "no"}}, {"type": "node", "id": 8684391417, "lat": 46.7942001, "lon": 11.9330862, "tags": {"bench": "no", "bin": "no", "highway": "bus_stop", "lit": "yes", "name": "Bruneck, Michael-Pacher-Stra\u00dfe - Brunico, Via Michael Pacher", "name:de": "Bruneck, Michael-Pacher-Stra\u00dfe", "name:it": "Brunico, Via Michael Pacher", "public_transport": "platform", "shelter": "no", "tactile_paving": "no"}},