{"version": 0.6, "generator": "Overpass API 0.7.62.10 2d4cfc48", "osm3s": {"timestamp_osm_base": "2026-02-08T12:52:26Z", "copyright": "The data included in this document is from www.openstreetmap.org. The data is made available under ODbL."}, "elements": [{"type": "node", "id": 334743923, "lat": 46.3021572, "lon": 10.8105073, "tags": {"amenity": "pharmacy", "dispensing": "yes", "drive_through": "no", "healthcare": "pharmacy", "name": "Farmacia Gallina", "operator": "Dispensario Dott.ssa Gallina Franca", "ref:msal": "17592", "ref:vatin": "IT01376430227"}}, {"type": "node", "id": 613869965, "lat": 46.3310784, "lon": 10.8780915, "tags": {"addr:housenumber": "82", "addr:postcode": "38020", "addr:street": "Via Brescia", "amenity": "pharmacy", "dispensing": "yes", "operator": "Tomasi Dott.ssa Monica", "ref:msal": "4232", "ref:vatin": "IT01448870228", "source": "Ministero della Salute", "source:start_date": "2005-01-01"}}, {"type": "node", "id": 1100568047, "lat": 46.3113252, "lon": 10.7572486, "tags": {"addr:city": "Pellizzano", "addr:housenumber": "48", "addr:street": "Via Nazionale", "amenity": "pharmacy", "dispensing": "yes", "healthcare": "pharmacy", "name": "Gallina", "operator": "Gallina Franca", "ref:msal": "4227", "ref:vatin": "IT01376430227"}}, {"type": "node", "id": 1840041805, "lat": 46.2988561, "lon": 10.6927744, "tags": {"amenity": "pharmacy", "dispensing": "yes", "healthcare": "pharmacy"}}, {"type": "node", "id": 3028910043, "lat": 46.0519741, "lon": 10.8544948, "tags": {"addr:city": "Stenico", "addr:housenumber": "13", "addr:postcode": "38070", "addr:street": "Piazza Dante Alighieri", "amenity": "pharmacy", "dispensing": "yes", "healthcare": "pharmacy", "ref:vatin": "02164930220"}}, {"type": "node", "id": 3265198856, "lat": 46.3510072, "lon": 10.6935363, "tags": {"addr:housenumber": "9", "addr:street": "via delle Roge", "amenity": "pharmacy", "dispensing": "yes", "name": "Farmacia Dr. Carla Bourlot", "operator": "Bourlot Carla", "ref:msal": "4263", "ref:vatin": "IT01638350221", "source": "Ministero della Salute", "source:start_date": "2013-03-01"}}, {"type": "node", "id": 3715080105, "lat": 46.1010416, "lon": 10.7362286, "tags": {"addr:housenumber": "83", "addr:street": "Strada Statale 239 di Campiglio", "amenity": "pharmacy", "healthcare": "pharmacy", "name": "Dott. Cattani"}}, {"type": "node", "id": 4123995194, "lat": 46.3159016, "lon": 10.8016006, "tags": {"addr:city": "Mezzana", "addr:housenumber": "48", "addr:postcode": "38020", "addr:street": "Via Quattro Novembre", "amenity": "pharmacy", "dispensing": "yes", "healthcare": "pharmacy", "name": "Farmacia Gallina", "operator": "Succursale Gallina Franca", "ref:msal": "17591", "ref:vatin": "IT01376430227"}}, {"type": "node", "id": 4654517956, "lat": 46.1601535, "lon": 10.7654611, "tags": {"addr:street": "Viale della pace", "amenity": "pharmacy", "check_date": "2024-08-16", "healthcare": "pharmacy", "name": "Farmacia Scaglia"}}, {"type": "node", "id": 5550768235, "lat": 46.2488033, "lon": 10.4479691, "tags": {"amenity": "pharmacy", "dispensing": "yes", "healthcare": "pharmacy"}}, {"type": "node", "id": 5777509063, "lat": 46.2604482, "lon": 10.5094526, "tags": {"addr:city": "Ponte di Legno", "addr:housenumber": "1", "addr:postcode": "25056", "addr:street": "Corso Milano", "amenity": "pharmacy", "check_date": "2025-07-17", "dispensing": "yes", "healthcare": "pharmacy", "name": "Farmacia Dr. Petroboni"}}, {"type": "node", "id": 5840514317, "lat": 46.2592562, "lon": 10.5851467, "tags": {"amenity": "pharmacy", "dispensing": "yes", "healthcare": "pharmacy", "name": "Farmacia Vermiglio Succ. Tonale Ascanio Dr. Gianluca"}}, {"type": "node", "id": 6110501275, "lat": 46.2485915, "lon": 10.4684209, "tags": {"amenity": "pharmacy", "dispensing": "yes", "healthcare": "pharmacy", "name": "Farmacia dello Sportivo"}}, {"type": "node", "id": 6113756462, "lat": 46.255703, "lon": 10.5140612, "tags": {"amenity": "pharmacy", "dispensing": "yes", "healthcare": "pharmacy"}}, {"type": "node", "id": 6135283574, "lat": 46.3260432, "lon": 10.8740406, "tags": {"addr:city": "Dimaro", "addr:postcode": "38025", "amenity": "pharmacy", "dispensing": "yes", "healthcare": "pharmacy"}}, {"type": "node", "id": 9505680148, "lat": 46.3036489, "lon": 10.8599736, "tags": {"amenity": "pharmacy", "dispensing": "yes", "healthcare": "pharmacy"}}, {"type": "node", "id": 9975278837, "lat": 46.232034, "lon": 10.8253779, "tags": {"amenity": "pharmacy", "dispensing": "yes", "healthcare": "pharmacy", "name": "Farmacia Bretta Dr. Giorgio&Co", "opening_hours": "Mo-Sa 08:30-12:30,15:30-19:30; PH,Su 09:30-12:00,17:00-19:00", "wheelchair": "yes"}}, {"type": "node", "id": 13009533243, "lat": 46.256292, "lon": 10.5095273, "tags": {"amenity": "pharmacy", "check_date": "2025-07-17", "dispensing": "no", "drive_through": "no", "healthcare": "pharmacy", "name": "Parafarmacia Ponte Di Legno"}}]}