{"version": 0.6, "generator": "Overpass API 0.7.62.10 2d4cfc48", "osm3s": {"timestamp_osm_base": "2026-02-08T12:49:15Z", "copyright": "The data included in this document is from www.openstreetmap.org. The data is made available under ODbL."}, "elements": [{"type": "node", "id": 302412631, "lat": 46.6406144, "lon": 11.6843202, "tags": {"amenity": "pharmacy", "name": "Medikamentenausgabestelle Villn\u00f6\u00df", "opening_hours": "Mo 08:30-13:00, 15:00-18:30; Tu, We, Fr 08:30-12:30; Th 15:00-18:30", "ref:msal": "18129", "ref:vatin": "IT02969630215", "start_date": "2018-04-01", "wheelchair": "yes"}}, {"type": "node", "id": 335688718, "lat": 46.5876553, "lon": 11.9033572, "tags": {"addr:city": "La Villa in Badia", "addr:housenumber": "15", "addr:postcode": "39036", "addr:street": "Strada Colz", "amenity": "pharmacy", "check_date": "2024-01-30", "dispensing": "yes", "fax": "+39 0471 847709", "healthcare": "pharmacy", "name": "Farmacia Dr. Ferigo", "operator": "Farmacia Apotheke Apoteca Alta Badia SNC de dr Marisa Ferigo & C.", "phone": "+39 0471 847152", "ref:vatin": "IT02932630219", "website": "https://apotecaaltabadia.com/"}}, {"type": "node", "id": 420205281, "lat": 46.6675149, "lon": 11.5959427, "tags": {"amenity": "pharmacy", "name": "Arkaden", "opening_hours": "Mo-Fr 08:10-12:30, Mo-We,Fr 15:00-18:50, Sa 09:00-12:00"}}, {"type": "node", "id": 471843071, "lat": 46.720913, "lon": 11.652782, "tags": {"amenity": "pharmacy", "dispensing": "yes", "name": "Am Rosslauf", "opening_hours": "Mo-Fr 08:00-12:30,14:00-19:00; Sa 08:00-12:30", "ref:msal": "4131", "ref:vatin": "IT03013630219"}}, {"type": "node", "id": 618765019, "lat": 46.5536343, "lon": 11.7604921, "tags": {"addr:city": "S\u00eblva - Wolkenstein in Gr\u00f6den - Selva di Val Gardena", "addr:housenumber": "246", "addr:postcode": "39048", "addr:street": "Streda M\u00ebisules", "amenity": "pharmacy", "dispensing": "yes", "name": "Dolomiten - Dolomiti", "operator": "Berdou Pascal", "ref:msal": "4048", "ref:vatin": "IT02363180213", "source": "Ministero della Salute", "website": "https://www.valgardena.it/en/addresses/detail/base/poi/selva-val-gardena/pharmacy-dolomiti-dr-berdou/9B0EE6E52FB0A301F7AD6C84E70AE000/"}}, {"type": "node", "id": 666122569, "lat": 46.497979, "lon": 11.8736918, "tags": {"amenity": "pharmacy", "healthcare": "pharmacy", "name": "Farmacia di Arabba e Livinallongo snc"}}, {"type": "node", "id": 724349510, "lat": 46.4303502, "lon": 11.6895844}, {"type": "node", "id": 724349518, "lat": 46.4302982, "lon": 11.6897906}, {"type": "node", "id": 724349528, "lat": 46.4302117, "lon": 11.6895109}, {"type": "node", "id": 724349540, "lat": 46.4301597, "lon": 11.6897171}, {"type": "node", "id": 767946656, "lat": 46.7092117, "lon": 11.6610688, "tags": {"addr:city": "Brixen - Bressanone", "addr:city:de": "Brixen", "addr:city:it": "Bressanone", "addr:housenumber": "2b", "addr:postcode": "39042", "addr:street": "Millander Au - Pra Millan", "addr:street:de": "Millander Au", "addr:street:it": "Pra Millan", "amenity": "pharmacy", "contact:phone": "+39 0472 833038", "healthcare": "pharmacy", "name": "Franziskusapotheke - Farmacia Franziskus", "name:de": "Franziskusapotheke", "name:it": "Farmacia Franziskus", "ref:msal": "4134", "ref:vatin": "IT02383410210", "source": "https://www.farmaciafranziskus.com/"}}, {"type": "node", "id": 939347758, "lat": 46.6409975, "lon": 11.566952, "tags": {"amenity": "pharmacy", "dispensing": "yes", "name": "Stadtapotheke", "opening_hours": "Mo-Fr 08:00-12:30,15:00-19:00; Sa 08:00-12:00", "operator": "Aichner J\u00f6rg", "ref:msal": "4136", "ref:vatin": "IT01385210214", "source": "Ministero della Salute", "source:start_date": "2008-01-01", "wheelchair": "yes"}}, {"type": "node", "id": 1229166753, "lat": 46.4301715, "lon": 11.6896703, "tags": {"addr:city": "Pozza di Fassa", "addr:country": "IT", "addr:housenumber": "47", "addr:postcode": "38036", "addr:street": "Strada de Meida"}}, {"type": "node", "id": 1623822121, "lat": 46.5470581, "lon": 11.8747414, "tags": {"amenity": "pharmacy", "check_date": "2023-09-21", "healthcare": "pharmacy", "name": "Farmacia - Apotheke"}}, {"type": "node", "id": 1659559803, "lat": 46.716406, "lon": 11.6553783, "tags": {"addr:city": "Brixen - Bressanone", "addr:city:de": "Brixen", "addr:city:it": "Bressanone", "addr:housenumber": "2", "addr:postcode": "39042", "addr:street": "Kleine Lauben - Via Portici Minori", "addr:street:de": "Kleine Lauben", "addr:street:it": "Via Portici Minori", "amenity": "pharmacy", "dispensing": "yes", "healthcare": "pharmacy", "name": "F\u00fcrstbisch\u00f6fliche Hofapotheke - Farmacia Vescovile", "name:de": "F\u00fcrstbisch\u00f6fliche Hofapotheke", "name:it": "Farmacia Vescovile", "opening_hours": "Mo-Fr 08:00-12:30,14:00-18:30; Sa 08:00-12:30", "ref:msal": "4137", "ref:vatin": "IT02517410219", "website": "https://www.farmaciavescovile.it/la-farmacia"}}, {"type": "node", "id": 1722140780, "lat": 46.5741921, "lon": 11.6740503, "tags": {"addr:city": "Urtij\u00ebi - St.Ulrich - Ortisei", "addr:housenumber": "73B", "addr:postcode": "39046", "addr:street": "Piazza Rezia", "amenity": "pharmacy", "email": "ferdinando.gross@farmarete.it", "healthcare": "pharmacy", "name": "Pharmacy Sella", "name:de": "Apotheke Sella", "name:it": "Farmacia Sella", "phone": "+39 0471 796125", "website": "https://www.valgardena.it/en/addresses/detail/base/poi/ortisei-val-gardena/pharmacy-sella/3FE8730FCED94A9186754E08840FA435/"}}, {"type": "node", "id": 1844483768, "lat": 46.6087457, "lon": 11.5651295, "tags": {"addr:housenumber": "30c", "addr:postcode": "39040", "addr:street": "Walther-von-der-Vogelweide-Stra\u00dfe", "amenity": "pharmacy", "dispensing": "yes", "name": "Apotheke Lajen - Farmacia Laion", "name:de": "Apotheke Lajen", "name:it": "Farmacia Laion", "opening_hours": "Mo 09:00-13:00, 14:00-18:30; Tu 09:00-12:30, 13:30-18:00; We 09:00-12:30; Th-Fr 09:00-13:00, 14:00-18:00; Sa 09:00-12:00", "operator": "Ricoldo Christian", "phone": "+39 0471 655864", "ref:msal": "18190", "ref:vatin": "IT02568910216", "wheelchair": "yes"}}, {"type": "node", "id": 1896192972, "lat": 46.4137332, "lon": 11.4256991, "tags": {"amenity": "pharmacy", "dispensing": "yes", "fax": "+39 0471 616 505", "healthcare": "pharmacy", "name": "Apotheke Deutschnofen", "opening_hours": "Mo-We,Fr 07:50-12:10,15:30-19:00; Th,Sa 07:50-12:10", "operator": "Moroder Fabio", "phone": "+39 0471 616 393", "ref:msal": "4057", "ref:vatin": "IT01042550218", "source": "Ministero della Salute", "source:start_date": "2005-01-01"}}, {"type": "node", "id": 2454263889, "lat": 46.5710389, "lon": 11.9317115, "tags": {"amenity": "pharmacy"}}, {"type": "node", "id": 2460663335, "lat": 46.6883421, "lon": 11.8944513}, {"type": "node", "id": 2460663338, "lat": 46.6884082, "lon": 11.8945752}, {"type": "node", "id": 2460663341, "lat": 46.688457, "lon": 11.8943211}, {"type": "node", "id": 2460663342, "lat": 46.6884688, "lon": 11.8943432}, {"type": "node", "id": 2460663346, "lat": 46.6885052, "lon": 11.8943018}, {"type": "node", "id": 2460663351, "lat": 46.6885595, "lon": 11.8944036}, {"type": "node", "id": 2715433391, "lat": 46.567255, "lon": 11.5601193, "tags": {"addr:city": "Kastelruth - Castelrotto", "addr:housenumber": "6b", "addr:postcode": "39040", "addr:street": "Oswald-von-Wolkenstein-Stra\u00dfe - Via Oswald von Wolkenstein", "addr:street:de": "Oswald-von-Wolkenstein-Stra\u00dfe", "addr:street:it": "Via Oswald von Wolkenstein", "amenity": "pharmacy", "check_date:opening_hours": "2025-06-20", "dispensing": "yes", "fax": "+39 0471 710034", "healthcare": "pharmacy", "name": "Apotheke Schlern", "opening_hours": "Mo-Sa 08:30-12:30,15:00-19:00; Su 09:00-12:30", "operator": "Ploner Peter", "phone": "+39 0471 706323", "ref:msal": "4067", "ref:vatin": "IT02334570211", "source": "Ministero della Salute", "source:start_date": "2013-03-01", "website": "https://www.farmaciaschlernapotheke.it/", "wheelchair": "yes"}}, {"type": "node", "id": 2749635109, "lat": 46.6992712, "lon": 11.6757996, "tags": {"addr:city": "Brixen - Bressanone", "addr:city:de": "Brixen", "addr:city:it": "Bressanone", "addr:hamlet": "St. Andr\u00e4 - Sant'Andrea in Monte", "addr:hamlet:de": "St. Andr\u00e4", "addr:hamlet:it": "Sant'Andrea in Monte", "addr:housenumber": "27a", "addr:postcode": "39042", "addr:street": "Dorfstra\u00dfe - Via Centrale", "addr:street:de": "Dorfstra\u00dfe", "addr:street:it": "Via Centrale", "amenity": "pharmacy", "healthcare": "pharmacy", "name": "Apotheke Plose-Farmacia Plose", "name:de": "Apotheke Plose", "name:it": "Farmacia Plose", "operator": "Lecis Maurizio", "ref:msal": "20940", "ref:vatin": "IT03161240217", "start_date": "2022-06-01"}}, {"type": "node", "id": 2749636219, "lat": 46.7166182, "lon": 11.6583402, "tags": {"addr:city": "Brixen - Bressanone", "addr:city:de": "Brixen", "addr:city:it": "Bressanone", "addr:housenumber": "4", "addr:postcode": "39042", "addr:street": "Adlerbr\u00fcckengasse - Via Ponte Aquila", "addr:street:de": "Adlerbr\u00fcckengasse", "addr:street:it": "Via Ponte Aquila", "amenity": "pharmacy", "check_date:opening_hours": "2020-10-18", "dispensing": "yes", "healthcare": "pharmacy", "lastcheck": "2018-08-30", "name": "Peer", "opening_hours": "Mo-Fr 08:00-13:00,14:00-19:00; Sa 08:00-13:00,14:00-18:00", "ref:msal": "4133", "ref:vatin": "IT02523960215", "wheelchair": "yes"}}, {"type": "node", "id": 2755695708, "lat": 46.5405946, "lon": 11.6192422, "tags": {"addr:city": "Kastelruth - Castelrotto", "addr:city:de": "Kastelruth", "addr:city:it": "Castelrotto", "addr:hamlet": "Seiser Alm - Alpe di Siusi", "addr:hamlet:de": "Seiser Alm", "addr:hamlet:it": "Alpe di Siusi", "addr:housenumber": "28", "addr:postcode": "39040", "addr:street": "Compatsch", "amenity": "pharmacy", "dispensing": "no", "operator": "Parafarmacia Alpenfarma di Dr. Triani Rocco", "ref:msal": "015556", "ref:vatin": "IT03139460210", "source": "Ministero della Salute", "source:start_date": "2022-02-01"}}, {"type": "node", "id": 2755940451, "lat": 46.5364917, "lon": 11.4632463, "tags": {"addr:city": "Ritten - Renon", "addr:city:de": "Ritten", "addr:city:it": "Renon", "addr:hamlet": "Klobenstein - Collalbo", "addr:hamlet:de": "Klobenstein", "addr:hamlet:it": "Collalbo", "addr:housenumber": "21", "addr:postcode": "39054", "addr:street": "Dorfstra\u00dfe - Via del Paese", "addr:street:de": "Dorfstra\u00dfe", "addr:street:it": "Via del Paese", "amenity": "pharmacy", "dispensing": "no", "email": "farmaciadelrenon@libero.it", "name": "Apotheke Klobenstein - Farmacia del Renon", "name:de": "Apotheke Klobenstein", "name:it": "Farmacia del Renon", "opening_hours": "Mo-Fr 08:00-12:00,15:00-19:00; Sa 08:00-12:00", "operator": "Parafarmacia del Renon", "phone": "+39 0471 356108", "ref:msal": "013664", "ref:vatin": "IT03006760213", "source": "Ministero della Salute", "source:start_date": "2018-09-01"}}, {"type": "node", "id": 2756054324, "lat": 46.7378808, "lon": 11.639994, "tags": {"addr:city": "Vahrn - Varna", "addr:city:de": "Vahrn", "addr:city:it": "Varna", "addr:housenumber": "101", "addr:postcode": "39040", "addr:street": "Brennerstra\u00dfe - Via Brennero", "addr:street:de": "Brennerstra\u00dfe", "addr:street:it": "Via Brennero", "amenity": "pharmacy", "dispensing": "yes", "email": "farmaciadellerose@gmail.com", "healthcare": "pharmacy", "name": "Rosenapotheke", "name:de": "Rosenapotheke", "name:it": "Farmacia delle Rose", "opening_hours": "Mo-Fr 08:30-12:30,15:00-19:00", "operator": "Destefani Barbara", "payment:cash": "yes", "payment:mastercard": "yes", "payment:visa": "yes", "phone": "+39 0472 201255", "ref:msal": "4130", "ref:vatin": "IT02833650217", "website": "https://www.farmaciadellerose.it/", "wheelchair": "yes"}}, {"type": "node", "id": 5704712309, "lat": 46.5986279, "lon": 11.5292132, "tags": {"amenity": "pharmacy", "dispensing": "yes", "healthcare": "pharmacy", "operator": "Fink Ruth", "ref:msal": "18135", "ref:vatin": "IT02555720214"}}, {"type": "node", "id": 5705065722, "lat": 46.7006121, "lon": 11.9311057, "tags": {"amenity": "pharmacy", "dispensing": "yes", "fax": "+39 0474 506676", "healthcare": "pharmacy", "name": "Karbacher", "opening_hours": "Mo-Fr 08:15-12:15,15:00-19:00; Sa 08:15-12:15", "operator": "Karbacher Johann e C. S.N.C.", "phone": "+39 0474 501240", "ref:msal": "4149", "ref:vatin": "IT02462720216", "website": "http://www.farmaciasanvigilio.it/"}}, {"type": "node", "id": 5705162473, "lat": 46.5445345, "lon": 11.5612782, "tags": {"addr:city": "Seis am Schlern - Siusi allo Sciliar", "addr:housenumber": "9b", "addr:postcode": "39040", "addr:street": "Santnerstra\u00dfe - Via Santner", "amenity": "pharmacy", "dispensing": "yes", "healthcare": "pharmacy", "name": "Vitalis", "name:de": "Vitalis Apotheke", "name:it": "Farmacia Vitalis", "opening_hours": "Mo-We 08:30-12:30,15:00-19:00; Th 08:30-12:30; Fr 09:00-17:00", "operator": "Dott.ssa Zorzi Patrizia", "phone": "+39 0471 708970", "ref:msal": "4157", "ref:vatin": "IT02304470210", "website": "https://www.farmaciavitalis.it/", "wheelchair": "yes"}}, {"type": "node", "id": 5771608453, "lat": 46.558662, "lon": 11.7263584, "tags": {"amenity": "pharmacy", "dispensing": "yes", "healthcare": "pharmacy", "name": "S. Elisabeth", "operator": "Grossrubatscher K.", "ref:msal": "4056", "ref:vatin": "IT01145240212"}}, {"type": "node", "id": 5779057157, "lat": 46.7096905, "lon": 11.6515244, "tags": {"amenity": "pharmacy", "dispensing": "yes", "healthcare": "pharmacy", "level": "0", "name": "Mozart", "name:de": "Mozart-Apotheke", "name:it": "Farmacia Mozart", "opening_hours": "Mo-Fr 08:00-13:00,15:00-19:00; Sa 08:00-13:00, 15:00-18:00; Su off", "ref:msal": "19794", "ref:vatin": "IT02969630215"}}, {"type": "node", "id": 5784808766, "lat": 46.4307073, "lon": 11.541854, "tags": {"addr:city": "Welschnofen - Nova Levante", "addr:city:de": "Welschnofen", "addr:city:it": "Nova Levante", "addr:country": "IT", "addr:housenumber": "1", "addr:postcode": "39056", "addr:street": "Romstra\u00dfe - Via Roma", "addr:street:de": "Romstra\u00dfe", "addr:street:it": "Via Roma", "amenity": "pharmacy", "contact:email": "pharmalatemar@gmail.com", "contact:facebook": "https://facebook.com/Farmacia-Latemar-Apotheke-513881718669964", "contact:phone": "+39 0471 613254", "dispensing": "yes", "name": "Apotheke Latemar - Farmacia Latemar", "name:de": "Apotheke Latemar", "name:it": "Farmacia Latemar", "opening_hours": "Mo-Sa 08:00-12:20; Mo-Tu,Th-Fr 15:00-19:00", "operator": "Apotheke Latemar O.H.G. Des Michele Casciaro & C.", "ref:msal": "4061", "ref:vatin": "IT02592000216", "source": "Ministero della Salute", "source:start_date": "2013-03-01"}}, {"type": "node", "id": 5923773513, "lat": 46.51859, "lon": 11.5045243, "tags": {"addr:city": "V\u00f6ls am Schlern - Fi\u00e8 allo Sciliar", "addr:city:de": "V\u00f6ls am Schlern", "addr:city:it": "Fi\u00e8 allo Sciliar", "addr:hamlet": "Oberv\u00f6ls - Fi\u00e8 di Sopra", "addr:hamlet:de": "Oberv\u00f6ls", "addr:hamlet:it": "Fi\u00e8 di Sopra", "addr:housenumber": "3", "addr:postcode": "39050", "addr:street": "Bozner Stra\u00dfe - Via Bolzano", "addr:street:de": "Bozner Stra\u00dfe", "addr:street:it": "Via Bolzano", "amenity": "pharmacy", "dispensing": "yes", "healthcare": "pharmacy", "name": "Marienapotheke - S. Maria", "name:de": "Marienapotheke", "name:it": "S. Maria", "operator": "Runggaldier Eva", "phone": "+39 0471 725373", "ref:msal": "4097", "ref:vatin": "IT01483550214", "wheelchair": "yes"}}, {"type": "node", "id": 6256572711, "lat": 46.477323, "lon": 11.7702598, "tags": {"amenity": "pharmacy", "dispensing": "yes", "healthcare": "pharmacy", "name": "Parafarmacia"}}, {"type": "node", "id": 6589342086, "lat": 46.4200601, "lon": 11.6754117, "tags": {"addr:housenumber": "24", "addr:postcode": "38036", "addr:street": "Strada Neva", "amenity": "pharmacy", "name": "Farmacia San Giovanni", "opening_hours": "Mo-Sa 08:30-12:30, 15:30-19:30; Su 09:00-12:00, 16:00-19:00", "phone": "+39 0462 764145"}}, {"type": "node", "id": 9407263390, "lat": 46.4776388, "lon": 11.7687124, "tags": {"addr:housenumber": "77", "addr:street": "Str\u00e8da Dolomites", "amenity": "pharmacy", "dispensing": "yes", "healthcare": "pharmacy", "name": "Farmacia Ladina", "operator": "Giovanni Romano & C Snc", "phone": "+39 0462 601262", "ref:vatin": "IT02312850221", "wheelchair": "yes"}}, {"type": "node", "id": 10976653821, "lat": 46.5730738, "lon": 11.6750982, "tags": {"amenity": "pharmacy", "name": "Parafarmacia"}}, {"type": "node", "id": 11952065606, "lat": 46.4767414, "lon": 11.7420622, "tags": {"addr:housenumber": "79", "addr:postcode": "38036", "addr:street": "Str\u00e8da Dolomites", "amenity": "pharmacy", "healthcare": "pharmacy", "name": "Farmacia Ladina Campitello", "opening_hours": "Mo-Sa 08:30-12:30, 15:30-19:30", "outdoor_seating": "no"}}, {"type": "way", "id": 58427508, "nodes": [724349510, 724349518, 724349540, 1229166753, 724349528, 724349510], "tags": {"amenity": "pharmacy", "building": "yes", "healthcare": "pharmacy", "name": "Farmacia Vinante", "opening_hours": "Mo-Sa 08:30-12:30,15:30-19:30; Su,PH 09:00-12:00,16:30-19:00"}}, {"type": "way", "id": 238218717, "nodes": [2460663341, 2460663342, 2460663346, 2460663351, 2460663338, 2460663335, 2460663341], "tags": {"addr:city": "San Martin de Tor - St. Martin in Thurn - San Martino in Badia", "addr:housenumber": "41", "addr:postcode": "39030", "addr:street": "Picolin", "amenity": "pharmacy", "building": "yes", "dispensing": "yes", "drive_through": "no", "healthcare": "pharmacy", "name": "P\u00fctia", "opening_hours": "Mo-Fr 08:00-12:00,15:00-19:00", "operator": "Dr. Lezuo", "phone": "+39 0474 523020", "ref:msal": "4151", "ref:vatin": "IT01433320213"}}]}