{"version": 0.6, "generator": "Overpass API 0.7.62.10 2d4cfc48", "osm3s": {"timestamp_osm_base": "2026-02-08T12:55:30Z", "copyright": "The data included in this document is from www.openstreetmap.org. The data is made available under ODbL."}, "elements": [{"type": "node", "id": 279714556, "lat": 46.7382406, "lon": 12.1675824, "tags": {"addr:city": "Niederdorf - Villabassa", "addr:city:de": "Niederdorf", "addr:city:it": "Villabassa", "addr:housenumber": "8", "addr:postcode": "39039", "addr:street": "Hans-Wassermann-Stra\u00dfe - Via Hans Wassermann", "addr:street:de": "Hans-Wassermann-Stra\u00dfe", "addr:street:it": "Via Hans Wassermann", "fee": "yes", "museum": "local", "name": "Fremdenverkehrsmuseum Haus Wassermann - Museo del Turismo Wassermann", "name:de": "Fremdenverkehrsmuseum Haus Wassermann", "name:it": "Museo del Turismo Wassermann", "operator": "Gemeinde Niederdorf - Comune di Villabassa", "operator:de": "Gemeinde Niederdorf", "operator:it": "Comune di Villabassa", "operator:wikidata": "Q504724", "phone": "+39 0474 745133", "tourism": "museum"}}, {"type": "node", "id": 283563807, "lat": 47.0452429, "lon": 12.1206314, "tags": {"addr:city": "Prettau - Predoi", "addr:postcode": "39030", "addr:street": "H\u00f6rmanngasse - Vicolo H\u00f6rmann", "name": "Bergbaumuseum", "name:de": "Bergbaumuseum Prettau", "name:it": "Museo delle Miniere di Predoi", "tourism": "museum", "website:de": "http://www.bergbaumuseum.it/de/prettau/information/", "website:it": "http://www.bergbaumuseum.it/it/prettau/information/"}}, {"type": "node", "id": 471369847, "lat": 46.9951712, "lon": 11.9810013, "tags": {"addr:city": "Steinhaus - Cadipietra", "addr:housenumber": "103", "addr:postcode": "39030", "addr:street": "Klausbergstra\u00dfe - Via Klausberg", "email": "kornkasten@bergbaumuseum.it", "fax": "+39 0474 651326", "fee": "yes", "name": "S\u00fcdtiroler Bergbaumuseum Kornkasten Steinhaus - Museo provinciale delle miniere Granaio Cadipietra", "name:de": "S\u00fcdtiroler Bergbaumuseum Kornkasten Steinhaus", "name:it": "Museo provinciale delle miniere Granaio Cadipietra", "phone": "+39 0474 651043", "tourism": "museum", "wikidata": "Q55352727"}}, {"type": "node", "id": 746487799, "lat": 46.9173419, "lon": 12.3316443}, {"type": "node", "id": 746487800, "lat": 46.9174704, "lon": 12.3316675}, {"type": "node", "id": 746487801, "lat": 46.9174983, "lon": 12.3316048}, {"type": "node", "id": 746487802, "lat": 46.9173549, "lon": 12.3317357}, {"type": "node", "id": 746487803, "lat": 46.9174732, "lon": 12.3314467}, {"type": "node", "id": 746487804, "lat": 46.9174145, "lon": 12.331628}, {"type": "node", "id": 746487805, "lat": 46.9173289, "lon": 12.3316334}, {"type": "node", "id": 746487806, "lat": 46.9174508, "lon": 12.3316689}, {"type": "node", "id": 746487807, "lat": 46.9174983, "lon": 12.3316362}, {"type": "node", "id": 746487808, "lat": 46.917516, "lon": 12.3315625}, {"type": "node", "id": 746487809, "lat": 46.9173112, "lon": 12.3317098}, {"type": "node", "id": 746487810, "lat": 46.917394, "lon": 12.3316511}, {"type": "node", "id": 746487811, "lat": 46.9173958, "lon": 12.3315105}, {"type": "node", "id": 746487812, "lat": 46.9174331, "lon": 12.3316634}, {"type": "node", "id": 746487813, "lat": 46.9174853, "lon": 12.3316552}, {"type": "node", "id": 746487814, "lat": 46.9174899, "lon": 12.3315789}, {"type": "node", "id": 746487816, "lat": 46.9174062, "lon": 12.3315222}, {"type": "node", "id": 931624545, "lat": 47.0510123, "lon": 12.1295619, "tags": {"fee": "no", "name": "Naturparkhaus Rieserferner-Ahrn - Parco Naturale Vedrette di Ries-Aurina", "name:de": "Naturparkhaus Rieserferner-Ahrn", "name:it": "Parco Naturale Vedrette di Ries - Aurina", "tourism": "museum"}}, {"type": "node", "id": 2260879781, "lat": 46.7330742, "lon": 12.282964}, {"type": "node", "id": 2260879790, "lat": 46.7331055, "lon": 12.2827279}, {"type": "node", "id": 2260879823, "lat": 46.7331684, "lon": 12.282989}, {"type": "node", "id": 2260879834, "lat": 46.7331997, "lon": 12.2827542}, {"type": "node", "id": 2333490604, "lat": 46.7330928, "lon": 12.2801391, "tags": {"email": "info@dolomythos.com", "fax": "+39 0474 913092", "fee": "yes", "name": "Dolomythos", "phone": "+39 0474 913462", "tourism": "museum", "website": "https://www.dolomythos.com/", "wikidata": "Q55352608"}}, {"type": "node", "id": 2333490721, "lat": 46.7334493, "lon": 12.2790179, "tags": {"name": "Ortsmuseum", "tourism": "museum", "wikidata": "Q55352615"}}, {"type": "node", "id": 5954805491, "lat": 46.9163475, "lon": 12.3308832, "tags": {"fee": "no", "name": "Zirbenmuseum", "tourism": "museum"}}, {"type": "node", "id": 5954865736, "lat": 46.9113624, "lon": 11.969056}, {"type": "node", "id": 5954865737, "lat": 46.9113258, "lon": 11.9692198}, {"type": "node", "id": 5954865738, "lat": 46.9111026, "lon": 11.9689168}, {"type": "node", "id": 5954865739, "lat": 46.9110563, "lon": 11.9690747}, {"type": "node", "id": 5954865740, "lat": 46.9112604, "lon": 11.969009}, {"type": "node", "id": 5954865741, "lat": 46.9112217, "lon": 11.9691744}, {"type": "node", "id": 12055305245, "lat": 46.7298226, "lon": 12.218529, "tags": {"charge": "5 EUR/person", "charge:conditional": "no @ < 8 years", "check_date": "2024-07-13", "museum": "technology", "name": "Schauk\u00e4serei Drei Zinnen", "opening_hours": "Mo-Sa 08:00-19:00; Su 10:00-18:00", "phone": "+39 0474 971300", "strapline": "World of cheese", "toilets": "yes", "tourism": "museum", "website": "https://3zinnen.it/de/uber-uns/schaukaserei/"}}, {"type": "node", "id": 13078399939, "lat": 46.8278338, "lon": 12.3362638}, {"type": "node", "id": 13078399940, "lat": 46.8280618, "lon": 12.3362866}, {"type": "node", "id": 13078399941, "lat": 46.8282967, "lon": 12.3363617}, {"type": "node", "id": 13078399942, "lat": 46.8285371, "lon": 12.3366004}, {"type": "node", "id": 13078399943, "lat": 46.8288583, "lon": 12.3367855}, {"type": "node", "id": 13078399944, "lat": 46.8290363, "lon": 12.3368955}, {"type": "node", "id": 13078399945, "lat": 46.8292106, "lon": 12.3372495}, {"type": "node", "id": 13078399946, "lat": 46.8291867, "lon": 12.3375311}, {"type": "node", "id": 13078399947, "lat": 46.828972, "lon": 12.3375231}, {"type": "node", "id": 13078399948, "lat": 46.8284986, "lon": 12.3374641}, {"type": "node", "id": 13078399949, "lat": 46.8282669, "lon": 12.3374259}, {"type": "node", "id": 13078399950, "lat": 46.8281481, "lon": 12.3372703}, {"type": "node", "id": 13078399951, "lat": 46.8280251, "lon": 12.3371087}, {"type": "node", "id": 13078399952, "lat": 46.8278333, "lon": 12.3369572}, {"type": "node", "id": 13078399953, "lat": 46.8278113, "lon": 12.3367345}, {"type": "node", "id": 13078399954, "lat": 46.8278086, "lon": 12.3363537}, {"type": "node", "id": 13078399984, "lat": 46.8278219, "lon": 12.3363081, "tags": {"barrier": "swing_gate", "swing_gate:type": "single"}}, {"type": "node", "id": 13463442533, "lat": 46.7331273, "lon": 12.282734}, {"type": "way", "id": 60058773, "nodes": [746487809, 746487799, 746487805, 746487811, 746487816, 746487803, 746487808, 746487814, 746487801, 746487807, 746487813, 746487800, 746487806, 746487812, 746487804, 746487810, 746487802, 746487809], "tags": {"addr:city": "St. Jakob in Defereggen", "addr:country": "AT", "addr:housenumber": "3", "addr:place": "Unterrotte", "addr:postcode": "9963", "building": "yes", "full_name": "Themenmuseum \"Zeitreise Defereggen\"", "name": "Zeitreise Defereggen", "opening_hours": "Mo-Su 09:00-20:00", "tourism": "museum", "wikidata": "Q94097028"}}, {"type": "way", "id": 216694036, "nodes": [2260879790, 13463442533, 2260879834, 2260879823, 2260879781, 2260879790], "tags": {"building": "yes", "name": "Stiftsmuseum", "name:it": "Museo della Collegiata di San Candido", "tourism": "museum", "wikidata": "Q88282991", "wikipedia": "it:Museo della collegiata di San Candido"}}, {"type": "way", "id": 443203060, "nodes": [5954865736, 5954865737, 5954865741, 5954865739, 5954865738, 5954865740, 5954865736], "tags": {"addr:city": "Sand in Taufers - Campo Tures", "addr:city:de": "Sand in Taufers", "addr:city:it": "Campo Tures", "addr:housenumber": "42", "addr:postcode": "39032", "addr:street": "Winkelweg - Via Winkel", "addr:street:de": "Winkelweg", "addr:street:it": "Via Winkel", "building": "yes", "craft": "yes", "name": "Schafwollmuseum", "opening_hours": "Mo-Fr 15:00-18:00; Sa 15:00-17:00", "operator": "Helene Brusa", "tourism": "museum", "website": "https://www.brusahelene.com/"}}, {"type": "way", "id": 1423076755, "nodes": [13078399954, 13078399953, 13078399952, 13078399951, 13078399950, 13078399949, 13078399948, 13078399947, 13078399946, 13078399945, 13078399944, 13078399943, 13078399942, 13078399941, 13078399940, 13078399939, 13078399984, 13078399954], "tags": {"area": "yes", "fixme": "grob gesch\u00e4tzt", "museum": "living_history", "name": "Freilichtmuseum Alpines Leben Innervillgraten", "operator": "Heimatpflege Verein Innervillgraten", "outdoor": "yes", "tourism": "museum"}}]}