{"version": 0.6, "generator": "Overpass API 0.7.62.10 2d4cfc48", "osm3s": {"timestamp_osm_base": "2026-02-08T12:55:30Z", "copyright": "The data included in this document is from www.openstreetmap.org. The data is made available under ODbL."}, "elements": [{"type": "node", "id": 1864731959, "lat": 45.9418364, "lon": 11.4368462}, {"type": "node", "id": 1864731960, "lat": 45.9418756, "lon": 11.4369244}, {"type": "node", "id": 1864731967, "lat": 45.9420186, "lon": 11.4366713}, {"type": "node", "id": 1864731978, "lat": 45.942058, "lon": 11.4367499}, {"type": "node", "id": 2390590492, "lat": 45.863704, "lon": 11.3997781, "tags": {"name": "Museo storico Grande Guerra 15-18", "tourism": "museum"}}, {"type": "node", "id": 2737525058, "lat": 46.0161172, "lon": 11.6338233}, {"type": "node", "id": 2737525078, "lat": 46.0161438, "lon": 11.6335111}, {"type": "node", "id": 2737525086, "lat": 46.0161567, "lon": 11.6334832}, {"type": "node", "id": 2737525087, "lat": 46.0161591, "lon": 11.6335129}, {"type": "node", "id": 2737525091, "lat": 46.0161558, "lon": 11.6338464}, {"type": "node", "id": 2737525092, "lat": 46.0161562, "lon": 11.633833}, {"type": "node", "id": 2737525112, "lat": 46.0161856, "lon": 11.6334807}, {"type": "node", "id": 2737525128, "lat": 46.0161927, "lon": 11.633464}, {"type": "node", "id": 2737525140, "lat": 46.0162034, "lon": 11.6334515}, {"type": "node", "id": 2737525146, "lat": 46.0162162, "lon": 11.6334446}, {"type": "node", "id": 2737525230, "lat": 46.0162299, "lon": 11.6334442}, {"type": "node", "id": 2737525238, "lat": 46.0162429, "lon": 11.6334502}, {"type": "node", "id": 2737525247, "lat": 46.0162538, "lon": 11.633462}, {"type": "node", "id": 2737525251, "lat": 46.0162616, "lon": 11.6334782}, {"type": "node", "id": 2737525253, "lat": 46.0162652, "lon": 11.6334973}, {"type": "node", "id": 2737525255, "lat": 46.0162677, "lon": 11.6335631}, {"type": "node", "id": 2737525264, "lat": 46.0162582, "lon": 11.6338563}, {"type": "node", "id": 2737525265, "lat": 46.016259, "lon": 11.6338421}, {"type": "node", "id": 2737525300, "lat": 46.0162886, "lon": 11.6338398}, {"type": "node", "id": 4343210413, "lat": 46.0161432, "lon": 11.6335881}, {"type": "node", "id": 4343210417, "lat": 46.0162878, "lon": 11.6338273}, {"type": "node", "id": 4343210419, "lat": 46.0163073, "lon": 11.6335589}, {"type": "node", "id": 4343211647, "lat": 46.016321, "lon": 11.6336814}, {"type": "node", "id": 4343211648, "lat": 46.0163223, "lon": 11.633831}, {"type": "node", "id": 9908332936, "lat": 46.0162066, "lon": 11.6338513, "tags": {"addr:city": "Grigno", "addr:postcode": "38055", "addr:province": "TN", "addr:street": "Via Vittorio Emanuele", "entrance": "yes"}}, {"type": "node", "id": 11218386545, "lat": 45.9273766, "lon": 11.5119004, "tags": {"museum": "open-air", "name": "Monte Zebio, il museo all'aperto", "operator": "Musei Altovicentino", "operator:type": "public", "source": "https://www.museialtovicentino.it/museo/monte-zebio-il-museo-allaperto/", "tourism": "museum", "wikidata": "Q122818476"}}, {"type": "node", "id": 12546079765, "lat": 45.8972773, "lon": 11.4807422, "tags": {"museum": "history", "name": "Forte Interrotto", "operator": "Musei Altovicentino", "operator:type": "public", "tourism": "museum"}}, {"type": "node", "id": 12553486342, "lat": 45.8757648, "lon": 11.4637781, "tags": {"addr:city": "Roana", "addr:postcode": "36010", "addr:street": "Via Romeo Sartori", "museum": "local", "name": "Museo della Cultura e Tradizione Cimbra", "operator": "Musei Altovicentino", "operator:type": "public", "source": "https://www.museialtovicentino.it/museo/museo-della-cultura-e-tradizione-cimbra/", "tourism": "museum", "wikidata": "Q55677770", "wikimedia_commons": "Category:Museo della Cultura e Tradizione Cimbra (Roana)"}}, {"type": "node", "id": 12553495668, "lat": 45.8407421, "lon": 11.4238642, "tags": {"addr:city": "Tresch\u00e8 Conca", "addr:housenumber": "180", "addr:postcode": "36010", "addr:street": "Via Chiesa", "museum": "history", "name": "Collezione Rovini", "operator": "Musei Altovicentino", "operator:type": "public", "source": "https://www.museialtovicentino.it/museo/collezione-rovini/", "tourism": "museum", "wikipedia": "it:Collezione Rovini"}}, {"type": "node", "id": 12553518844, "lat": 45.8675111, "lon": 11.4775211, "tags": {"addr:city": "Canove", "addr:housenumber": "60", "addr:postcode": "36010", "addr:street": "Via Roma", "museum": "history;military", "name": "Museo Storico della Grande Guerra 1915-1918", "operator": "Musei Altovicentino", "operator:type": "public", "source": "https://www.museialtovicentino.it/museo/museo-storico-della-grande-guerra-1915-1918-roana/", "tourism": "museum", "wikidata": "Q72163369", "wikimedia_commons": "Category:Museo storico della Grande Guerra 1915-1918 (Canove, Roana)", "wikipedia": "it:Museo storico della Grande Guerra 1915-1918"}}, {"type": "way", "id": 175913956, "nodes": [1864731978, 1864731960, 1864731959, 1864731967, 1864731978], "tags": {"building": "farm_auxiliary", "name": "Ecomuseo del Ghertele", "tourism": "museum"}}, {"type": "way", "id": 268415548, "nodes": [2737525086, 2737525087, 2737525078, 4343210413, 2737525058, 2737525092, 2737525091, 9908332936, 2737525264, 2737525265, 2737525300, 4343210417, 4343211648, 4343211647, 4343210419, 2737525255, 2737525253, 2737525251, 2737525247, 2737525238, 2737525230, 2737525146, 2737525140, 2737525128, 2737525112, 2737525086], "tags": {"building": "yes", "fee": "no", "name": "Antica pieve dei Santi Giacomo e Cristoforo", "tourism": "museum", "wikidata": "Q104528637"}}]}