{"version": 0.6, "generator": "Overpass API 0.7.62.10 2d4cfc48", "osm3s": {"timestamp_osm_base": "2026-02-08T12:47:15Z", "copyright": "The data included in this document is from www.openstreetmap.org. The data is made available under ODbL."}, "elements": [{"type": "node", "id": 499996415, "lat": 46.4976703, "lon": 11.3514529, "tags": {"addr:city": "Bolzano - Bozen", "addr:postcode": "39100", "addr:street": "Piazza Domenicani - Dominikanerplatz", "amenity": "pub", "check_date": "2025-06-01", "indoor_seating": "yes", "internet_access": "wlan", "name": "Temple Bar", "outdoor_seating": "yes", "wheelchair": "limited"}}, {"type": "node", "id": 500005451, "lat": 46.5001997, "lon": 11.353091, "tags": {"amenity": "bar", "changing_table": "yes", "name": "Wilson & Hick's", "wheelchair": "limited"}}, {"type": "node", "id": 538300831, "lat": 46.4880695, "lon": 11.3460236, "tags": {"amenity": "bar", "name": "Bar Claudia"}}, {"type": "node", "id": 538308375, "lat": 46.4872666, "lon": 11.3457682, "tags": {"amenity": "bar", "name": "Bar Express"}}, {"type": "node", "id": 538318111, "lat": 46.4849451, "lon": 11.3445985, "tags": {"amenity": "bar", "name": "Ristorante & Bar Hong Kong"}}, {"type": "node", "id": 538337479, "lat": 46.4846572, "lon": 11.3443772, "tags": {"amenity": "bar", "name": "Bar Pia"}}, {"type": "node", "id": 538344433, "lat": 46.4840759, "lon": 11.3438233, "tags": {"amenity": "bar", "name": "Bar Irony"}}, {"type": "node", "id": 538830492, "lat": 46.4837464, "lon": 11.3431911, "tags": {"amenity": "bar", "name": "Bar Angolo 40"}}, {"type": "node", "id": 538833214, "lat": 46.4832067, "lon": 11.3437737, "tags": {"amenity": "bar", "name": "Bar Bistr\u00f2 Rufus"}}, {"type": "node", "id": 538835096, "lat": 46.4829587, "lon": 11.3428834, "tags": {"amenity": "bar", "name": "Bar Aurora"}}, {"type": "node", "id": 538835098, "lat": 46.4833054, "lon": 11.3427456, "tags": {"amenity": "bar", "name": "Bar Principe", "wheelchair": "limited"}}, {"type": "node", "id": 538835827, "lat": 46.4821382, "lon": 11.341992, "tags": {"amenity": "bar", "name": "New Bar"}}, {"type": "node", "id": 538842223, "lat": 46.4832671, "lon": 11.343889, "tags": {"amenity": "bar", "name": "Bar Rufus"}}, {"type": "node", "id": 556364624, "lat": 46.5002079, "lon": 11.3538983, "tags": {"amenity": "bar", "name": "Fischb\u00e4nke", "wheelchair": "yes"}}, {"type": "node", "id": 557767233, "lat": 46.498643, "lon": 11.3554593, "tags": {"amenity": "bar", "name": "Domino", "wheelchair": "yes"}}, {"type": "node", "id": 557768143, "lat": 46.500757, "lon": 11.3514294, "tags": {"amenity": "bar", "check_date:opening_hours": "2023-11-17", "name": "Sarner Bar", "opening_hours:signed": "no"}}, {"type": "node", "id": 557779128, "lat": 46.4977313, "lon": 11.3552794, "tags": {"addr:city": "Bolzano - Bozen", "addr:city:de": "Bozen", "addr:city:it": "Bolzano", "addr:housenumber": "8", "addr:postcode": "39100", "addr:street": "Piazza Walther - Walther-Platz", "addr:street:de": "Walther-Platz", "addr:street:it": "Piazza Walther", "amenity": "bar", "name": "Benve"}}, {"type": "node", "id": 557785284, "lat": 46.4978674, "lon": 11.3569992, "tags": {"amenity": "bar", "indoor_seating": "yes", "name": "Laurino", "outdoor_seating": "yes", "smoking": "outside", "wheelchair": "yes"}}, {"type": "node", "id": 560076052, "lat": 46.5002054, "lon": 11.3536191, "tags": {"amenity": "bar", "check_date": "2023-11-12", "name": "Enovit"}}, {"type": "node", "id": 560078946, "lat": 46.4998734, "lon": 11.3528137, "tags": {"amenity": "bar", "check_date:opening_hours": "2024-05-26", "indoor_seating": "no", "name": "Banco 11", "opening_hours:signed": "no", "outdoor_seating": "no", "takeaway": "only"}}, {"type": "node", "id": 561078983, "lat": 46.4912274, "lon": 11.3419809, "tags": {"amenity": "bar", "name": "Bar Elena"}}, {"type": "node", "id": 651116511, "lat": 46.4984255, "lon": 11.3508831, "tags": {"amenity": "bar", "indoor_seating": "yes", "name": "Unibar", "outdoor_seating": "yes", "toilets:wheelchair": "yes", "wheelchair": "yes"}}, {"type": "node", "id": 651119620, "lat": 46.4986681, "lon": 11.351204, "tags": {"amenity": "bar", "name": "Caf\u00e9 Sernesi", "wheelchair": "limited"}}, {"type": "node", "id": 651121283, "lat": 46.4974975, "lon": 11.3548223, "tags": {"amenity": "bar", "check_date": "2023-08-02", "indoor_seating": "yes", "name": "Dom Caf\u00e8", "outdoor_seating": "yes", "wheelchair": "yes"}}, {"type": "node", "id": 651126409, "lat": 46.4996976, "lon": 11.3510063, "tags": {"amenity": "bar", "indoor_seating": "yes", "name": "Gingerino", "outdoor_seating": "yes"}}, {"type": "node", "id": 651347376, "lat": 46.6690541, "lon": 11.1606386, "tags": {"air_conditioning": "yes", "amenity": "bar", "indoor_seating": "yes", "name": "Bistro", "outdoor_seating": "yes", "shop": "kiosk", "smoking": "outside", "wheelchair": "yes"}}, {"type": "node", "id": 666215796, "lat": 46.6771269, "lon": 11.1479099, "tags": {"amenity": "bar", "brewery": "various", "name": "Gasthof Hanny", "outdoor_seating": "yes", "wheelchair": "no"}}, {"type": "node", "id": 666216443, "lat": 46.6771122, "lon": 11.1472131, "tags": {"amenity": "bar", "name": "Bar G\u00f6the", "opening_hours": "Mo-Sa 07:00-22:00", "wheelchair": "limited"}}, {"type": "node", "id": 670866834, "lat": 46.4125543, "lon": 11.2359776, "tags": {"amenity": "pub", "name": "Dream In"}}, {"type": "node", "id": 676631924, "lat": 46.4994794, "lon": 11.3522995, "tags": {"amenity": "bar", "name": "Down Town", "wheelchair": "limited"}}, {"type": "node", "id": 760263769, "lat": 46.683869, "lon": 11.0739111, "tags": {"amenity": "bar", "name": "Tagesbar Die Sonne"}}, {"type": "node", "id": 760263770, "lat": 46.6861535, "lon": 11.0727876, "tags": {"amenity": "pub", "capacity": "50", "name": "Formerkeller", "opening_hours": "Mo-Su 18:00-23:00; We off", "source": "local_knowledge", "website": "https://www.farmerhof.com/formerkeller/"}}, {"type": "node", "id": 760625056, "lat": 46.6668477, "lon": 11.3657402, "tags": {"addr:city": "Sarntal - Sarentino", "addr:city:de": "Sarntal", "addr:city:it": "Sarentino", "addr:housename": "Gasthof Greif", "addr:housenumber": "16", "addr:place": "Astfeld - Campolasta", "addr:place:de": "Astfeld", "addr:place:it": "Campolasta", "addr:postcode": "39058", "amenity": "bar", "name": "Mair Bar"}}, {"type": "node", "id": 760625065, "lat": 46.7013539, "lon": 11.4105241, "tags": {"amenity": "bar", "name": "Reischnhitt"}}, {"type": "node", "id": 769077779, "lat": 46.4954469, "lon": 11.3354379, "tags": {"amenity": "bar", "name": "Bar Karim", "wheelchair": "no"}}, {"type": "node", "id": 769077785, "lat": 46.4951574, "lon": 11.3363756, "tags": {"addr:city": "Bolzano - Bozen", "addr:housenumber": "85", "addr:postcode": "39100", "addr:street": "Viale Druso - Drususallee", "amenity": "pub", "name": "Karma Lounge Caf\u00e8", "wheelchair": "limited"}}, {"type": "node", "id": 769077786, "lat": 46.4939473, "lon": 11.3407901, "tags": {"addr:city": "Bolzano - Bozen", "addr:housenumber": "13", "addr:postcode": "39100", "addr:street": "Via Roma - Romstra\u00dfe", "amenity": "pub", "name": "Pub Caf\u00e8 Internazionale"}}, {"type": "node", "id": 769077791, "lat": 46.4953109, "lon": 11.3358049, "tags": {"amenity": "bar", "name": "Bar Cuba", "wheelchair": "no"}}, {"type": "node", "id": 769077794, "lat": 46.4951901, "lon": 11.3344862, "tags": {"amenity": "bar", "name": "Bar Lisi"}}, {"type": "node", "id": 769077801, "lat": 46.4919409, "lon": 11.3351693, "tags": {"addr:city": "Bolzano - Bozen", "addr:housenumber": "54", "addr:postcode": "39100", "addr:street": "Via Dalmazia - Dalmatienstra\u00dfe", "amenity": "bar", "name": "Nonsolobar", "wheelchair": "limited"}}, {"type": "node", "id": 769077807, "lat": 46.4946466, "lon": 11.332428, "tags": {"addr:city": "Bolzano - Bozen", "addr:housenumber": "4e", "addr:postcode": "39100", "addr:street": "Via Palermo - Palermostra\u00dfe", "amenity": "bar", "name": "Bar Jolly", "wheelchair": "limited"}}, {"type": "node", "id": 769077816, "lat": 46.4917568, "lon": 11.3387762, "tags": {"amenity": "bar", "name": "Rockaforte Barotto"}}, {"type": "node", "id": 769077817, "lat": 46.4926701, "lon": 11.3428124, "tags": {"amenity": "pub", "name": "Rock Caf\u00e8 Bolzano", "name:de": "Rock Caf\u00e8 Bozen"}}, {"type": "node", "id": 769077818, "lat": 46.4919465, "lon": 11.3336005, "tags": {"addr:city": "Bolzano - Bozen", "addr:housenumber": "87", "addr:postcode": "39100", "addr:street": "Via Dalmazia - Dalmatienstra\u00dfe", "amenity": "pub", "name": "Bulldog Pub", "wheelchair": "limited"}}, {"type": "node", "id": 775717502, "lat": 46.3978491, "lon": 11.2362742, "tags": {"addr:street": "Sportzone St. Anton", "amenity": "bar", "name": "Eisbar", "opening_hours": "Mo, We-Su 10:00-23:00", "phone": "+390471962598", "website": "https://www.kaltern.com/de/info/eisbar.html"}}, {"type": "node", "id": 820853105, "lat": 46.6336653, "lon": 11.1788594, "tags": {"amenity": "bar", "name": "Thommy da Antonia"}}, {"type": "node", "id": 821031627, "lat": 46.6452843, "lon": 11.1799262, "tags": {"amenity": "bar", "name": "Bar Vittoria"}}, {"type": "node", "id": 830602893, "lat": 46.6702122, "lon": 11.1597606, "tags": {"amenity": "pub", "name": "Sketch", "wheelchair": "limited"}}, {"type": "node", "id": 831340647, "lat": 46.6706851, "lon": 11.1642049, "tags": {"amenity": "bar", "name": "Culti's"}}, {"type": "node", "id": 831340650, "lat": 46.6711781, "lon": 11.1650257, "tags": {"amenity": "pub", "name": "Rafflkeller", "wheelchair": "no"}}, {"type": "node", "id": 831340651, "lat": 46.6706749, "lon": 11.1632786, "tags": {"amenity": "bar", "indoor_seating": "yes", "name": "Wunder Bar", "outdoor_seating": "yes"}}, {"type": "node", "id": 831340669, "lat": 46.6705044, "lon": 11.1631281, "tags": {"addr:housenumber": "19", "addr:street": "Freiheitsstra\u00dfe - Corso della Libert\u00e0", "amenity": "bar", "email": "info@rossini-bar.it", "indoor_seating": "yes", "name": "Rossini", "opening_hours": "Mo-Su 09:00-01:00", "outdoor_seating": "yes", "phone": "+39 0473 491 085", "website": "https://www.rossini-bar.it/", "wheelchair": "no"}}, {"type": "node", "id": 831340674, "lat": 46.6703976, "lon": 11.1636361, "tags": {"amenity": "bar", "indoor_seating": "yes", "name": "Bar Piccolo", "opening_hours": "Mo-Th 07:15-22:00; Fr,Sa 07:15-01:00", "outdoor_seating": "yes", "toilets": "yes", "toilets:wheelchair": "yes", "wheelchair": "limited"}}, {"type": "node", "id": 831340676, "lat": 46.6712976, "lon": 11.1621993, "tags": {"amenity": "bar", "changing_table": "yes", "name": "Kunst Caf\u00e8"}}, {"type": "node", "id": 837983414, "lat": 46.6706017, "lon": 11.1647676, "tags": {"amenity": "bar", "name": "Domus"}}, {"type": "node", "id": 1076782142, "lat": 46.5010401, "lon": 11.3396608, "tags": {"addr:city": "Bolzano - Bozen", "addr:housenumber": "11", "addr:postcode": "39100", "addr:street": "Piazza Giuseppe Mazzini - Giuseppe-Mazzini-Platz", "amenity": "pub", "name": "Bar 8 1/2", "ref:vatin": "IT01541100218"}}, {"type": "node", "id": 1102976082, "lat": 46.5004313, "lon": 11.336801, "tags": {"amenity": "bar"}}, {"type": "node", "id": 1102976095, "lat": 46.500236, "lon": 11.336079, "tags": {"amenity": "bar", "name": "Bar Alex"}}, {"type": "node", "id": 1105624889, "lat": 46.4196031, "lon": 11.251249, "tags": {"amenity": "pub", "name": "Noah Pub", "website": "http://www.noahpub.it"}}, {"type": "node", "id": 1120608537, "lat": 46.497087, "lon": 11.3579776, "tags": {"amenity": "bar", "indoor_seating": "yes", "name": "Landhausbar", "opening_hours": "Mo-Fr 06:15-18:00; Sa 07:15-15:00; Su,PH off", "outdoor_seating": "yes", "wheelchair": "limited"}}, {"type": "node", "id": 1120608542, "lat": 46.4952286, "lon": 11.354252, "tags": {"amenity": "bar", "name": "Caff\u00e8 Verdi"}}, {"type": "node", "id": 1120608556, "lat": 46.4984358, "lon": 11.3563744, "tags": {"amenity": "bar", "indoor_seating": "yes", "name": "Caf\u00e8 Hildegard", "outdoor_seating": "yes", "smoking": "outside", "wheelchair": "limited"}}, {"type": "node", "id": 1120666654, "lat": 46.4927561, "lon": 11.3284608}, {"type": "node", "id": 1120666714, "lat": 46.4925829, "lon": 11.3287312}, {"type": "node", "id": 1120666754, "lat": 46.4928732, "lon": 11.3287243}, {"type": "node", "id": 1120667012, "lat": 46.4928702, "lon": 11.3284581}, {"type": "node", "id": 1120667062, "lat": 46.4925811, "lon": 11.3285714}, {"type": "node", "id": 1120667082, "lat": 46.4927573, "lon": 11.3285673}, {"type": "node", "id": 1269147202, "lat": 46.4276152, "lon": 11.343485, "tags": {"amenity": "bar", "name": "Bar Sottomonte"}}, {"type": "node", "id": 1332188345, "lat": 46.5858169, "lon": 11.0868923, "tags": {"amenity": "bar", "name": "Innerwirt"}}, {"type": "node", "id": 1332188346, "lat": 46.5865907, "lon": 11.0865435, "tags": {"addr:city": "St. Pankraz - San Pancrazio", "addr:city:de": "St. Pankraz", "addr:city:it": "San Pancrazio", "addr:housenumber": "4", "addr:postcode": "39010", "addr:street": "D\u00f6rfl", "amenity": "pub", "name": "Charly\u2019s Pub 13"}}, {"type": "node", "id": 1432195046, "lat": 46.499974, "lon": 11.363765, "tags": {"addr:city": "Bolzano - Bozen", "addr:housenumber": "39", "addr:postcode": "39100", "addr:street": "Via Renon - Rittner Stra\u00dfe", "addr:street:de": "Rittner Stra\u00dfe", "addr:street:it": "Via Renon", "amenity": "bar", "name": "Bar Mary", "operator": "De Biasi Alex", "ref:vatin": "IT03001130214", "wheelchair": "no"}}, {"type": "node", "id": 1460801652, "lat": 46.5644797, "lon": 11.2648003, "tags": {"amenity": "bar", "name": "Bar Linde"}}, {"type": "node", "id": 1596714584, "lat": 46.6773032, "lon": 11.1723099, "tags": {"addr:city": "Tirol - Tirolo", "addr:city:de": "Tirol", "addr:city:it": "Tirolo", "addr:housename": "Bar Caf\u00e8 Haweli", "addr:housenumber": "5", "addr:postcode": "39019", "addr:street": "Purenweg - Via Puren", "addr:street:de": "Purenweg", "addr:street:it": "Via Puren", "amenity": "bar", "internet_access": "no", "name": "Bar Caf\u00e8 Haweli", "website": "http://www.radverleihtirol.com/"}}, {"type": "node", "id": 1597394572, "lat": 46.6427737, "lon": 11.3572111, "tags": {"amenity": "bar", "name": "Kr\u00f6ss"}}, {"type": "node", "id": 1597401781, "lat": 46.6423573, "lon": 11.3576347, "tags": {"amenity": "bar", "name": "Br\u00fcckenwirt"}}, {"type": "node", "id": 1666668369, "lat": 46.6712097, "lon": 11.1673353, "tags": {"addr:city": "Meran - Merano", "addr:city:de": "Meran", "addr:city:it": "Merano", "addr:housenumber": "29", "addr:postcode": "39012", "addr:street": "Passeirergasse - Vicolo Passiria", "addr:street:de": "Passeirergasse", "addr:street:it": "Vicolo Passiria", "alt_name": "Club EstOvest", "amenity": "bar", "int_name": "OstWest Club", "internet_access": "no", "name": "Ostwest Club - Club EstOvest", "name:de": "Ostwest Club", "name:it": "Club EstOvest", "smoking": "separated", "website": "https://ostwest.it/", "wheelchair": "yes"}}, {"type": "node", "id": 1677520454, "lat": 46.4814867, "lon": 11.3179817, "tags": {"amenity": "bar"}}, {"type": "node", "id": 1698766453, "lat": 46.5742095, "lon": 11.1998738}, {"type": "node", "id": 1698766477, "lat": 46.5742638, "lon": 11.199993}, {"type": "node", "id": 1698766487, "lat": 46.5743462, "lon": 11.1997421}, {"type": "node", "id": 1698766502, "lat": 46.5744005, "lon": 11.1998613}, {"type": "node", "id": 1704120971, "lat": 46.4982847, "lon": 11.3447369, "tags": {"addr:housenumber": "11", "addr:postcode": "39100", "addr:street": "Via San Quirino - Quireiner Stra\u00dfe", "amenity": "pub", "name": "Da Picchio"}}, {"type": "node", "id": 1736206364, "lat": 46.5734222, "lon": 11.3747696, "tags": {"amenity": "bar", "name": "Gasthaus Frieda"}}, {"type": "node", "id": 1759862245, "lat": 46.5002224, "lon": 11.3547579, "tags": {"amenity": "bar", "name": "Carettai"}}, {"type": "node", "id": 1762315022, "lat": 46.4894015, "lon": 11.3173035, "tags": {"amenity": "bar", "name": "Bar Roby"}}, {"type": "node", "id": 1771647684, "lat": 46.5680019, "lon": 11.1681109}, {"type": "node", "id": 1771647688, "lat": 46.5680724, "lon": 11.1682936}, {"type": "node", "id": 1771647694, "lat": 46.5681102, "lon": 11.1680224}, {"type": "node", "id": 1771647699, "lat": 46.5681807, "lon": 11.1682051}, {"type": "node", "id": 1773369297, "lat": 46.5423094, "lon": 10.9916485, "tags": {"amenity": "bar", "name": "Caf\u00e9 Seerast", "wheelchair": "yes"}}, {"type": "node", "id": 1810130391, "lat": 46.498848, "lon": 11.3531764, "tags": {"amenity": "bar", "name": "Il Baccaro", "wheelchair": "no"}}, {"type": "node", "id": 1817141137, "lat": 46.5029299, "lon": 11.3341826, "tags": {"amenity": "bar", "name": "Gruber"}}, {"type": "node", "id": 1836554638, "lat": 46.5067999, "lon": 11.3387163, "tags": {"addr:housenumber": "38", "addr:postcode": "39100", "addr:street": "Via Fago - Fagenstra\u00dfe", "amenity": "bar", "name": "Ristoro Bar Fagen"}}, {"type": "node", "id": 1836559969, "lat": 46.5014306, "lon": 11.3356884, "tags": {"amenity": "bar", "name": "Fiore", "name:de": "Fiore"}}, {"type": "node", "id": 1844597646, "lat": 46.4123684, "lon": 11.2458383, "tags": {"addr:city": "Kaltern an der Weinstra\u00dfe - Caldaro sulla Strada del Vino", "addr:city:de": "Kaltern an der Weinstra\u00dfe", "addr:city:it": "Caldaro sulla Strada del Vino", "addr:housenumber": "10/b", "addr:postcode": "39052", "addr:street": "Goldgasse - Via D'Oro", "addr:street:de": "Goldgasse", "addr:street:it": "Via D'Oro", "amenity": "bar", "name": "Zum lustigen Krokodil", "opening_hours": "Mo-Sa 07:00-23:00", "phone": "+39 349 2652216"}}, {"type": "node", "id": 1912309351, "lat": 46.4948305, "lon": 11.3464409, "tags": {"alt_name": "Russian Girls", "amenity": "bar", "name": "Russian Girl's"}}, {"type": "node", "id": 1912309357, "lat": 46.494861, "lon": 11.3467786, "tags": {"amenity": "bar", "name": "Tiroler Bar"}}, {"type": "node", "id": 1927910130, "lat": 46.6477992, "lon": 11.0040136, "tags": {"addr:city": "Naturns - Naturno", "addr:city:de": "Naturns", "addr:city:it": "Naturno", "addr:housenumber": "20", "addr:postcode": "39025", "addr:street": "Bahnhofstra\u00dfe - Via Stazione", "addr:street:de": "Bahnhofstra\u00dfe", "addr:street:it": "Via Stazione", "amenity": "bar", "name": "San Zeno"}}, {"type": "node", "id": 1935552865, "lat": 46.6432652, "lon": 10.9902144}, {"type": "node", "id": 1935552874, "lat": 46.6433077, "lon": 10.9900274}, {"type": "node", "id": 1935552897, "lat": 46.6434113, "lon": 10.9902848}, {"type": "node", "id": 1935552904, "lat": 46.6434718, "lon": 10.9900184}, {"type": "node", "id": 1941749343, "lat": 46.6486098, "lon": 11.0083895, "tags": {"amenity": "bar"}}, {"type": "node", "id": 1989581500, "lat": 46.5096318, "lon": 10.924294, "tags": {"amenity": "bar", "name": "Bergland"}}, {"type": "node", "id": 2133570093, "lat": 46.4097404, "lon": 11.1376546, "tags": {"addr:city": "Cavareno", "addr:country": "IT", "addr:housenumber": "62", "addr:postcode": "38011", "addr:street": "Via Roma", "amenity": "bar", "name": "Bar Chicco d'Oro", "operator": "Tarau Camelia Adriana & C. snc", "ref:vatin": "IT01946020227"}}, {"type": "node", "id": 2159466414, "lat": 46.5521462, "lon": 11.2128933, "tags": {"amenity": "pub", "name": "Big Ben Nals"}}, {"type": "node", "id": 2188567547, "lat": 46.67127, "lon": 11.1351537}, {"type": "node", "id": 2188567549, "lat": 46.6713588, "lon": 11.1353174}, {"type": "node", "id": 2188567551, "lat": 46.6714339, "lon": 11.134965}, {"type": "node", "id": 2188567552, "lat": 46.6715227, "lon": 11.1351288}, {"type": "node", "id": 2210529502, "lat": 46.6688205, "lon": 11.1680091}, {"type": "node", "id": 2210529518, "lat": 46.6688274, "lon": 11.1680049}, {"type": "node", "id": 2210529547, "lat": 46.6688423, "lon": 11.167996}, {"type": "node", "id": 2210529563, "lat": 46.6688438, "lon": 11.1680013}, {"type": "node", "id": 2210529566, "lat": 46.6688458, "lon": 11.1681104}, {"type": "node", "id": 2210529567, "lat": 46.6688475, "lon": 11.1681093, "tags": {"entrance": "yes"}}, {"type": "node", "id": 2210529587, "lat": 46.6688689, "lon": 11.1681895}, {"type": "node", "id": 2210529598, "lat": 46.6688763, "lon": 11.1679768}, {"type": "node", "id": 2210529604, "lat": 46.6688775, "lon": 11.167981}, {"type": "node", "id": 2210529621, "lat": 46.6688921, "lon": 11.1681763}, {"type": "node", "id": 2210529642, "lat": 46.6688995, "lon": 11.1679631}, {"type": "node", "id": 2210529671, "lat": 46.6689144, "lon": 11.1682578}, {"type": "node", "id": 2210529689, "lat": 46.6689267, "lon": 11.1680617}, {"type": "node", "id": 2210529690, "lat": 46.6689284, "lon": 11.1680607}, {"type": "node", "id": 2210529733, "lat": 46.6689729, "lon": 11.168225}, {"type": "node", "id": 2264364587, "lat": 46.5061333, "lon": 11.3477129, "tags": {"amenity": "bar", "name": "Bar Righi"}}, {"type": "node", "id": 2290331657, "lat": 46.3993276, "lon": 11.0030784, "tags": {"amenity": "bar", "name": "Bar del Comun"}}, {"type": "node", "id": 2312199757, "lat": 46.5002788, "lon": 11.356099, "tags": {"addr:city": "Bolzano - Bozen", "addr:city:de": "Bozen", "addr:city:it": "Bolzano", "addr:housenumber": "8", "addr:postcode": "39100", "addr:street": "Via Dr. Josef Streiter - Dr.-Josef-Streiter-Gasse", "amenity": "bar", "brewery": "Antonius;various", "internet_access": "wlan", "min_age": "0", "name": "CAPITOL Caff\u00e8 - Bar", "outdoor_seating": "yes", "payment:cash": "yes", "payment:credit_cards": "yes", "payment:debit_cards": "yes", "smoking": "outside", "wheelchair": "yes"}}, {"type": "node", "id": 2316843172, "lat": 46.6469246, "lon": 10.9742666}, {"type": "node", "id": 2351168880, "lat": 46.4822075, "lon": 11.3303855, "tags": {"addr:city": "Bolzano - Bozen", "addr:city:de": "Bozen", "addr:city:it": "Bolzano", "addr:country": "IT", "addr:housenumber": "19", "addr:postcode": "39100", "addr:street": "Via Werner Von Siemens - Werner-Von-Siemens-Stra\u00dfe", "addr:street:de": "Werner-Von-Siemens-Stra\u00dfe", "addr:street:it": "Via Werner Von Siemens", "amenity": "bar", "name": "Arma", "operator": "ARMA SRL", "ref:vatin": "IT01545650218"}}, {"type": "node", "id": 2356986558, "lat": 46.4975074, "lon": 11.3383737, "tags": {"amenity": "bar", "name": "Alan"}}, {"type": "node", "id": 2356998091, "lat": 46.4996745, "lon": 11.3520925, "tags": {"addr:housenumber": "4b", "addr:street": "Via Museo - Museumstra\u00dfe", "amenity": "bar", "indoor_seating": "no", "name": "Eden park", "outdoor_seating": "no", "takeaway": "only", "wheelchair": "limited", "wifi": "no"}}, {"type": "node", "id": 2369204648, "lat": 46.5002181, "lon": 11.3495293, "tags": {"addr:city": "Bolzano - Bozen", "addr:postcode": "39100", "addr:street": "Via Cassa di Risparmio - Sparkassenstra\u00dfe", "amenity": "bar", "indoor_seating": "yes", "name": "Luna's Cafe", "outdoor_seating": "yes"}}, {"type": "node", "id": 2372238502, "lat": 46.7352195, "lon": 11.2002652, "tags": {"amenity": "bar", "cuisine": "ice_cream", "name": "Egg Bar"}}, {"type": "node", "id": 2398075987, "lat": 46.4981487, "lon": 11.3554188, "tags": {"amenity": "bar", "name": "Il Grifoncino"}}, {"type": "node", "id": 2419925398, "lat": 46.6109439, "lon": 11.1654878, "tags": {"amenity": "pub", "name": "Alpen", "opening_hours": "Mo-Su 10:00-23:00"}}, {"type": "node", "id": 2434553869, "lat": 46.4998365, "lon": 11.3525226, "tags": {"amenity": "bar", "name": "Eule"}}, {"type": "node", "id": 2564767975, "lat": 46.4906344, "lon": 11.3378099, "tags": {"amenity": "bar", "name": "Bar Warasin"}}, {"type": "node", "id": 2574379254, "lat": 46.5014613, "lon": 11.341661, "tags": {"amenity": "bar", "contact:facebook": "https://www.facebook.com/barfantasy28/", "email": "info.fantasy@yahoo.it", "name": "Fantasy", "opening_hours": "Mo-Sa 06:45-01:00", "outdoor_seating": "yes", "payment:cash": "yes", "payment:credit_cards": "yes", "phone": "+39 0471 270202"}}, {"type": "node", "id": 2609295433, "lat": 46.4340398, "lon": 11.1446914, "tags": {"amenity": "bar"}}, {"type": "node", "id": 2614748367, "lat": 46.4994022, "lon": 11.3593654, "tags": {"amenity": "bar", "name": "Bar Chicco"}}, {"type": "node", "id": 2621990942, "lat": 46.4879775, "lon": 11.3313075, "tags": {"amenity": "bar", "name": "Caff\u00e8 Cristallo"}}, {"type": "node", "id": 2711244756, "lat": 46.6699263, "lon": 11.1536345, "tags": {"amenity": "pub", "name": "Bar Carducci"}}, {"type": "node", "id": 2723689156, "lat": 46.5291482, "lon": 10.9553817, "tags": {"amenity": "bar", "name": "M13 Apres Ski", "smoking": "yes"}}, {"type": "node", "id": 2749563185, "lat": 46.4992288, "lon": 11.3520663, "tags": {"addr:city": "Bolzano - Bozen", "addr:city:de": "Bozen", "addr:city:it": "Bolzano", "addr:housenumber": "11a", "addr:postcode": "39100", "addr:street": "Vicolo delle Erbe - Erbsengasse", "addr:street:de": "Erbsengasse", "addr:street:it": "Vicolo delle Erbe", "amenity": "bar", "name": "Est"}}, {"type": "node", "id": 2749577346, "lat": 46.4972589, "lon": 11.3533098, "tags": {"addr:city": "Bolzano - Bozen", "addr:city:de": "Bozen", "addr:city:it": "Bolzano", "addr:housenumber": "21", "addr:postcode": "39100", "addr:street": "Piazza della Parrocchia - Pfarrplatz", "addr:street:de": "Pfarrplatz", "addr:street:it": "Piazza della Parrocchia", "amenity": "bar", "name": "La Vecchia Bolzano"}}, {"type": "node", "id": 2749598107, "lat": 46.4953791, "lon": 11.3456965, "tags": {"addr:city": "Bolzano - Bozen", "addr:city:de": "Bozen", "addr:city:it": "Bolzano", "addr:housenumber": "59", "addr:postcode": "39100", "addr:street": "Viale Venezia - Venediger Stra\u00dfe", "addr:street:de": "Venediger Stra\u00dfe", "addr:street:it": "Viale Venezia", "amenity": "bar", "name": "Regina"}}, {"type": "node", "id": 2755683933, "lat": 46.6353908, "lon": 10.9376986}, {"type": "node", "id": 2755756189, "lat": 46.4382872, "lon": 11.3458554, "tags": {"addr:city": "Laives - Leifers", "addr:city:de": "Leifers", "addr:city:it": "Laives", "addr:hamlet": "Pineta - Steinmannwald", "addr:hamlet:de": "Steinmannwald", "addr:hamlet:it": "Pineta", "addr:housenumber": "12", "addr:postcode": "39055", "addr:street": "Via Dolomiti - Dolomitenstra\u00dfe", "addr:street:de": "Dolomitenstra\u00dfe", "addr:street:it": "Via Dolomiti", "amenity": "bar", "name": "Circolo Operai"}}, {"type": "node", "id": 2755797530, "lat": 46.6640959, "lon": 11.1614121, "tags": {"addr:city": "Meran - Merano", "addr:city:de": "Meran", "addr:city:it": "Merano", "addr:housenumber": "126c", "addr:postcode": "39012", "addr:street": "Romstra\u00dfe - Via Roma", "addr:street:de": "Romstra\u00dfe", "addr:street:it": "Via Roma", "amenity": "bar", "indoor_seating": "yes", "name": "Cortina Bar", "outdoor_seating": "yes"}}, {"type": "node", "id": 2755798344, "lat": 46.6693474, "lon": 11.1630544, "tags": {"addr:city": "Meran - Merano", "addr:city:de": "Meran", "addr:city:it": "Merano", "addr:housenumber": "13", "addr:postcode": "39012", "addr:street": "Thermenallee - Viale delle Terme", "addr:street:de": "Thermenallee", "addr:street:it": "Viale delle Terme", "amenity": "bar", "name": "Bar Bacchus", "opening_hours": "Tu-Su 07:30-20:00"}}, {"type": "node", "id": 2755892119, "lat": 46.6469424, "lon": 10.9745195}, {"type": "node", "id": 2756015409, "lat": 46.6825774, "lon": 11.1595422, "tags": {"addr:city": "Tirol - Tirolo", "addr:city:de": "Tirol", "addr:city:it": "Tirolo", "addr:housenumber": "2", "addr:postcode": "39019", "addr:street": "Gnaidweg - Via Gnaid", "addr:street:de": "Gnaidweg", "addr:street:it": "Via Gnaid", "amenity": "bar", "indoor_seating": "yes", "name": "Bar Lido- Wasserpark Tirol", "outdoor_seating": "yes"}}, {"type": "node", "id": 2816145686, "lat": 46.4267273, "lon": 11.3370812, "tags": {"amenity": "bar", "outdoor_seating": "yes"}}, {"type": "node", "id": 2820994831, "lat": 46.4264137, "lon": 11.3366245, "tags": {"amenity": "bar", "name": "Bobo bar", "name:de": "Bobo bar", "name:it": "Bobo bar", "outdoor_seating": "yes"}}, {"type": "node", "id": 2905307136, "lat": 46.5547794, "lon": 11.178227}, {"type": "node", "id": 2905307137, "lat": 46.5548239, "lon": 11.1783946}, {"type": "node", "id": 2905307138, "lat": 46.5546576, "lon": 11.1784879}, {"type": "node", "id": 2905307139, "lat": 46.5546131, "lon": 11.1783202}, {"type": "node", "id": 2922276555, "lat": 46.6699903, "lon": 11.1577363, "tags": {"amenity": "pub", "biergarten": "yes", "cuisine": "bavarian", "food": "yes", "indoor_seating": "yes", "name": "Muuh Pub", "opening_hours": "Mo,Tu 11:00-15:00; We,Th 11:00-22:00; Fr,Sa 11:00-23:30", "outdoor_seating": "yes", "payment:credit_cards": "yes", "payment:debit_cards": "yes", "toilets": "yes", "website": "https://biergarten-muuh-pub.business.site/"}}, {"type": "node", "id": 2988219556, "lat": 46.6353922, "lon": 10.9374497}, {"type": "node", "id": 2988219568, "lat": 46.6354765, "lon": 10.9375062}, {"type": "node", "id": 2988219569, "lat": 46.6354768, "lon": 10.9374507}, {"type": "node", "id": 2988219572, "lat": 46.6354973, "lon": 10.9376999}, {"type": "node", "id": 2988219573, "lat": 46.6354984, "lon": 10.9375064}, {"type": "node", "id": 3017894957, "lat": 46.503, "lon": 11.3291291, "tags": {"amenity": "bar", "name": "Bar Taxi"}}, {"type": "node", "id": 3020747083, "lat": 46.4806347, "lon": 11.2978983, "tags": {"addr:city": "Frangart - Frangarto", "addr:city:de": "Frangart", "addr:city:it": "Frangarto", "addr:housenumber": "25", "addr:postcode": "39057", "addr:street": "Sigmundskroner Stra\u00dfe - Strada Castelfirmiano", "addr:street:de": "Sigmundskroner Stra\u00dfe", "addr:street:it": "Strada Castelfirmiano", "amenity": "bar", "name": "Caf\u00e9 Schlosswirt", "operator": "Wissal di Nsasra Chimaa", "ref:vatin": "IT02927080214"}}, {"type": "node", "id": 3022723471, "lat": 46.5033648, "lon": 11.3423504, "tags": {"amenity": "bar", "name": "Bar VIP"}}, {"type": "node", "id": 3027255900, "lat": 46.4840146, "lon": 11.3204168, "tags": {"addr:city": "Bolzano - Bozen", "addr:postcode": "39100", "addr:street": "Via Resia - Reschenstra\u00dfe", "amenity": "bar", "name": "Bistro Resia"}}, {"type": "node", "id": 3034304867, "lat": 46.487803, "lon": 11.3186071, "tags": {"addr:city": "Bolzano - Bozen", "addr:postcode": "39100", "addr:street": "Via Resia - Reschenstra\u00dfe", "amenity": "bar", "name": "Ariston Bingo"}}, {"type": "node", "id": 3034314276, "lat": 46.4873062, "lon": 11.318304, "tags": {"addr:city": "Bolzano - Bozen", "addr:postcode": "39100", "addr:street": "Via Resia - Reschenstra\u00dfe", "amenity": "bar", "name": "Bar nouvo"}}, {"type": "node", "id": 3034316029, "lat": 46.4870191, "lon": 11.3184729, "tags": {"addr:city": "Bolzano - Bozen", "addr:housenumber": "76a", "addr:postcode": "39100", "addr:street": "Via Resia - Reschenstra\u00dfe", "amenity": "bar", "name": "Gelateria Il Golsone", "phone": "+39 0471 501170"}}, {"type": "node", "id": 3039145198, "lat": 46.6524938, "lon": 11.0047691, "tags": {"amenity": "bar"}}, {"type": "node", "id": 3047619310, "lat": 46.6496305, "lon": 11.0010211, "tags": {"amenity": "pub", "check_date": "2023-06-06", "name": "s\u2019Itipftl"}}, {"type": "node", "id": 3074972836, "lat": 46.4050777, "lon": 11.0929581, "tags": {"amenity": "bar", "name": "VerBar - Bar Dambel", "smoking": "no"}}, {"type": "node", "id": 3088532127, "lat": 46.6789615, "lon": 11.1531195, "tags": {"addr:city": "Meran - Merano", "addr:postcode": "39012", "addr:street": "W.-A.-Mozart-Stra\u00dfe - Via W. A. Mozart", "amenity": "bar", "name": "Bar Mozart", "opening_hours": "Mo-Sa 06:30-23:45", "outdoor_seating": "yes"}}, {"type": "node", "id": 3120466520, "lat": 46.5006789, "lon": 11.3377176, "tags": {"amenity": "bar", "name": "Bar da Amadeo"}}, {"type": "node", "id": 3177009574, "lat": 46.6123269, "lon": 11.1566357, "tags": {"addr:housenumber": "25", "addr:street": "Johann-Tribus-Platz - Piazza Johann Tribus", "amenity": "bar", "email": "info@cocktailbar-kuntner.com", "name": "Caf\u00e8 Kuntner", "opening_hours": "Tu-Th 07:00-23:00, Fr,Sa 07:00-24:00, Su 08:00-19:00; Mo off", "phone": "+39 393 2850891", "website": "https://www.cocktailbar-kuntner.com/"}}, {"type": "node", "id": 3180932876, "lat": 46.4979579, "lon": 11.3597259, "tags": {"addr:housenumber": "4", "addr:street": "Via Renon - Rittner Stra\u00dfe", "amenity": "bar", "changing_table": "yes", "name": "Caf\u00e9 Raiffeisen", "opening_hours": "Mo-Sa 07:00-19:00", "wheelchair": "limited", "wifi": "no"}}, {"type": "node", "id": 3192103319, "lat": 46.4982217, "lon": 11.3581539, "tags": {"amenity": "bar", "name": "Theater Cafe"}}, {"type": "node", "id": 3206564510, "lat": 46.4207778, "lon": 11.3317894, "tags": {"addr:city": "Laives - Leifers", "addr:city:de": "Leifers", "addr:city:it": "Laives", "addr:postcode": "39055", "addr:street": "Via John Fitzgerald Kennedy - John-Fitzgerald-Kennedy-Stra\u00dfe", "addr:street:de": "John-Fitzgerald-Kennedy-Stra\u00dfe", "addr:street:it": "Via John Fitzgerald Kennedy", "amenity": "bar"}}, {"type": "node", "id": 3206591694, "lat": 46.4255227, "lon": 11.3357269, "tags": {"amenity": "bar", "name": "Bar Sole", "wheelchair": "no"}}, {"type": "node", "id": 3231042372, "lat": 46.667184, "lon": 11.1543106}, {"type": "node", "id": 3231042384, "lat": 46.6672264, "lon": 11.154191}, {"type": "node", "id": 3231042414, "lat": 46.667271, "lon": 11.1543764}, {"type": "node", "id": 3231042417, "lat": 46.6672785, "lon": 11.1543821}, {"type": "node", "id": 3231042425, "lat": 46.6672952, "lon": 11.1543335}, {"type": "node", "id": 3231042429, "lat": 46.6673027, "lon": 11.1543389}, {"type": "node", "id": 3231042435, "lat": 46.6673095, "lon": 11.154319}, {"type": "node", "id": 3231042443, "lat": 46.6673272, "lon": 11.1542676}, {"type": "node", "id": 3339551364, "lat": 46.6704835, "lon": 11.1696277, "tags": {"amenity": "bar", "name": "Palma"}}, {"type": "node", "id": 3387480536, "lat": 46.6433475, "lon": 10.9900466}, {"type": "node", "id": 3387480547, "lat": 46.643386, "lon": 10.9900651}, {"type": "node", "id": 3387480552, "lat": 46.643404, "lon": 10.9899858}, {"type": "node", "id": 3388951654, "lat": 46.6469619, "lon": 10.9742631}, {"type": "node", "id": 3388951657, "lat": 46.6469781, "lon": 10.9745124}, {"type": "node", "id": 3388951659, "lat": 46.646983, "lon": 10.9744379}, {"type": "node", "id": 3514640982, "lat": 46.4270333, "lon": 11.3369931, "tags": {"amenity": "bar", "name": "Bar H", "outdoor_seating": "yes"}}, {"type": "node", "id": 3517484220, "lat": 46.4876536, "lon": 11.341696, "tags": {"addr:city": "Bolzano - Bozen", "addr:housenumber": "2f", "addr:postcode": "39100", "addr:street": "Via Galileo Galilei - Galileo-Galilei-Stra\u00dfe", "amenity": "bar", "name": "Bar Galileo", "smoking": "outside", "wheelchair": "yes"}}, {"type": "node", "id": 3547566810, "lat": 46.6456239, "lon": 10.9662722, "tags": {"amenity": "bar", "name": "Stabnertreff", "toilets:wheelchair": "yes", "wheelchair": "yes"}}, {"type": "node", "id": 3586172827, "lat": 46.462416, "lon": 11.2811179, "tags": {"amenity": "bar", "name": "Bar Greifenburg"}}, {"type": "node", "id": 3597762894, "lat": 46.4724378, "lon": 11.2612346, "tags": {"addr:city": "St. Pauls - San Paolo", "addr:city:de": "St. Pauls", "addr:city:it": "San Paolo", "addr:housenumber": "7", "addr:postcode": "39057", "addr:street": "Paulser Platz - Piazza San Paolo", "addr:street:de": "Paulser Platz", "addr:street:it": "Piazza San Paolo", "amenity": "bar", "indoor_seating": "yes", "name": "Zum Mondschein", "opening_hours": "Mo-Sa 08:00-24:00; Su 08:00-17:00", "outdoor_seating": "yes", "wheelchair": "no"}}, {"type": "node", "id": 3608663042, "lat": 46.6790353, "lon": 11.1259462, "tags": {"amenity": "bar", "name": "Bar Neuhaus"}}, {"type": "node", "id": 3663433876, "lat": 46.7016861, "lon": 11.1801916, "tags": {"amenity": "bar", "name": "Privatbrennerei Wezl", "note": "Kleine Imbisse erh\u00e4ltlich!", "opening_hours": "Mo-Sa 08:00-16:00", "source": "private_visit", "source:date": "2015-07-20"}}, {"type": "node", "id": 3665541838, "lat": 46.498859, "lon": 11.3519923, "tags": {"addr:city": "Bolzano - Bozen", "addr:housenumber": "1c", "addr:postcode": "39100", "addr:street": "Via Leonardo da Vinci - Leonardo-da-Vinci-Stra\u00dfe", "amenity": "bar", "name": "Insere Bar"}}, {"type": "node", "id": 3669366319, "lat": 46.5212152, "lon": 11.226673, "tags": {"amenity": "bar"}}, {"type": "node", "id": 3673473690, "lat": 46.5002011, "lon": 11.3539029, "tags": {"amenity": "bar", "name": "Marios Fischb\u00e4nke"}}, {"type": "node", "id": 3699621440, "lat": 46.6551094, "lon": 11.1467945}, {"type": "node", "id": 3699621441, "lat": 46.6552407, "lon": 11.147119}, {"type": "node", "id": 3699621442, "lat": 46.6549875, "lon": 11.1473387}, {"type": "node", "id": 3699621443, "lat": 46.6548604, "lon": 11.1470142}, {"type": "node", "id": 3710112312, "lat": 46.6583347, "lon": 11.1441538, "tags": {"amenity": "bar", "contact:mobile": "+39 340 0628699", "name": "Piccolo Bar", "operator": "Manfred Kaserer", "outdoor_seating": "yes", "source": "Unterkunftsverzeichnis Marling  2023, S. 40, schriftliche Erlaubnis des Tourismusvereins Marling vom 2016-08-16 f\u00fcr die Verwendung der Daten f\u00fcr OSM", "source:date": "2022-12-11"}}, {"type": "node", "id": 3721089067, "lat": 46.5102459, "lon": 11.1072164}, {"type": "node", "id": 3758657003, "lat": 46.4184203, "lon": 11.2332151, "tags": {"amenity": "pub", "name": "Tower Pub"}}, {"type": "node", "id": 3977916594, "lat": 46.4848039, "lon": 11.2939907}, {"type": "node", "id": 3977916603, "lat": 46.4849855, "lon": 11.2939599}, {"type": "node", "id": 3977916604, "lat": 46.484947, "lon": 11.2940848}, {"type": "node", "id": 3977916605, "lat": 46.484843, "lon": 11.2938661}, {"type": "node", "id": 3977916611, "lat": 46.4849524, "lon": 11.2939384}, {"type": "node", "id": 3980771450, "lat": 46.4849102, "lon": 11.2940609}, {"type": "node", "id": 4168146287, "lat": 46.495023, "lon": 11.3506406, "tags": {"addr:city": "Bolzano - Bozen", "addr:housenumber": "21", "addr:postcode": "39100", "addr:street": "Via Guglielmo Marconi - Guglielmo-Marconi-Stra\u00dfe", "addr:unit": "E", "amenity": "bar", "description": "Shisha Bar", "name": "Bar K\u00f6nig", "outdoor_seating": "yes", "smoking": "dedicated"}}, {"type": "node", "id": 4221664886, "lat": 46.4460959, "lon": 11.2579523, "tags": {"addr:housenumber": "15", "addr:postcode": "39057", "addr:street": "Lambrechtsweg - Via Lambrecht", "amenity": "bar", "name": "Route 66", "opening_hours": "Tu-Fr 10:00-14:00, 17:00-24:00; Sa 10:00-24:00; Su 10:00-23:00", "operator": "Carli Alex & Krivosheeva Elena s.a.s.", "phone": "+39 333 6769897;+39 0471 664331;+39 0471 663562"}}, {"type": "node", "id": 4221675337, "lat": 46.4451193, "lon": 11.2608285, "tags": {"addr:city": "Eppan an der Weinstra\u00dfe - Appiano sulla Strada del Vino", "addr:city:de": "Eppan an der Weinstra\u00dfe", "addr:city:it": "Appiano sulla Strada del Vino", "addr:housenumber": "6", "addr:postcode": "39057", "addr:street": "Kalterer Stra\u00dfe - Via Caldaro", "addr:street:de": "Kalterer Stra\u00dfe", "addr:street:it": "Via Caldaro", "amenity": "bar", "name": "Bar Cafe - Pasticceria \"Brigitte\"", "name:de": "Konditorei - Cafe \"Brigitte\"", "name:it": "Cafe - Pasticceria \"Brigitte\"", "opening_hours": "Mo, We-Su 07:00-21:00", "phone": "+39 0471 663207"}}, {"type": "node", "id": 4256544873, "lat": 46.4370241, "lon": 11.0285014}, {"type": "node", "id": 4256544878, "lat": 46.4370811, "lon": 11.0283264}, {"type": "node", "id": 4256544889, "lat": 46.4371446, "lon": 11.028584}, {"type": "node", "id": 4256544892, "lat": 46.4371709, "lon": 11.028438}, {"type": "node", "id": 4256544894, "lat": 46.4371843, "lon": 11.0283971}, {"type": "node", "id": 4256544896, "lat": 46.4371883, "lon": 11.0284499}, {"type": "node", "id": 4265862445, "lat": 46.4961236, "lon": 11.3522592, "tags": {"addr:city": "Bolzano - Bozen", "addr:housenumber": "18b", "addr:postcode": "39100", "addr:street": "Via dei Cappuccini - Kapuzinergasse", "amenity": "pub", "name": "Moskito", "opening_hours": "Mo-We 18:00-23:00; Th-Sa 18:00-24:00"}}, {"type": "node", "id": 4317319515, "lat": 46.4408549, "lon": 11.1376186}, {"type": "node", "id": 4317461245, "lat": 46.4410759, "lon": 11.1376742}, {"type": "node", "id": 4317461246, "lat": 46.4410671, "lon": 11.1375886}, {"type": "node", "id": 4317461247, "lat": 46.4410123, "lon": 11.1376541}, {"type": "node", "id": 4317461248, "lat": 46.4409915, "lon": 11.1376027}, {"type": "node", "id": 4317461249, "lat": 46.4409367, "lon": 11.1376257}, {"type": "node", "id": 4317461250, "lat": 46.4408943, "lon": 11.1376107}, {"type": "node", "id": 4317461251, "lat": 46.4408891, "lon": 11.1376399}, {"type": "node", "id": 4317461252, "lat": 46.4408525, "lon": 11.1376576}, {"type": "node", "id": 4317461253, "lat": 46.4408037, "lon": 11.1376718}, {"type": "node", "id": 4317461254, "lat": 46.4408586, "lon": 11.1378328}, {"type": "node", "id": 4351587517, "lat": 46.4542814, "lon": 11.1083504, "tags": {"amenity": "bar", "name": "Restaurant", "opening_hours": "06:00-22:00"}}, {"type": "node", "id": 4361671610, "lat": 46.4614062, "lon": 11.3337298, "tags": {"amenity": "bar", "name": "Hobbit"}}, {"type": "node", "id": 4375598425, "lat": 46.4593929, "lon": 11.3326563, "tags": {"amenity": "bar", "name": "L'Angolo di Mari'"}}, {"type": "node", "id": 4386570704, "lat": 46.6889363, "lon": 11.1569834, "tags": {"amenity": "pub", "name": "Vereinshausbar", "outdoor_seating": "yes", "source": "survey", "source:date": "2015-07"}}, {"type": "node", "id": 4415028876, "lat": 46.4191471, "lon": 11.0869991, "tags": {"addr:city": "Cloz", "addr:housenumber": "10", "addr:postcode": "38020", "addr:street": "Via Santo Stefano", "amenity": "bar", "name": "Bar Posta", "phone": "+39 333 1709696", "smoking": "outside"}}, {"type": "node", "id": 4437106995, "lat": 46.6525741, "lon": 11.1466757, "tags": {"amenity": "pub", "name": "Gravenstein", "outdoor_seating": "yes"}}, {"type": "node", "id": 4568724842, "lat": 46.6643612, "lon": 11.1589617, "tags": {"amenity": "pub", "name": "Bar Erika"}}, {"type": "node", "id": 4649265292, "lat": 46.421294, "lon": 11.3316584, "tags": {"addr:city": "Laives - Leifers", "addr:city:de": "Leifers", "addr:city:it": "Laives", "addr:postcode": "39055", "addr:street": "Via John Fitzgerald Kennedy - John-Fitzgerald-Kennedy-Stra\u00dfe", "addr:street:de": "John-Fitzgerald-Kennedy-Stra\u00dfe", "addr:street:it": "Via John Fitzgerald Kennedy", "amenity": "bar", "name": "Defranceschi", "outdoor_seating": "yes"}}, {"type": "node", "id": 4655154789, "lat": 46.4634649, "lon": 11.3329763, "tags": {"amenity": "bar", "name": "Bar Campo", "name:de": "Bar Campo", "name:it": "Bar Campo"}}, {"type": "node", "id": 4666695605, "lat": 46.4960127, "lon": 11.3073919, "tags": {"amenity": "bar", "name": "Treff"}}, {"type": "node", "id": 4713355790, "lat": 46.413174, "lon": 11.1743966, "tags": {"addr:city": "Ruffr\u00e9-Mendola", "addr:housenumber": "22", "addr:postcode": "38010", "addr:street": "Maso Molin", "amenity": "bar", "brewery": "yes", "email": "stece78@hotmail.it", "internet_access": "no", "level": "0", "name": "Bari ai laghetti", "name:it": "Bar ai laghetti", "opening_hours": "Mo-Su 10:00-20:00", "outdoor_seating": "yes", "payment:cash": "yes", "payment:contactless": "yes", "payment:mastercard": "yes", "payment:notes": "yes", "payment:visa": "yes", "phone": "+39 338 619 4517", "wheelchair": "yes"}}, {"type": "node", "id": 4826762921, "lat": 46.4971452, "lon": 11.3505414, "tags": {"addr:city": "Bolzano - Bozen", "addr:city:de": "Bozen", "addr:city:it": "Bolzano", "addr:housenumber": "1", "addr:postcode": "39100", "addr:street": "Via Giosu\u00e8 Carducci - Giosu\u00e8-Carducci-Stra\u00dfe", "addr:street:de": "Giosu\u00e8-Carducci-Stra\u00dfe", "addr:street:it": "Via Giosu\u00e8 Carducci", "amenity": "bar", "cuisine": "italian;coffee_shop", "name": "Bar Carducci", "name:de": "Bar Carducci", "name:it": "Bar Carducci", "opening_hours": "Mo-Sa 06:30-20:30; Su 07:00-13:00"}}, {"type": "node", "id": 4827823955, "lat": 46.4975459, "lon": 11.3507636, "tags": {"addr:street": "Largo Adolph Kolping - Adolph-Kolping-Stra\u00dfe", "amenity": "bar", "indoor_seating": "yes", "name:signed": "no", "outdoor_seating": "yes", "smoking": "outside", "wheelchair": "no"}}, {"type": "node", "id": 4974191347, "lat": 46.5100788, "lon": 11.1071882}, {"type": "node", "id": 4974191348, "lat": 46.5101203, "lon": 11.1070965}, {"type": "node", "id": 4974191349, "lat": 46.5102044, "lon": 11.1073081}, {"type": "node", "id": 5011298161, "lat": 46.7389434, "lon": 11.2008955, "tags": {"amenity": "bar", "name": "Passerbar"}}, {"type": "node", "id": 5028354301, "lat": 46.4993066, "lon": 11.3561011, "tags": {"amenity": "bar", "name": "La Vida Caf\u00e9", "opening_hours": "Mo-Fr 07:30-20:00; Sa 07:30-13:00"}}, {"type": "node", "id": 5075093239, "lat": 46.5001721, "lon": 11.3541985, "tags": {"amenity": "bar", "name": "SonderBar"}}, {"type": "node", "id": 5284793740, "lat": 46.4277747, "lon": 11.3349161, "tags": {"amenity": "bar", "name": "Bar Butterfly", "outdoor_seating": "yes"}}, {"type": "node", "id": 5476762014, "lat": 46.5004215, "lon": 11.3427556, "tags": {"addr:city": "Bolzano - Bozen", "addr:housenumber": "33", "addr:postcode": "39100", "addr:street": "Piazza della Vittoria - Siegesplatz", "amenity": "bar", "name": "Tiffany", "outdoor_seating": "yes"}}, {"type": "node", "id": 5503454583, "lat": 46.6893761, "lon": 11.1553834, "tags": {"addr:city": "Tirol - Tirolo", "addr:housenumber": "26", "addr:postcode": "39019", "addr:street": "Hauptstra\u00dfe", "amenity": "bar", "name": "Weinbar - Dorf Tirol"}}, {"type": "node", "id": 5503454584, "lat": 46.6896174, "lon": 11.1555725, "tags": {"addr:city": "Tirol - Tirolo", "addr:housenumber": "23c", "addr:postcode": "39019", "addr:street": "Hauptstra\u00dfe", "amenity": "bar", "name": "Sunshine - Bar - Dorf Tirol", "opening_hours": "07:00-22:00", "outdoor_seating": "yes"}}, {"type": "node", "id": 5571854578, "lat": 46.4716152, "lon": 11.3332759, "tags": {"addr:city": "Bolzano - Bozen", "addr:housenumber": "13f", "addr:postcode": "39100", "addr:street": "Via Luigi Negrelli - Luigi-Negrelli-Stra\u00dfe", "amenity": "pub", "cuisine": "pizza", "food": "yes", "name": "Dublin Pub", "outdoor_seating": "yes", "ref:vatin": "IT02354940211"}}, {"type": "node", "id": 5664263478, "lat": 46.4258464, "lon": 11.3356322, "tags": {"amenity": "bar"}}, {"type": "node", "id": 5702799699, "lat": 46.4901998, "lon": 11.3201802, "tags": {"amenity": "bar", "name": "Pub Murphy's", "outdoor_seating": "yes"}}, {"type": "node", "id": 5709473878, "lat": 46.4990385, "lon": 11.3093841, "tags": {"amenity": "bar"}}, {"type": "node", "id": 5781653308, "lat": 46.4559035, "lon": 11.258906, "tags": {"addr:city": "Eppan an der Weinstra\u00dfe - Appiano sulla Strada del Vino", "addr:city:de": "Eppan an der Weinstra\u00dfe", "addr:city:it": "Appiano sulla Strada del Vino", "addr:hamlet": "St. Michael - San Michele", "addr:hamlet:de": "St. Michael", "addr:hamlet:it": "San Michele", "addr:housenumber": "14", "addr:postcode": "39057", "addr:street": "J.-G.-Plazer-Stra\u00dfe - Via J. G. Plazer", "addr:street:de": "J.-G.-Plazer-Stra\u00dfe", "addr:street:it": "Via J. G. Plazer", "amenity": "bar", "email": "info@galeriewinebar.it", "name": "Galerie Lounge & Wine Bar", "opening_hours": "Mo-Fr 08:00-13:00,15:00-20:00; Sa 08:00-18:00", "phone": "+39 3342793609", "ref:vatin": "IT02844210217", "website": "http://www.galeriewinebar.it"}}, {"type": "node", "id": 5922052054, "lat": 46.4931818, "lon": 11.3331205, "tags": {"addr:city": "Bolzano - Bozen", "addr:city:de": "Bozen", "addr:city:it": "Bolzano", "addr:housenumber": "11c", "addr:postcode": "39100", "addr:street": "Via Palermo - Palermostra\u00dfe", "addr:street:de": "Palermostra\u00dfe", "addr:street:it": "Via Palermo", "amenity": "pub", "brand": "BEFeD", "brand:wikidata": "Q108603989", "name": "BEFeD", "opening_hours": "Mo-Su 11:30-15:00, 18:00-24:00", "phone": "+39 047 11926070", "website": "https://www.befed.it"}}, {"type": "node", "id": 5977978986, "lat": 46.6692804, "lon": 11.1620516, "tags": {"amenity": "bar", "indoor_seating": "yes", "name": "Piazza Bistrot", "outdoor_seating": "yes"}}, {"type": "node", "id": 5992898660, "lat": 46.6748335, "lon": 11.1564628, "tags": {"amenity": "bar", "name": "Arunda", "opening_hours": "Mo-Sa 07:00-20:00; Su 08:00-20:00", "wheelchair": "yes"}}, {"type": "node", "id": 6028414088, "lat": 46.4884783, "lon": 11.3206977, "tags": {"addr:city": "Bolzano - Bozen", "addr:housenumber": "31", "addr:postcode": "39100", "addr:street": "Via Sassari - Sassaristra\u00dfe", "amenity": "bar", "name": "Torre"}}, {"type": "node", "id": 6040130074, "lat": 46.6764554, "lon": 11.1459717, "tags": {"amenity": "pub", "name": "City Pub", "opening_hours": "Su-Th 14:00-01:00, Sa,Su 14:00-02:00", "smoking": "isolated"}}, {"type": "node", "id": 6132370550, "lat": 46.4717556, "lon": 11.3169587, "tags": {"amenity": "bar"}}, {"type": "node", "id": 6137100164, "lat": 46.4990099, "lon": 11.3509355, "tags": {"amenity": "bar"}}, {"type": "node", "id": 6165484123, "lat": 46.4033241, "lon": 11.321428, "tags": {"amenity": "bar", "indoor_seating": "yes", "name": "Locanda al Drago", "outdoor_seating": "yes"}}, {"type": "node", "id": 6165484127, "lat": 46.3999679, "lon": 11.3247958, "tags": {"amenity": "bar", "name": "Bar Tennis"}}, {"type": "node", "id": 6178785655, "lat": 46.4045543, "lon": 11.3194593, "tags": {"amenity": "bar", "indoor_seating": "yes", "name": "Goldenes kreuz", "opening_hours": "Mo 07:00-13:00,16:00-20:00; Tu-Sa 07:00-13:00", "outdoor_seating": "no", "wheelchair": "no"}}, {"type": "node", "id": 6333544592, "lat": 46.6572503, "lon": 11.1674392, "tags": {"addr:city": "Meran - Merano", "addr:housenumber": "260c", "addr:postcode": "39012", "addr:street": "Romstra\u00dfe - Via Roma", "amenity": "bar", "name": "Bar Cafe Madison"}}, {"type": "node", "id": 6403542741, "lat": 46.6677426, "lon": 11.0712372, "tags": {"amenity": "bar", "contact:email": "info@adventure-suedtirol.com", "contact:mobile": "+39 346 6070641", "dog": "yes", "name": "Beachbar Rafting Adventure S\u00fcdtirol", "opening_hours": "May 10-Sep 20: Mo-Su", "outdoor_seating": "yes", "website": "https://www.adventure-suedtirol.com/"}}, {"type": "node", "id": 6440928449, "lat": 46.4747195, "lon": 11.3291876, "tags": {"amenity": "bar", "name": "Bar Stellina"}}, {"type": "node", "id": 6577647251, "lat": 46.4901812, "lon": 11.3205694, "tags": {"addr:city": "Bolzano - Bozen", "addr:housenumber": "80", "addr:postcode": "39100", "addr:street": "Via Parma - Parmastra\u00dfe", "amenity": "bar", "name": "Sole"}}, {"type": "node", "id": 6611403535, "lat": 46.4253611, "lon": 11.3349523, "tags": {"amenity": "pub", "name": "Keller Bar Cantina", "opening_hours": "Mo-Su 08:00-13:00,17:00-22:00", "shop": "wine"}}, {"type": "node", "id": 6758930026, "lat": 46.6724068, "lon": 11.148945, "tags": {"addr:city": "Merano", "addr:housenumber": "6", "addr:postcode": "39012", "addr:street": "Via San Giuseppe - St.-Josef-Stra\u00dfe", "amenity": "bar", "name": "Il Pido"}}, {"type": "node", "id": 6768811526, "lat": 46.503008, "lon": 11.3457768, "tags": {"amenity": "pub", "level": "-1", "name": "Pippo Foodchillstage"}}, {"type": "node", "id": 6833127705, "lat": 46.4980417, "lon": 11.3097547}, {"type": "node", "id": 6833127706, "lat": 46.4980569, "lon": 11.3097588}, {"type": "node", "id": 6833127707, "lat": 46.4980698, "lon": 11.3097711}, {"type": "node", "id": 6833127708, "lat": 46.4980038, "lon": 11.3098115}, {"type": "node", "id": 6833127709, "lat": 46.4980065, "lon": 11.3097903}, {"type": "node", "id": 6833127710, "lat": 46.4980145, "lon": 11.3097721}, {"type": "node", "id": 6833127711, "lat": 46.4980068, "lon": 11.3098327}, {"type": "node", "id": 6833127712, "lat": 46.4980784, "lon": 11.3097898}, {"type": "node", "id": 6833127713, "lat": 46.4980267, "lon": 11.3097596}, {"type": "node", "id": 6833127714, "lat": 46.4981, "lon": 11.3098691}, {"type": "node", "id": 6833127715, "lat": 46.4980987, "lon": 11.3098932}, {"type": "node", "id": 6833127716, "lat": 46.4980909, "lon": 11.3099147}, {"type": "node", "id": 6833127717, "lat": 46.4980603, "lon": 11.3099365}, {"type": "node", "id": 6833127718, "lat": 46.4980424, "lon": 11.3099315}, {"type": "node", "id": 6833127719, "lat": 46.4980278, "lon": 11.3099157}, {"type": "node", "id": 6833127720, "lat": 46.4980193, "lon": 11.3098924}, {"type": "node", "id": 6833127721, "lat": 46.4980945, "lon": 11.3098461}, {"type": "node", "id": 6833127722, "lat": 46.4980779, "lon": 11.3099299}, {"type": "node", "id": 6867027983, "lat": 46.5002253, "lon": 11.3531774, "tags": {"addr:city": "Bolzano - Bozen", "addr:city:de": "Bozen", "addr:city:it": "Bolzano", "addr:postcode": "39100", "addr:street": "Piazza delle Erbe - Obstplatz", "addr:street:de": "Obstplatz", "addr:street:it": "Piazza delle Erbe", "amenity": "bar", "name": "Black Sheep", "name:de": "Black Sheep", "name:en": "Black Sheep"}}, {"type": "node", "id": 7066049249, "lat": 46.5000676, "lon": 11.3401383, "tags": {"amenity": "bar", "name": "Bar Dolores", "outdoor_seating": "yes"}}, {"type": "node", "id": 7087000389, "lat": 46.5005065, "lon": 11.3562378, "tags": {"addr:city": "Bolzano - Bozen", "addr:city:de": "Bozen", "addr:city:it": "Bolzano", "addr:housenumber": "8", "addr:postcode": "39100", "addr:street": "Via Dr. Josef Streiter - Dr.-Josef-Streiter-Gasse", "amenity": "bar", "internet_access": "wlan", "name": "CAPITOL Hof - Courtyard", "outdoor_seating": "yes", "smoking": "outside"}}, {"type": "node", "id": 7104749309, "lat": 46.5001404, "lon": 11.3528934, "tags": {"amenity": "bar", "name": "Nadamas"}}, {"type": "node", "id": 7106689840, "lat": 46.4755516, "lon": 11.3323103, "tags": {"amenity": "bar", "name": "Bar Galvani", "outdoor_seating": "yes"}}, {"type": "node", "id": 7165970772, "lat": 46.4885321, "lon": 11.3290822, "tags": {"amenity": "bar", "name": "White Cafe"}}, {"type": "node", "id": 7184159645, "lat": 46.4878914, "lon": 11.3185181, "tags": {"amenity": "bar", "name": "Tiziana"}}, {"type": "node", "id": 7379333472, "lat": 46.693306, "lon": 11.1613823}, {"type": "node", "id": 7379333473, "lat": 46.6932355, "lon": 11.161464}, {"type": "node", "id": 7379333474, "lat": 46.6933092, "lon": 11.1616181}, {"type": "node", "id": 7379333475, "lat": 46.6933973, "lon": 11.161541}, {"type": "node", "id": 7393220187, "lat": 46.6499955, "lon": 11.0045775, "tags": {"amenity": "bar", "name:de": "Bar Haus Baumg\u00e4rtner"}}, {"type": "node", "id": 7874828587, "lat": 46.4846142, "lon": 11.3439718, "tags": {"amenity": "bar", "name": "Bar Simpaty"}}, {"type": "node", "id": 7884403885, "lat": 46.5002363, "lon": 11.3565058, "tags": {"amenity": "bar", "name": "Bar Mitzi"}}, {"type": "node", "id": 7992673143, "lat": 46.6170276, "lon": 11.1453318, "tags": {"amenity": "bar", "check_date": "2025-12-23", "name": "Capuccino"}}, {"type": "node", "id": 7992688843, "lat": 46.615991, "lon": 11.1442694, "tags": {"amenity": "bar", "name": "Vinothek Bacchus"}}, {"type": "node", "id": 8018701131, "lat": 46.6599371, "lon": 11.1653268, "tags": {"addr:housenumber": "222", "amenity": "bar", "name": "Bar Emotion", "opening_hours": "Mo-Sa 07:00-01:00"}}, {"type": "node", "id": 8042911249, "lat": 46.6232541, "lon": 11.1459409, "tags": {"addr:housenumber": "29", "amenity": "bar", "name": "Bar Bistro Nordkap", "opening_hours": "Mo-Th 06:00-23:00; Fr, Sa 06:00-01:00", "phone": "+39 339 227 2238"}}, {"type": "node", "id": 8324001604, "lat": 46.4941692, "lon": 11.3212011, "tags": {"amenity": "bar"}}, {"type": "node", "id": 8377132147, "lat": 46.499961, "lon": 11.339113, "tags": {"amenity": "bar"}}, {"type": "node", "id": 8420326666, "lat": 46.4885311, "lon": 11.3178452, "tags": {"amenity": "bar"}}, {"type": "node", "id": 8433031655, "lat": 46.4898371, "lon": 11.3309416, "tags": {"amenity": "bar", "name": "Caf\u00e8 Milano"}}, {"type": "node", "id": 8433031656, "lat": 46.4898547, "lon": 11.3307954, "tags": {"amenity": "bar", "name": "Lounge Bar"}}, {"type": "node", "id": 8449974902, "lat": 46.6125738, "lon": 11.1562861, "tags": {"addr:housenumber": "4", "addr:street": "Johann-Tribus-Platz - Piazza Johann Tribus", "amenity": "bar", "name": "Hugo Bar Pub", "opening_hours": "Mo-Th 07:00-24:00, Fr,Sa 07:00-01:00, Su 08:00-19:00"}}, {"type": "node", "id": 8567856112, "lat": 46.4168714, "lon": 11.2082585, "tags": {"addr:city": "Ruffr\u00e8-Mendola", "addr:housenumber": "53", "addr:postcode": "38010", "addr:street": "Mendola - Campi di Golf", "amenity": "bar", "brewery": "Forst", "name": "Rodeo", "name:de": "Rodeo", "outdoor_seating": "yes", "phone": "+39 342 9498682"}}, {"type": "node", "id": 8591437713, "lat": 46.4132746, "lon": 11.1743339}, {"type": "node", "id": 8591437714, "lat": 46.4131012, "lon": 11.174285}, {"type": "node", "id": 8591437715, "lat": 46.4130773, "lon": 11.174463}, {"type": "node", "id": 8591437716, "lat": 46.4132507, "lon": 11.1745119}, {"type": "node", "id": 8849138877, "lat": 46.6701511, "lon": 11.1592373, "tags": {"addr:housenumber": "50", "amenity": "bar", "name": "Puccini"}}, {"type": "node", "id": 9235196667, "lat": 46.4983075, "lon": 11.353783, "tags": {"amenity": "bar", "name": "Campo Franz"}}, {"type": "node", "id": 9321409446, "lat": 46.614336, "lon": 11.139358, "tags": {"amenity": "bar", "name": "Gaudi Bar"}}, {"type": "node", "id": 9666296917, "lat": 46.4960519, "lon": 11.3251989, "tags": {"addr:housenumber": "106", "addr:postcode": "39100", "addr:street": "Via della Mendola - Alte Mendelstra\u00dfe", "amenity": "bar", "cuisine": "italian", "name": "barexpresscaffe @", "opening_hours": "Sa 00:00-24:00; Fr 00:00-24:00; Mo-Th 07:00-19:00", "phone": "+39 0362 45684"}}, {"type": "node", "id": 9694281517, "lat": 46.4981451, "lon": 11.3538705, "tags": {"amenity": "bar", "name": "Corte Bar Bistro"}}, {"type": "node", "id": 9762004545, "lat": 46.4620234, "lon": 11.2815494, "tags": {"addr:housenumber": "2", "amenity": "bar", "name": "Dorfbar", "phone": "+39 366 1768001"}}, {"type": "node", "id": 9819238520, "lat": 46.3948358, "lon": 11.0400206, "tags": {"amenity": "bar", "name": "Bar S. Valentino"}}, {"type": "node", "id": 10099084617, "lat": 46.4999155, "lon": 11.3600691, "tags": {"addr:housenumber": "26d", "addr:street": "Via Piave - Piavestra\u00dfe", "amenity": "bar", "name": "Bar Leo"}}, {"type": "node", "id": 10172607090, "lat": 46.6547165, "lon": 11.147327}, {"type": "node", "id": 10172607091, "lat": 46.6546869, "lon": 11.1473512}, {"type": "node", "id": 10172607092, "lat": 46.654713, "lon": 11.1474189}, {"type": "node", "id": 10172607093, "lat": 46.6547426, "lon": 11.1473947}, {"type": "node", "id": 10731125553, "lat": 46.423193, "lon": 11.1502351, "tags": {"addr:city": "Ronzone", "addr:housenumber": "18a", "addr:postcode": "38010", "addr:street": "Via Mendola", "amenity": "bar", "name": "Bar Caffeina", "wheelchair": "yes"}}, {"type": "node", "id": 10845496590, "lat": 46.3966169, "lon": 11.0246591, "tags": {"amenity": "bar", "name": "Ex Ristorante Pub Gatto Nero"}}, {"type": "node", "id": 10855612344, "lat": 46.4154901, "lon": 11.247207, "tags": {"amenity": "bar", "name": "Laurin"}}, {"type": "node", "id": 11005989967, "lat": 46.413154, "lon": 11.1742999}, {"type": "node", "id": 11150165547, "lat": 46.6201181, "lon": 11.1430581, "tags": {"addr:housenumber": "16a", "addr:street": "Via Merano", "amenity": "bar", "name": "Bar Vill"}}, {"type": "node", "id": 11342086103, "lat": 46.4809583, "lon": 11.3161013, "tags": {"addr:city": "Bolzano - Bozen", "addr:housenumber": "28", "addr:place": "Piazza Anita Pichler - Anita-Pichler-Platz", "addr:postcode": "39100", "amenity": "bar", "name": "Bar Hope Bistrot", "opening_hours": "Mo-Su 08:00-21:00", "phone": "+39 339 665 9088"}}, {"type": "node", "id": 11533226769, "lat": 46.493637, "lon": 11.3431117, "tags": {"amenity": "bar", "name": "Bar Patrick"}}, {"type": "node", "id": 11588934174, "lat": 46.608451, "lon": 11.1700374, "tags": {"addr:city": "Lana", "addr:housenumber": "78", "addr:postcode": "39011", "addr:street": "Bozner Stra\u00dfe - Via Bolzano", "amenity": "bar", "name": "Fundus", "opening_hours": "Mo-Th 06:30-24:00", "outdoor_seating": "yes", "phone": "+390473562321"}}, {"type": "node", "id": 12020549893, "lat": 46.6721366, "lon": 11.1622129, "tags": {"amenity": "bar", "name": "Jimmy's Bar und Food"}}, {"type": "node", "id": 12020549894, "lat": 46.6722688, "lon": 11.1622378, "tags": {"amenity": "bar", "name": "Jimmy's Bar und Food"}}, {"type": "node", "id": 12061932725, "lat": 46.500215, "lon": 11.3429733, "tags": {"amenity": "bar", "indoor_seating": "yes", "name": "Bar Ciak", "outdoor_seating": "yes"}}, {"type": "node", "id": 12110774191, "lat": 46.5011785, "lon": 11.3449825, "tags": {"amenity": "bar", "name": "Il Goto"}}, {"type": "node", "id": 12157038003, "lat": 46.6686957, "lon": 11.155826, "tags": {"addr:housenumber": "14", "addr:street": "Ugo-Foscolo-Stra\u00dfe - Via Ugo Foscolo", "amenity": "bar", "name": "Merano", "opening_hours": "Tu-Sa 06:00-22:00; Su 08:00-14:00", "outdoor_seating": "no"}}, {"type": "node", "id": 12157056401, "lat": 46.6673644, "lon": 11.1548884, "tags": {"addr:housenumber": "26", "addr:street": "F.-Petrarca-Stra\u00dfe - Via F. Petrarca", "amenity": "bar", "name": "Bar \"H\"", "opening_hours": "Mo-Fr 07:30-20:00; Sa 08:00-20:30", "outdoor_seating": "no"}}, {"type": "node", "id": 12157058901, "lat": 46.6687939, "lon": 11.1549893, "tags": {"addr:housenumber": "87", "addr:street": "Manzonistra\u00dfe - Via Manzoni", "amenity": "bar", "name": "Botticelli", "opening_hours": "Mo-Fr 07:00-21:00; Sa 08:30-18:00", "outdoor_seating": "no"}}, {"type": "node", "id": 12165777084, "lat": 46.6700264, "lon": 11.1502187, "tags": {"amenity": "bar", "name": "Ost West Club Est Ovest", "opening_hours": "We-Sa 18:00-01:00", "phone": "+39 0473 691544", "website": "https://ostwest.it/"}}, {"type": "node", "id": 13050533012, "lat": 46.4976581, "lon": 11.3411824, "tags": {"addr:city": "Bolzano - Bozen", "addr:housenumber": "42", "addr:postcode": "39100", "addr:street": "Via Orazio - Horazstra\u00dfe", "amenity": "bar", "cocktails": "yes", "contact:instagram": "https://www.instagram.com/fortytwo_cocktailbar", "name": "FortyTwo Cocktailbar"}}, {"type": "node", "id": 13311861200, "lat": 46.4991877, "lon": 11.3519744, "tags": {"addr:city": "Bolzano - Bozen", "addr:housenumber": "10", "addr:postcode": "39100", "addr:street": "Vicolo delle Erbe - Erbsengasse", "amenity": "pub", "brewery": "guiness", "name": "Pogue Mahones", "ref:vatin": "IT01729440212", "theme": "irish"}}, {"type": "way", "id": 96772378, "nodes": [1120666754, 1120667012, 1120666654, 1120667082, 1120667062, 1120666714, 1120666754], "tags": {"amenity": "bar", "building": "yes", "name": "Bar Sorrento", "wheelchair": "yes"}}, {"type": "way", "id": 157631627, "nodes": [1698766487, 1698766502, 1698766477, 1698766453, 1698766487], "tags": {"addr:city": "Gargazon - Gargazzone", "addr:city:de": "Gargazon", "addr:city:it": "Gargazzone", "addr:housename": "Bar Tennis", "addr:housenumber": "35", "addr:postcode": "39010", "addr:street": "Bahnhofstra\u00dfe", "amenity": "bar", "building": "yes", "check_date": "2024-01-29", "name": "Naturbar"}}, {"type": "way", "id": 165625678, "nodes": [1771647688, 1771647684, 1771647694, 1771647699, 1771647688], "tags": {"addr:city": "Tisens - Tesimo", "addr:city:de": "Tisens", "addr:city:it": "Tesimo", "addr:housenumber": "110", "addr:postcode": "39010", "amenity": "bar", "building": "yes", "name": "Bar Leo"}}, {"type": "way", "id": 183187677, "nodes": [1935552904, 1935552897, 1935552865, 1935552874, 3387480536, 3387480547, 3387480552, 1935552904], "tags": {"addr:city": "Naturns - Naturno", "addr:city:de": "Naturns", "addr:city:it": "Naturno", "addr:housenumber": "75", "addr:place": "Tschirland - Cirlano", "addr:place:de": "Tschirland", "addr:place:it": "Cirlano", "addr:postcode": "39025", "amenity": "bar", "building": "yes", "email": "info@tschirlanderhof.com", "fax": "+39 0473 672221", "name": "Tschirlander Hof", "opening_hours": "Tu-Sa 10:00-01:00; Su 09:00-01:00; Mo off", "operator": "Egger Astrid & Co. OHG", "phone": "+39 0473 668282", "smoking": "separated", "website": "https://tschirlanderhof.com/"}}, {"type": "way", "id": 208574797, "nodes": [2188567551, 2188567552, 2188567549, 2188567547, 2188567551], "tags": {"amenity": "bar", "building": "yes"}}, {"type": "way", "id": 211044290, "nodes": [2210529547, 2210529563, 2210529604, 2210529598, 2210529642, 2210529689, 2210529690, 2210529733, 2210529671, 2210529621, 2210529587, 2210529566, 2210529567, 2210529502, 2210529518, 2210529547], "tags": {"amenity": "bar", "building": "yes", "building:levels": "2", "name": "Bar Olympia", "source": "Merano City Data"}}, {"type": "way", "id": 286852615, "nodes": [2905307136, 2905307137, 2905307138, 2905307139, 2905307136], "tags": {"addr:city": "Tisens - Tesimo", "addr:city:de": "Tisens", "addr:city:it": "Tesimo", "addr:hamlet": "Prissian - Prissiano", "addr:hamlet:de": "Prissian", "addr:hamlet:it": "Prissiano", "addr:housenumber": "77", "addr:postcode": "39010", "addr:street": "Sondhof", "amenity": "pub", "building": "yes", "building:name": "Sondhof", "name": "Odin\u2019s Pub", "phone": "+39 3932 556688"}}, {"type": "way", "id": 295132791, "nodes": [2988219573, 2988219568, 2988219569, 2988219556, 2755683933, 2988219572, 2988219573], "tags": {"addr:city": "Kastelbell-Tschars - Castelbello-Ciardes", "addr:city:de": "Kastelbell-Tschars", "addr:city:it": "Castelbello-Ciardes", "addr:housenumber": "54", "addr:postcode": "39020", "addr:street": "Staatsstra\u00dfe - Via Statale", "addr:street:de": "Staatsstra\u00dfe", "addr:street:it": "Via Statale", "amenity": "bar", "building": "yes", "name": "Etzthalerhof"}}, {"type": "way", "id": 316911150, "nodes": [3231042443, 3231042435, 3231042429, 3231042425, 3231042417, 3231042414, 3231042372, 3231042384, 3231042443], "tags": {"amenity": "bar", "building": "yes", "name": "Bar Mary"}}, {"type": "way", "id": 331793806, "nodes": [3388951654, 2316843172, 2755892119, 3388951657, 3388951659, 3388951654], "tags": {"addr:city": "Naturns - Naturno", "addr:city:de": "Naturns", "addr:city:it": "Naturno", "addr:housenumber": "101", "addr:place": "Staben - Stava", "addr:place:de": "Staben", "addr:place:it": "Stava", "addr:postcode": "39025", "amenity": "bar", "brewery": "forst", "building": "yes", "email": "andyelsler@gmx.net", "internet_access": "no", "name": "radbar", "opening_hours": "Apr-Nov: Tu-Su,PH 11:00-19:00; Mo off", "phone": "+39 349 6220548", "service:bicycle:charging": "yes", "service:bicycle:diy": "yes", "source": "bing", "website": "http://www.radbar.it/"}}, {"type": "way", "id": 365963479, "nodes": [3699621440, 3699621441, 3699621442, 3699621443, 3699621440], "tags": {"amenity": "bar", "building": "yes", "name": "Im Kult"}}, {"type": "way", "id": 368260864, "nodes": [4974191348, 3721089067, 4974191349, 4974191347, 4974191348], "tags": {"addr:city": "Unsere Liebe Frau im Walde - Senale", "addr:housenumber": "41", "addr:postcode": "39010", "addr:street": "Obere Innere", "amenity": "pub", "building": "yes", "name": "Sport Bar"}}, {"type": "way", "id": 394900563, "nodes": [3977916603, 3977916604, 3980771450, 3977916594, 3977916605, 3977916611, 3977916603], "tags": {"amenity": "bar", "building": "yes"}}, {"type": "way", "id": 426342123, "nodes": [4256544878, 4256544894, 4256544892, 4256544896, 4256544889, 4256544873, 4256544878], "tags": {"amenity": "bar", "building": "yes", "name": "Bar Lanterna"}}, {"type": "way", "id": 432791498, "nodes": [4317461245, 4317461246, 4317461247, 4317461248, 4317461249, 4317461250, 4317461251, 4317319515, 4317461252, 4317461253, 4317461254, 4317461245], "tags": {"amenity": "bar", "building": "yes", "name": "Pub America", "opening_hours": "Mo-Fr 17:00-23:00; Sa-Su 17:00-02:00", "smoking": "outside"}}, {"type": "way", "id": 729377026, "nodes": [6833127712, 6833127721, 6833127714, 6833127715, 6833127716, 6833127722, 6833127717, 6833127718, 6833127719, 6833127720, 6833127711, 6833127708, 6833127709, 6833127710, 6833127713, 6833127705, 6833127706, 6833127707, 6833127712], "tags": {"amenity": "bar", "building": "yes"}}, {"type": "way", "id": 789217337, "nodes": [7379333472, 7379333473, 7379333474, 7379333475, 7379333472], "tags": {"addr:city": "Tirol - Tirolo", "addr:housenumber": "25a", "addr:postcode": "39019", "addr:street": "Seminarstra\u00dfe / Via del Seminario", "amenity": "bar", "building": "yes", "name": "Sportbar Tirol"}}, {"type": "way", "id": 925752833, "nodes": [8591437716, 8591437715, 8591437714, 11005989967, 8591437713, 8591437716], "tags": {"amenity": "bar", "brewery": "yes", "building": "yes", "name": "Bar ai Laghetti"}}, {"type": "way", "id": 1111908492, "nodes": [10172607090, 10172607091, 10172607092, 10172607093, 10172607090], "tags": {"amenity": "bar", "building": "yes", "name": "Beach Bar"}}]}