{"version": 0.6, "generator": "Overpass API 0.7.62.10 2d4cfc48", "osm3s": {"timestamp_osm_base": "2026-02-08T12:07:16Z", "copyright": "The data included in this document is from www.openstreetmap.org. The data is made available under ODbL."}, "elements": [{"type": "node", "id": 275366007, "lat": 46.6955978, "lon": 11.1093502, "tags": {"aerialway": "station", "aerialway:access": "both", "ele": "980", "name": "Korblift Vellau (Talstation) - Cestovia Velloi (Stazione a valle)", "name:de": "Korblift Vellau (Talstation)", "name:it": "Cestovia Velloi (Stazione a valle)", "opening_hours": "09:00-12:00, 13:00-17:00", "phone": "+39 0473 448532", "website": "https://www.gasteiger.it/sessellift-korblift/"}}, {"type": "node", "id": 276020761, "lat": 46.6284477, "lon": 11.1172162, "tags": {"aerialway": "station", "public_transport": "station"}}, {"type": "node", "id": 276029680, "lat": 46.650781, "lon": 10.9917593, "tags": {"aerialway": "station", "public_transport": "station"}}, {"type": "node", "id": 276649409, "lat": 46.6660745, "lon": 11.2414921, "tags": {"aerialway": "station", "aerialway:access": "both", "aerialway:summer:access": "both", "contact:email": "info@meran2000.com", "contact:fax": "+39 0473 234911", "contact:phone": "+39 0473 234821", "contact:website": "http://www.meran2000.com/", "name": "Umlaufbahn Falzeben Talstation - Cabinovia Falzeben stazione a valle", "name:de": "Umlaufbahn Falzeben Talstation", "name:it": "Cabinovia Falzeben stazione a valle"}}, {"type": "node", "id": 276649411, "lat": 46.6772969, "lon": 11.255164, "tags": {"aerialway": "station", "ele": "1950", "name": "Umlaufbahn Falzeben Bergstation - Cabinovia Falzeben stazione a monte", "name:de": "Umlaufbahn Falzeben Bergstation", "name:it": "Cabinovia Falzeben stazione a monte"}}, {"type": "node", "id": 276656763, "lat": 46.6710754, "lon": 11.2101086, "tags": {"aerialway": "station", "aerialway:access": "both", "aerialway:summer:access": "both", "contact:email": "info@meran2000.com", "contact:fax": "+39 0473 234911", "contact:phone": "+39 0473 234821", "contact:website": "http://www.meran2000.com/", "name": "Bergbahn Meran 2000 Talstation - Funivia Merano 2000 stazione a valle", "name:de": "Bergbahn Meran 2000 Talstation", "name:it": "Funivia Merano 2000 stazione a valle", "public_transport": "station", "wheelchair": "yes"}}, {"type": "node", "id": 276656764, "lat": 46.6777985, "lon": 11.2536943, "tags": {"aerialway": "station", "aerialway:access": "both", "aerialway:summer:access": "both", "ele": "1950", "name": "Bergbahn Meran 2000 Bergstation - Funivia Merano 2000 stazione a monte", "name:de": "Meran 2000 Bergstation", "name:it": "Merano 2000 stazione a monte", "wheelchair": "yes"}}, {"type": "node", "id": 276682614, "lat": 46.686191, "lon": 11.2807635, "tags": {"aerialway": "station", "name": "Mittager"}}, {"type": "node", "id": 276682619, "lat": 46.6826865, "lon": 11.2949302, "tags": {"aerialway": "station", "ele": "2270", "name": "Mittager"}}, {"type": "node", "id": 292117952, "lat": 46.6655279, "lon": 11.0692637, "tags": {"aerialway": "station", "ele": "522", "opening_hours": "May 01-Oct 15 08:00-19:00; Oct 16-Mar 31 08:00-12:00,13:00-18:30; Apr 01-30 08:00-12:00,13:00-19:00", "source": "survey", "wheelchair": "yes"}}, {"type": "node", "id": 298072757, "lat": 46.6962688, "lon": 11.1520118, "tags": {"aerialway": "station", "email": "info@seilbahn-hochmuth.it", "fax": "+39 0473 923 480", "name": "Seilbahn Dorf Tirol Tirol-Hochmuth - Funivia Tirolo, Tirolo-Alta Muta", "name:de": "Seilbahn Dorf Tirol Tirol-Hochmuth", "name:it": "Funivia Tirolo, Tirolo-Alta Muta", "note": "Fahrten zur halben stunde, bei Bedarf durchgehend Juli/august/september: letzte Fahrt 19 uhr", "opening_hours": "07:30-18:00", "phone": "+39 0473 923 480", "source": "Gastgeberverzeichnis Dorf Tirol 2015, S. 61", "website": "https://www.seilbahn-hochmuth.it/", "wheelchair": "no"}}, {"type": "node", "id": 298072758, "lat": 46.7023708, "lon": 11.1317377, "tags": {"aerialway": "station", "name": "Hochmuth Bergstation - Alta Muta Stazione a Monte", "name:de": "Hochmuth Bergstation", "name:it": "Alta Muta Stazione a Monte"}}, {"type": "node", "id": 305686532, "lat": 46.5277845, "lon": 11.4050114, "tags": {"aerialway": "station", "aerialway:access": "both", "aerialway:summer:access": "both", "air_conditioning": "no", "name": "Oberbozen - Soprabolzano", "name:de": "Oberbozen", "name:it": "Soprabolzano", "public_transport": "station", "wheelchair": "yes"}}, {"type": "node", "id": 309383838, "lat": 46.6881946, "lon": 11.420581, "tags": {"aerialway": "station", "ele": "1570", "public_transport": "station"}}, {"type": "node", "id": 309383840, "lat": 46.6954214, "lon": 11.4407587, "tags": {"aerialway": "station", "ele": "2130", "public_transport": "station"}}, {"type": "node", "id": 317166182, "lat": 46.6986438, "lon": 11.2023424, "tags": {"aerialway": "station", "aerialway:access": "both", "aerialway:summer:access": "both", "contact:email": "info@familienalm.com", "contact:phone": "+39 0473 945615", "contact:website": "http://www.familienalm.com/taser/familienalm/taser-almbahn/", "ele": "827", "name": "Taser Seilbahn Talstation - Taser funivia stazione a valle", "name:de": "Taser Seilbahn Talstation", "name:it": "Taser funivia stazione a valle"}}, {"type": "node", "id": 317166187, "lat": 46.7051173, "lon": 11.222133, "tags": {"aerialway": "station", "aerialway:access": "both", "aerialway:summer:access": "both", "ele": "1445", "name": "Taser Seilbahn Bergstation - Funivia Taser stazione a monte", "name:de": "Taser Seilbahn Bergstation", "name:it": "Funivia Taser stazione a monte", "public_transport": "station"}}, {"type": "node", "id": 330270422, "lat": 46.728647, "lon": 11.2005689, "tags": {"aerialway": "station", "aerialway:access": "both", "aerialway:summer:access": "both", "ele": "490", "email": "seilbahn.hirzer@rolmail.ne", "name": "Talstation Hirzer Seilbahn - Stazione a valle Funivia Hirzer (Punta Cervina)", "name:de": "Talstation Hirzer Seilbahn", "name:it": "Stazione a valle Funivia Hirzer (Punta Cervina)", "operator": "Seilbahnanlagen Hirzer GmbH", "phone": "+39 0473 645 498", "public_transport": "station", "source": "https://hirzerseilbahn.it", "website": "https://hirzerseilbahn.it"}}, {"type": "node", "id": 330270424, "lat": 46.7312733, "lon": 11.2129514, "tags": {"aerialway": "pylon"}}, {"type": "node", "id": 342950163, "lat": 46.4999729, "lon": 11.3642502, "tags": {"aerialway": "station", "aerialway:access": "both", "aerialway:summer:access": "both", "air_conditioning": "yes", "name": "Funivia del Renon - Rittner Seilbahn", "name:de": "Rittner Seilbahn", "name:it": "Funivia del Renon", "public_transport": "station", "route_ref": "161", "wheelchair": "yes", "wikidata": "Q2155305", "wikipedia": "it:Funivia del Renon"}}, {"type": "node", "id": 342950166, "lat": 46.4783737, "lon": 11.3690585, "tags": {"aerialway": "station", "name": "Kohlerer Seilbahn - Funivia del Colle", "name:de": "Kohlerer Seilbahn", "name:it": "Funivia del Colle", "public_transport": "station", "website": "https://kohlererbahn.it/"}}, {"type": "node", "id": 342950170, "lat": 46.4909409, "lon": 11.3685415, "tags": {"aerialway": "station", "name": "Kohlerer Seilbahn - Funivia del Colle", "name:de": "Kohlerer Seilbahn", "name:it": "Funivia del Colle", "public_transport": "station", "website": "https://kohlererbahn.it/"}}, {"type": "node", "id": 385106019, "lat": 46.5345963, "lon": 10.9215118, "tags": {"aerialway": "station", "name": "Schwemmalmbahn - Cabinovia Malga Guazza", "name:de": "Schwemmalmbahn", "name:it": "Cabinovia Malga Guazza"}}, {"type": "node", "id": 385106020, "lat": 46.5407463, "lon": 10.9045778, "tags": {"aerialway": "station", "name": "Mutegg - Monte Muta", "name:de": "Mutegg", "name:it": "Monte Muta"}}, {"type": "node", "id": 385106021, "lat": 46.5302204, "lon": 10.9171202, "tags": {"aerialway": "station", "name": "Mutegg - Monte Muta", "name:de": "Mutegg", "name:it": "Monte Muta"}}, {"type": "node", "id": 385106026, "lat": 46.5458204, "lon": 10.9411322, "tags": {"aerialway": "station", "name": "Breiteben"}}, {"type": "node", "id": 385106027, "lat": 46.5419977, "lon": 10.9318469, "tags": {"aerialway": "station", "name": "Breiteben"}}, {"type": "node", "id": 385123248, "lat": 46.5369777, "lon": 10.9224211, "tags": {"aerialway": "station", "name": "Schwemmalm - Malga Guazza", "name:de": "Schwemmalm", "name:it": "Malga Guazza"}}, {"type": "node", "id": 390978040, "lat": 46.5525524, "lon": 10.9036811, "tags": {"aerialway": "pylon"}}, {"type": "node", "id": 390978041, "lat": 46.5534168, "lon": 10.9183857, "tags": {"aerialway": "pylon"}}, {"type": "node", "id": 391926963, "lat": 46.4038991, "lon": 11.2066468, "tags": {"addr:city": "Cavareno", "addr:housenumber": "22", "addr:postcode": "38011", "addr:street": "Mendola - Campi di Golf", "aerialway": "station", "aerialway:access": "both", "aerialway:summer:access": "both", "description": "From 1360 m to 1596 m - 3 places seat", "ele": "1360", "internet_access": "no", "name": "Seggiovia Monte Roen", "name:de": "Monte Roen Sessellift", "public_transport": "station", "website": "https://www.joyvaldinonalps.it", "wheelchair": "no"}}, {"type": "node", "id": 391926964, "lat": 46.4003927, "lon": 11.2072552, "tags": {"aerialway": "pylon"}}, {"type": "node", "id": 391926965, "lat": 46.3970314, "lon": 11.2077881, "tags": {"aerialway": "pylon"}}, {"type": "node", "id": 391926966, "lat": 46.3965463, "lon": 11.2078817, "tags": {"aerialway": "pylon"}}, {"type": "node", "id": 391926967, "lat": 46.3946379, "lon": 11.2082092, "tags": {"aerialway": "pylon"}}, {"type": "node", "id": 391926968, "lat": 46.3930403, "lon": 11.208474, "tags": {"aerialway": "pylon"}}, {"type": "node", "id": 391926969, "lat": 46.3921527, "lon": 11.2086368, "tags": {"aerialway": "pylon"}}, {"type": "node", "id": 391926970, "lat": 46.3919373, "lon": 11.2086841, "tags": {"aerialway": "station", "public_transport": "station"}}, {"type": "node", "id": 398229983, "lat": 46.6929204, "lon": 11.2722128, "tags": {"aerialway": "station", "ele": "2200", "name": "St. Oswald - S. Osvaldo"}}, {"type": "node", "id": 398229985, "lat": 46.6809378, "lon": 11.2760243, "tags": {"aerialway": "station", "name": "St. Oswald - S. Osvaldo", "name:de": "St. Oswald", "name:it": "S. Osvaldo", "public_transport": "station"}}, {"type": "node", "id": 418125100, "lat": 46.563349, "lon": 11.2247617, "tags": {"aerialway": "station", "name:de": "Vilpian", "name:it": "Vilpiano", "public_transport": "stop_position"}}, {"type": "node", "id": 418125101, "lat": 46.5699009, "lon": 11.2369383, "tags": {"aerialway": "station", "name:de": "M\u00f6lten", "name:it": "Meltina", "public_transport": "stop_position"}}, {"type": "node", "id": 418145896, "lat": 46.526805, "lon": 11.4035755, "tags": {"aerialway": "pylon", "ref": "7"}}, {"type": "node", "id": 418145897, "lat": 46.5215858, "lon": 11.3959246, "tags": {"aerialway": "pylon", "ref": "6"}}, {"type": "node", "id": 418145898, "lat": 46.5155321, "lon": 11.3870515, "tags": {"aerialway": "pylon", "ref": "5"}}, {"type": "node", "id": 418145899, "lat": 46.5104736, "lon": 11.3796377, "tags": {"aerialway": "pylon", "ref": "3"}}, {"type": "node", "id": 418145900, "lat": 46.5085271, "lon": 11.3767852, "tags": {"aerialway": "pylon", "ref": "2"}}, {"type": "node", "id": 418145901, "lat": 46.5046038, "lon": 11.3710359, "tags": {"aerialway": "pylon", "ref": "1"}}, {"type": "node", "id": 418823735, "lat": 46.6760555, "lon": 11.1642968, "tags": {"aerialway": "station", "name": "Sessellift Meran\u2013Dorf Tirol / Seggiovia Merano\u2013Tirolo", "name:de": "Sessellift Meran\u2013Dorf Tirol", "name:it": "Seggiovia Merano\u2013Tirolo", "opening_hours": "Mo-Su,PH 09:00-19:00", "public_transport": "station"}}, {"type": "node", "id": 418823736, "lat": 46.6727296, "lon": 11.1623955, "tags": {"aerialway": "station", "name": "Sessellift Meran\u2013Dorf Tirol / Seggiovia Merano\u2013Tirolo", "name:de": "Sessellift Meran\u2013Dorf Tirol", "name:it": "Seggiovia Merano\u2013Tirolo", "opening_hours": "Mo-Su,PH 09:00-19:00", "public_transport": "station", "wheelchair": "no"}}, {"type": "node", "id": 430179176, "lat": 46.7171178, "lon": 11.2085075, "tags": {"aerialway": "station", "contact:phone": "+39 0473 949 450", "description": "alle 30 Min; ab 8 Personen auch zus\u00e4tzlich", "ele": "840", "name": "Talstation Verdins - Stazione a valle Verdins", "name:de": "Talstation Verdins", "name:it": "Stazione a valle Verdins", "opening_hours": "08:30-12:00, 13:00-18:00", "source": "Info TV Schenna 2017, S. 11", "website": "http://www.verdins.it/"}}, {"type": "node", "id": 443431043, "lat": 46.6953344, "lon": 11.1089385, "tags": {"aerialway": "station", "ele": "980", "name": "Sessellift Vellau (Bergstation)  -  Seggiovia Velloi (Stazione a monte)", "name:de": "Sessellift Vellau (Bergstation)", "name:it": "Seggiovia Velloi (Stazione a monte)", "phone": "+39 0473 448532", "website": "https://www.gasteiger.it/sessellift-korblift/"}}, {"type": "node", "id": 443431044, "lat": 46.6865417, "lon": 11.114382, "tags": {"aerialway": "station"}}, {"type": "node", "id": 639686208, "lat": 46.5281335, "lon": 10.9554917, "tags": {"aerialway": "station", "name": "Schwemmalmbahn - Cabinovia Malga Guazza", "name:de": "Schwemmalmbahn", "name:it": "Cabinovia Malga Guazza"}}, {"type": "node", "id": 760265758, "lat": 46.6846163, "lon": 11.0475364, "tags": {"aerialway": "station", "name": "Texelbahn - Funivia Texel", "name:de": "Texelbahn", "name:it": "Funivia Texel"}}, {"type": "node", "id": 760265759, "lat": 46.6794213, "lon": 11.0640606, "tags": {"aerialway": "station", "email": "info@texelbahn.info", "name": "Texelbahn - Funivia Texel", "name:de": "Texelbahn", "name:it": "Funivia Texel", "phone": "+39 0473 968295", "website": "https://www.texelbahn.com/"}}, {"type": "node", "id": 768422154, "lat": 46.6864973, "lon": 11.2807726, "tags": {"aerialway": "station", "name": "Kesselberg"}}, {"type": "node", "id": 851121894, "lat": 46.733899, "lon": 11.2406861, "tags": {"aerialway": "pylon", "ele": "1808", "name": "Bergstation"}}, {"type": "node", "id": 1368188057, "lat": 46.6998391, "lon": 11.2060155, "tags": {"aerialway": "pylon"}}, {"type": "node", "id": 1411601669, "lat": 46.7047148, "lon": 11.1083724, "tags": {"aerialway": "station", "ele": "1555"}}, {"type": "node", "id": 1450065759, "lat": 46.6712819, "lon": 11.2475814, "tags": {"aerialway": "station", "name": "Wallpach"}}, {"type": "node", "id": 1450065763, "lat": 46.6774353, "lon": 11.2550714, "tags": {"aerialway": "station", "ele": "1950", "name": "Wallpach", "public_transport": "station"}}, {"type": "node", "id": 1672091298, "lat": 46.691057, "lon": 11.302934, "tags": {"aerialway": "station", "ele": "2300", "name": "Kesselberg - Costa Valcanova", "name:de": "Kesselberg", "name:it": "Costa Valcanova"}}, {"type": "node", "id": 1760430571, "lat": 46.6744789, "lon": 11.232149, "tags": {"aerialway": "station", "aerialway:access": "both", "aerialway:summer:access": "both", "name": "Bergbahn Meran 2000 Mittelstation - Funivia Merano 2000 stazione intermeda", "name:de": "Bergbahn Meran 2000 Mittelstation", "name:it": "Funivia Merano 2000 stazione intermeda", "public_transport": "station"}}, {"type": "node", "id": 2269445791, "lat": 46.6744744, "lon": 11.2517455, "tags": {"aerialway": "pylon", "mapillary": "503625822181027", "ref": "11"}}, {"type": "node", "id": 2269445794, "lat": 46.6726849, "lon": 11.2495701, "tags": {"aerialway": "pylon", "mapillary": "524819126876775", "ref": "9"}}, {"type": "node", "id": 2269445804, "lat": 46.6697059, "lon": 11.2459158, "tags": {"aerialway": "pylon", "mapillary": "862519765738618", "ref": "5"}}, {"type": "node", "id": 2269445819, "lat": 46.6687083, "lon": 11.2446886, "tags": {"aerialway": "pylon", "mapillary": "1611918872711703", "ref": "4"}}, {"type": "node", "id": 2269445822, "lat": 46.670161, "lon": 11.2464702, "tags": {"aerialway": "pylon", "mapillary": "506326568511860", "ref": "6"}}, {"type": "node", "id": 2269445823, "lat": 46.6766318, "lon": 11.2543663, "tags": {"aerialway": "pylon", "mapillary": "892381276058262", "ref": "14"}}, {"type": "node", "id": 2269445827, "lat": 46.6720856, "lon": 11.2488348, "tags": {"aerialway": "pylon", "mapillary": "1031477578494010", "ref": "8"}}, {"type": "node", "id": 2269445830, "lat": 46.6761753, "lon": 11.2538211, "tags": {"aerialway": "pylon", "mapillary": "956029379604306", "ref": "13"}}, {"type": "node", "id": 2269445831, "lat": 46.6673164, "lon": 11.2430168, "tags": {"aerialway": "pylon", "mapillary": "947577180502871", "ref": "3"}}, {"type": "node", "id": 2269445832, "lat": 46.6752234, "lon": 11.2526577, "tags": {"aerialway": "pylon", "mapillary": "1175360580357351", "ref": "12"}}, {"type": "node", "id": 2269445845, "lat": 46.6708239, "lon": 11.247303, "tags": {"aerialway": "pylon", "mapillary": "1036387348111187", "ref": "7"}}, {"type": "node", "id": 2269445849, "lat": 46.6738212, "lon": 11.2509455, "tags": {"aerialway": "pylon", "mapillary": "1549056372683638", "ref": "10"}}, {"type": "node", "id": 2269445852, "lat": 46.6665657, "lon": 11.2421308, "tags": {"aerialway": "pylon", "mapillary": "811549454078042", "ref": "2"}}, {"type": "node", "id": 2279221741, "lat": 46.5117793, "lon": 11.3815513, "tags": {"aerialway": "pylon", "ref": "4"}}, {"type": "node", "id": 2417538743, "lat": 46.6205976, "lon": 11.139831, "tags": {"aerialway": "station", "name": "Vigiljoch - San Vigilio", "name:de": "Vigiljoch", "name:it": "San Vigilio"}}, {"type": "node", "id": 2459444417, "lat": 46.5520001, "lon": 10.8940683}, {"type": "node", "id": 2459444424, "lat": 46.5535966, "lon": 10.9222554}, {"type": "node", "id": 2459444426, "lat": 46.5536398, "lon": 10.9222558}, {"type": "node", "id": 2471288296, "lat": 46.6583864, "lon": 10.9830746, "tags": {"aerialway": "station", "ele": "1280", "public_transport": "station", "wheelchair": "yes"}}, {"type": "node", "id": 2790770358, "lat": 46.6764798, "lon": 11.2451238, "tags": {"aerialway": "pylon"}}, {"type": "node", "id": 2790929993, "lat": 46.6720045, "lon": 11.2161686, "tags": {"aerialway": "pylon"}}, {"type": "node", "id": 2794855322, "lat": 46.6878022, "lon": 11.2871143, "tags": {"aerialway": "pylon"}}, {"type": "node", "id": 2794855335, "lat": 46.6900243, "lon": 11.2979134, "tags": {"aerialway": "pylon"}}, {"type": "node", "id": 2794855341, "lat": 46.6906402, "lon": 11.3009069, "tags": {"aerialway": "pylon"}}, {"type": "node", "id": 2794855342, "lat": 46.6881039, "lon": 11.2885807, "tags": {"aerialway": "pylon"}}, {"type": "node", "id": 2794855345, "lat": 46.6875194, "lon": 11.28574, "tags": {"aerialway": "pylon"}}, {"type": "node", "id": 2794855350, "lat": 46.687265, "lon": 11.2845037, "tags": {"aerialway": "pylon"}}, {"type": "node", "id": 2794855353, "lat": 46.690334, "lon": 11.2994186, "tags": {"aerialway": "pylon"}}, {"type": "node", "id": 2794855355, "lat": 46.6893061, "lon": 11.294423, "tags": {"aerialway": "pylon"}}, {"type": "node", "id": 2794855356, "lat": 46.6898242, "lon": 11.2969411, "tags": {"aerialway": "pylon"}}, {"type": "node", "id": 2794855358, "lat": 46.6895941, "lon": 11.2958227, "tags": {"aerialway": "pylon"}}, {"type": "node", "id": 2794855362, "lat": 46.6884523, "lon": 11.2902737, "tags": {"aerialway": "pylon"}}, {"type": "node", "id": 2794855363, "lat": 46.6868186, "lon": 11.2823343, "tags": {"aerialway": "pylon"}}, {"type": "node", "id": 2794855368, "lat": 46.6865905, "lon": 11.2812257, "tags": {"aerialway": "pylon"}}, {"type": "node", "id": 2794855375, "lat": 46.6870188, "lon": 11.2833073, "tags": {"aerialway": "pylon"}}, {"type": "node", "id": 2794855379, "lat": 46.6887352, "lon": 11.2916483, "tags": {"aerialway": "pylon"}}, {"type": "node", "id": 2794855383, "lat": 46.6909407, "lon": 11.3023674, "tags": {"aerialway": "pylon"}}, {"type": "node", "id": 2794855389, "lat": 46.6890593, "lon": 11.2932234, "tags": {"aerialway": "pylon"}}, {"type": "node", "id": 3160854125, "lat": 46.609949, "lon": 11.1171802}, {"type": "node", "id": 3160854130, "lat": 46.6216866, "lon": 11.1051312}, {"type": "node", "id": 3335325542, "lat": 46.5408098, "lon": 10.934189, "tags": {"aerialway": "station", "name": "Schwemmalm - Malga Guazza", "name:de": "Schwemmalm", "name:it": "Malga Guazza"}}, {"type": "node", "id": 3574055754, "lat": 46.701423, "lon": 11.2108071, "tags": {"aerialway": "pylon"}}, {"type": "node", "id": 3574088830, "lat": 46.7047799, "lon": 11.2211068, "tags": {"aerialway": "pylon"}}, {"type": "node", "id": 3589734328, "lat": 46.6450256, "lon": 11.0753471, "tags": {"aerialway": "station", "ele": "1349", "opening_hours": "May 01-Oct 15 08:00-19:00; Oct 16-Mar 31 08:00-12:00,13:00-18:30; Apr 01-30 08:00-12:00,13:00-19:00", "source": "survey"}}, {"type": "node", "id": 3597076554, "lat": 46.7274472, "lon": 11.2273214, "tags": {"aerialway": "station", "contact:phone": "+39 0473 949 450", "description": "alle 30 Min; ab 8 Personen auch zus\u00e4tzlich", "ele": "1450", "name": "Bergstation Tall - Stazione a monte Talle", "name:de": "Bergstation Tall", "name:it": "Stazione a monte Talle", "opening_hours": "08:30-12:00, 13:00-18:00", "source": "Info TV Schenna 2017, S. 11", "website": "http://verdins.it/"}}, {"type": "node", "id": 3597076556, "lat": 46.7337982, "lon": 11.2404658, "tags": {"aerialway": "station", "name": "Bergstation Sessellift Grube (Tall-Grube)"}}, {"type": "node", "id": 3597076557, "lat": 46.7383343, "lon": 11.2467526, "tags": {"aerialway": "station", "ele": "1976", "name": "Bergstation Klammeben - Stazione a monte Klammeben", "name:de": "Bergstation Klammeben", "name:it": "Stazione a monte Klammeben", "public_transport": "station"}}, {"type": "node", "id": 3597076561, "lat": 46.7349777, "lon": 11.2307988, "tags": {"aerialway": "pylon"}}, {"type": "node", "id": 3597076562, "lat": 46.7357985, "lon": 11.2347376, "tags": {"aerialway": "pylon"}}, {"type": "node", "id": 3597076563, "lat": 46.7371211, "lon": 11.2410488, "tags": {"aerialway": "pylon"}}, {"type": "node", "id": 3597076564, "lat": 46.7381827, "lon": 11.2459573, "tags": {"aerialway": "pylon"}}, {"type": "node", "id": 3597094056, "lat": 46.7279052, "lon": 11.2273052, "tags": {"aerialway": "station", "ele": "1460", "name": "Talstation Sessellift Grube (Tall-Grube)"}}, {"type": "node", "id": 3597094057, "lat": 46.7279728, "lon": 11.2274601, "tags": {"aerialway": "pylon"}}, {"type": "node", "id": 3597094058, "lat": 46.7279884, "lon": 11.2274957, "tags": {"aerialway": "pylon"}}, {"type": "node", "id": 3597094059, "lat": 46.7280696, "lon": 11.2276775, "tags": {"aerialway": "pylon"}}, {"type": "node", "id": 3597094060, "lat": 46.7285835, "lon": 11.2288277, "tags": {"aerialway": "pylon"}}, {"type": "node", "id": 3597094061, "lat": 46.7290628, "lon": 11.2299004, "tags": {"aerialway": "pylon"}}, {"type": "node", "id": 3597094062, "lat": 46.7293678, "lon": 11.2305688, "tags": {"aerialway": "pylon"}}, {"type": "node", "id": 3597094063, "lat": 46.7296499, "lon": 11.2312012, "tags": {"aerialway": "pylon"}}, {"type": "node", "id": 3597094064, "lat": 46.7302553, "lon": 11.2325509, "tags": {"aerialway": "pylon"}}, {"type": "node", "id": 3597094065, "lat": 46.7313331, "lon": 11.2349689, "tags": {"aerialway": "pylon"}}, {"type": "node", "id": 3597094066, "lat": 46.7317886, "lon": 11.2359801, "tags": {"aerialway": "pylon"}}, {"type": "node", "id": 3597094067, "lat": 46.7321277, "lon": 11.2367258, "tags": {"aerialway": "pylon"}}, {"type": "node", "id": 3597094068, "lat": 46.7330414, "lon": 11.238769, "tags": {"aerialway": "pylon"}}, {"type": "node", "id": 3660098844, "lat": 46.7033578, "lon": 11.2167016, "tags": {"aerialway": "pylon"}}, {"type": "node", "id": 3686762308, "lat": 46.3930939, "lon": 11.2084684, "tags": {"aerialway": "pylon"}}, {"type": "node", "id": 3686762309, "lat": 46.3941812, "lon": 11.2082772, "tags": {"aerialway": "pylon"}}, {"type": "node", "id": 3686762310, "lat": 46.395835, "lon": 11.2079839, "tags": {"aerialway": "pylon"}}, {"type": "node", "id": 3686762311, "lat": 46.3981681, "lon": 11.2075949, "tags": {"aerialway": "pylon"}}, {"type": "node", "id": 3686762317, "lat": 46.3987347, "lon": 11.2075361, "tags": {"aerialway": "pylon"}}, {"type": "node", "id": 3686762319, "lat": 46.3990411, "lon": 11.2074852, "tags": {"aerialway": "pylon"}}, {"type": "node", "id": 3686762432, "lat": 46.3998071, "lon": 11.2073567, "tags": {"aerialway": "pylon"}}, {"type": "node", "id": 3686762446, "lat": 46.4006145, "lon": 11.2072172, "tags": {"aerialway": "pylon"}}, {"type": "node", "id": 3686762464, "lat": 46.4014601, "lon": 11.2070718, "tags": {"aerialway": "pylon"}}, {"type": "node", "id": 3686762469, "lat": 46.4027241, "lon": 11.206852, "tags": {"aerialway": "pylon"}}, {"type": "node", "id": 3686762478, "lat": 46.4032753, "lon": 11.2067521, "tags": {"aerialway": "pylon"}}, {"type": "node", "id": 3686762479, "lat": 46.403772, "lon": 11.2066692, "tags": {"aerialway": "pylon"}}, {"type": "node", "id": 3773192892, "lat": 46.6206461, "lon": 11.1396802}, {"type": "node", "id": 3799977742, "lat": 46.635932, "lon": 11.100893, "tags": {"aerialway": "station", "ele": "1814", "name": "Vigiljoch Bergstation - Stazione a monte del Monte S. Virgilio", "name:de": "Vigiljoch Bergstation", "name:it": "Stazione a monte del Monte S. Virgilio", "public_transport": "station"}}, {"type": "node", "id": 3818491366, "lat": 46.4852748, "lon": 11.368785}, {"type": "node", "id": 3997203670, "lat": 46.6568726, "lon": 10.9848034, "tags": {"aerialway": "pylon"}}, {"type": "node", "id": 3997203671, "lat": 46.6535154, "lon": 10.988637, "tags": {"aerialway": "pylon"}}, {"type": "node", "id": 4216261697, "lat": 46.6836657, "lon": 11.2751567, "tags": {"aerialway": "pylon"}}, {"type": "node", "id": 4216261698, "lat": 46.6815001, "lon": 11.2758455, "tags": {"aerialway": "pylon"}}, {"type": "node", "id": 4216261699, "lat": 46.6820568, "lon": 11.2756684, "tags": {"aerialway": "pylon"}}, {"type": "node", "id": 4216261700, "lat": 46.6828683, "lon": 11.2754103, "tags": {"aerialway": "pylon"}}, {"type": "node", "id": 4216261701, "lat": 46.6845638, "lon": 11.274871, "tags": {"aerialway": "pylon"}}, {"type": "node", "id": 4216261702, "lat": 46.6857986, "lon": 11.2744782, "tags": {"aerialway": "pylon"}}, {"type": "node", "id": 4216261703, "lat": 46.6869621, "lon": 11.2741082, "tags": {"aerialway": "pylon"}}, {"type": "node", "id": 4216261704, "lat": 46.6879834, "lon": 11.2737833, "tags": {"aerialway": "pylon"}}, {"type": "node", "id": 4216261705, "lat": 46.6890731, "lon": 11.2734367, "tags": {"aerialway": "pylon"}}, {"type": "node", "id": 4216261706, "lat": 46.6903299, "lon": 11.2730369, "tags": {"aerialway": "pylon"}}, {"type": "node", "id": 4216261707, "lat": 46.6916015, "lon": 11.2726324, "tags": {"aerialway": "pylon"}}, {"type": "node", "id": 4216261708, "lat": 46.6919359, "lon": 11.272526, "tags": {"aerialway": "pylon"}}, {"type": "node", "id": 4358923133, "lat": 46.6886615, "lon": 11.4218846, "tags": {"aerialway": "pylon"}}, {"type": "node", "id": 4358923146, "lat": 46.6889591, "lon": 11.4227154, "tags": {"aerialway": "pylon"}}, {"type": "node", "id": 4358923190, "lat": 46.6897157, "lon": 11.4248279, "tags": {"aerialway": "pylon"}}, {"type": "node", "id": 4358923251, "lat": 46.6905367, "lon": 11.42712, "tags": {"aerialway": "pylon"}}, {"type": "node", "id": 4358923290, "lat": 46.6909623, "lon": 11.4283082, "tags": {"aerialway": "pylon"}}, {"type": "node", "id": 4358923307, "lat": 46.6912109, "lon": 11.4290023, "tags": {"aerialway": "pylon"}}, {"type": "node", "id": 4358923344, "lat": 46.6919646, "lon": 11.4311069, "tags": {"aerialway": "pylon"}}, {"type": "node", "id": 4358923368, "lat": 46.6924557, "lon": 11.4324779, "tags": {"aerialway": "pylon"}}, {"type": "node", "id": 4358923417, "lat": 46.6932207, "lon": 11.434614, "tags": {"aerialway": "pylon"}}, {"type": "node", "id": 4358923442, "lat": 46.6938512, "lon": 11.4363743, "tags": {"aerialway": "pylon"}}, {"type": "node", "id": 4358923460, "lat": 46.6946327, "lon": 11.4385563, "tags": {"aerialway": "pylon"}}, {"type": "node", "id": 4358923506, "lat": 46.6952406, "lon": 11.4402538, "tags": {"aerialway": "pylon"}}, {"type": "node", "id": 4573544488, "lat": 46.6758992, "lon": 11.1642074, "tags": {"aerialway": "pylon"}}, {"type": "node", "id": 4573544489, "lat": 46.6754846, "lon": 11.1639704, "tags": {"aerialway": "pylon"}}, {"type": "node", "id": 4573544490, "lat": 46.6732938, "lon": 11.162718, "tags": {"aerialway": "pylon"}}, {"type": "node", "id": 4573544491, "lat": 46.6740619, "lon": 11.1631571, "tags": {"aerialway": "pylon"}}, {"type": "node", "id": 4573544492, "lat": 46.6748166, "lon": 11.1635886, "tags": {"aerialway": "pylon"}}, {"type": "node", "id": 4825753477, "lat": 46.7264826, "lon": 11.2255583, "tags": {"aerialway": "pylon"}}, {"type": "node", "id": 4825753479, "lat": 46.7334534, "lon": 11.2397076, "tags": {"aerialway": "pylon"}}, {"type": "node", "id": 4825753485, "lat": 46.7232965, "lon": 11.2197349, "tags": {"aerialway": "pylon"}}, {"type": "node", "id": 4907076933, "lat": 46.6277341, "lon": 11.1176112, "tags": {"aerialway": "station", "ele": "1489", "name": "Vigiljoch - San Vigilio"}}, {"type": "node", "id": 5153990232, "lat": 46.6036628, "lon": 11.2231209, "tags": {"aerialway": "station", "name": "V\u00f6ran - Verano", "name:de": "V\u00f6ran", "name:it": "Verano", "toilets:wheelchair": "yes", "wheelchair": "yes"}}, {"type": "node", "id": 5153990233, "lat": 46.6005413, "lon": 11.1992629, "tags": {"aerialway": "station", "name": "Burgstall - Postal", "name:de": "Burgstall", "name:it": "Postal", "toilets:wheelchair": "yes", "wheelchair": "yes"}}, {"type": "node", "id": 5153990238, "lat": 46.6019955, "lon": 11.2104038, "tags": {"aerialway": "pylon"}}, {"type": "node", "id": 5181317300, "lat": 46.6275521, "lon": 11.1181786, "tags": {"aerialway": "pylon"}}, {"type": "node", "id": 5181317301, "lat": 46.626373, "lon": 11.1218559, "tags": {"aerialway": "pylon"}}, {"type": "node", "id": 5181317302, "lat": 46.6237879, "lon": 11.1299177, "tags": {"aerialway": "pylon"}}, {"type": "node", "id": 5181317303, "lat": 46.6210658, "lon": 11.138406, "tags": {"aerialway": "pylon"}}, {"type": "node", "id": 5320031761, "lat": 46.5282071, "lon": 10.9551064, "tags": {"aerialway": "pylon"}}, {"type": "node", "id": 5320031762, "lat": 46.5282367, "lon": 10.9549514, "tags": {"aerialway": "pylon"}}, {"type": "node", "id": 5320031763, "lat": 46.5285886, "lon": 10.953109, "tags": {"aerialway": "pylon"}}, {"type": "node", "id": 5320031764, "lat": 46.528954, "lon": 10.9509313, "tags": {"aerialway": "pylon"}}, {"type": "node", "id": 5320031765, "lat": 46.5294375, "lon": 10.9484772, "tags": {"aerialway": "pylon"}}, {"type": "node", "id": 5320031766, "lat": 46.5298434, "lon": 10.9462935, "tags": {"aerialway": "pylon"}}, {"type": "node", "id": 5320031767, "lat": 46.5308288, "lon": 10.9411705, "tags": {"aerialway": "pylon"}}, {"type": "node", "id": 5320031768, "lat": 46.5312025, "lon": 10.939314, "tags": {"aerialway": "pylon"}}, {"type": "node", "id": 5320031769, "lat": 46.5317887, "lon": 10.9362239, "tags": {"aerialway": "pylon"}}, {"type": "node", "id": 5320031770, "lat": 46.532316, "lon": 10.9334442, "tags": {"aerialway": "pylon"}}, {"type": "node", "id": 5320031771, "lat": 46.5327058, "lon": 10.9313893, "tags": {"aerialway": "pylon"}}, {"type": "node", "id": 5320031772, "lat": 46.5330103, "lon": 10.9297842, "tags": {"aerialway": "pylon"}}, {"type": "node", "id": 5320031773, "lat": 46.5334612, "lon": 10.9274073, "tags": {"aerialway": "pylon"}}, {"type": "node", "id": 5320031774, "lat": 46.5338874, "lon": 10.9251601, "tags": {"aerialway": "pylon"}}, {"type": "node", "id": 5320031775, "lat": 46.5341862, "lon": 10.9235848, "tags": {"aerialway": "pylon"}}, {"type": "node", "id": 5320031780, "lat": 46.534478, "lon": 10.9221046, "tags": {"aerialway": "pylon"}}, {"type": "node", "id": 5320031781, "lat": 46.5343301, "lon": 10.9228263, "tags": {"aerialway": "pylon"}}, {"type": "node", "id": 5320032072, "lat": 46.5303721, "lon": 10.9169327, "tags": {"aerialway": "pylon"}}, {"type": "node", "id": 5320032073, "lat": 46.5307405, "lon": 10.9165209, "tags": {"aerialway": "pylon"}}, {"type": "node", "id": 5320032074, "lat": 46.53149, "lon": 10.9156235, "tags": {"aerialway": "pylon"}}, {"type": "node", "id": 5320032075, "lat": 46.5322031, "lon": 10.9147699, "tags": {"aerialway": "pylon"}}, {"type": "node", "id": 5320032076, "lat": 46.532953, "lon": 10.9138721, "tags": {"aerialway": "pylon"}}, {"type": "node", "id": 5320032077, "lat": 46.5337605, "lon": 10.9129053, "tags": {"aerialway": "pylon"}}, {"type": "node", "id": 5320032078, "lat": 46.5344055, "lon": 10.9121331, "tags": {"aerialway": "pylon"}}, {"type": "node", "id": 5320032079, "lat": 46.5351081, "lon": 10.9112919, "tags": {"aerialway": "pylon"}}, {"type": "node", "id": 5320032080, "lat": 46.5359514, "lon": 10.9102822, "tags": {"aerialway": "pylon"}}, {"type": "node", "id": 5320032081, "lat": 46.5368689, "lon": 10.9091838, "tags": {"aerialway": "pylon"}}, {"type": "node", "id": 5320032082, "lat": 46.5405224, "lon": 10.9048495, "tags": {"aerialway": "pylon"}}, {"type": "node", "id": 5320032083, "lat": 46.540481, "lon": 10.9048988, "tags": {"aerialway": "pylon"}}, {"type": "node", "id": 5320032084, "lat": 46.5404398, "lon": 10.904948, "tags": {"aerialway": "pylon"}}, {"type": "node", "id": 5320032085, "lat": 46.5395485, "lon": 10.9060314, "tags": {"aerialway": "pylon"}}, {"type": "node", "id": 5320032086, "lat": 46.5380414, "lon": 10.9077984, "tags": {"aerialway": "pylon"}}, {"type": "node", "id": 5483058854, "lat": 46.7308296, "lon": 11.2338391, "tags": {"aerialway": "pylon"}}, {"type": "node", "id": 5502983218, "lat": 46.6128791, "lon": 11.114181, "tags": {"aerialway": "pylon"}}, {"type": "node", "id": 5502983219, "lat": 46.6186678, "lon": 11.1082131, "tags": {"aerialway": "pylon"}}, {"type": "node", "id": 5537734297, "lat": 46.634691, "lon": 11.1036002, "tags": {"aerialway": "pylon"}}, {"type": "node", "id": 5537734298, "lat": 46.6352951, "lon": 11.1022823, "tags": {"aerialway": "pylon"}}, {"type": "node", "id": 5537734633, "lat": 46.6331089, "lon": 11.1070512, "tags": {"aerialway": "pylon"}}, {"type": "node", "id": 5537734634, "lat": 46.6338015, "lon": 11.1055404, "tags": {"aerialway": "pylon"}}, {"type": "node", "id": 5537734635, "lat": 46.6336591, "lon": 11.105851, "tags": {"aerialway": "pylon"}}, {"type": "node", "id": 5537734636, "lat": 46.6326777, "lon": 11.1079916, "tags": {"aerialway": "pylon"}}, {"type": "node", "id": 5537734637, "lat": 46.6321865, "lon": 11.1090632, "tags": {"aerialway": "pylon"}}, {"type": "node", "id": 5537734638, "lat": 46.6316283, "lon": 11.1102808, "tags": {"aerialway": "pylon"}}, {"type": "node", "id": 5537734639, "lat": 46.6310933, "lon": 11.1114477, "tags": {"aerialway": "pylon"}}, {"type": "node", "id": 5537734640, "lat": 46.6299826, "lon": 11.1138705, "tags": {"aerialway": "pylon"}}, {"type": "node", "id": 5537734641, "lat": 46.6286863, "lon": 11.1166979, "tags": {"aerialway": "pylon"}}, {"type": "node", "id": 5582628899, "lat": 46.6580967, "lon": 11.0714771, "tags": {"aerialway": "pylon"}}, {"type": "node", "id": 6128814086, "lat": 46.418188, "lon": 11.1818638, "tags": {"aerialway": "station", "aerialway:access": "exit", "aerialway:summer:access": "exit", "public_transport": "station"}}, {"type": "node", "id": 6128814095, "lat": 46.420895, "lon": 11.1786827, "tags": {"access": "customers", "aerialway": "station", "aerialway:access": "entry", "aerialway:summer:access": "entry", "public_transport": "station"}}, {"type": "node", "id": 6128814096, "lat": 46.4203274, "lon": 11.1793533, "tags": {"aerialway": "pylon"}}, {"type": "node", "id": 6128814097, "lat": 46.4198448, "lon": 11.1799139, "tags": {"aerialway": "pylon"}}, {"type": "node", "id": 8591437502, "lat": 46.4187575, "lon": 11.1812013, "tags": {"aerialway": "pylon"}}, {"type": "node", "id": 8591437503, "lat": 46.4191588, "lon": 11.1807185, "tags": {"aerialway": "pylon"}}, {"type": "node", "id": 8622470771, "lat": 46.4829825, "lon": 11.3688759, "tags": {"aerialway": "pylon"}}, {"type": "node", "id": 8640135204, "lat": 46.6744761, "lon": 11.2321286, "tags": {"aerialway": "pylon"}}, {"type": "node", "id": 8669589485, "lat": 46.685868, "lon": 11.2820693, "tags": {"aerialway": "pylon"}}, {"type": "node", "id": 8669589486, "lat": 46.6856678, "lon": 11.2828785, "tags": {"aerialway": "pylon"}}, {"type": "node", "id": 8669589487, "lat": 46.6854117, "lon": 11.2839137, "tags": {"aerialway": "pylon"}}, {"type": "node", "id": 8669589488, "lat": 46.6851499, "lon": 11.2849721, "tags": {"aerialway": "pylon"}}, {"type": "node", "id": 8669589489, "lat": 46.6848972, "lon": 11.2859936, "tags": {"aerialway": "pylon"}}, {"type": "node", "id": 8669589490, "lat": 46.6846216, "lon": 11.2871079, "tags": {"aerialway": "pylon"}}, {"type": "node", "id": 8669589491, "lat": 46.6842885, "lon": 11.2884544, "tags": {"aerialway": "pylon"}}, {"type": "node", "id": 8669589492, "lat": 46.6839587, "lon": 11.2897876, "tags": {"aerialway": "pylon"}}, {"type": "node", "id": 8669589493, "lat": 46.6836706, "lon": 11.2909522, "tags": {"aerialway": "pylon"}}, {"type": "node", "id": 8669589494, "lat": 46.6833662, "lon": 11.2921828, "tags": {"aerialway": "pylon"}}, {"type": "node", "id": 8669589495, "lat": 46.6832709, "lon": 11.2925677, "tags": {"aerialway": "pylon"}}, {"type": "node", "id": 8669589496, "lat": 46.6830545, "lon": 11.2934426, "tags": {"aerialway": "pylon"}}, {"type": "node", "id": 8669589497, "lat": 46.6828985, "lon": 11.2940731, "tags": {"aerialway": "pylon"}}, {"type": "node", "id": 8669589498, "lat": 46.6827507, "lon": 11.2946706, "tags": {"aerialway": "pylon"}}, {"type": "node", "id": 8669589499, "lat": 46.6886832, "lon": 11.1130563, "tags": {"aerialway": "pylon"}}, {"type": "node", "id": 8669589500, "lat": 46.6945141, "lon": 11.1094464, "tags": {"aerialway": "pylon"}}, {"type": "node", "id": 8669589501, "lat": 46.6931151, "lon": 11.1103125, "tags": {"aerialway": "pylon"}}, {"type": "node", "id": 8669589502, "lat": 46.692883, "lon": 11.1104562, "tags": {"aerialway": "pylon"}}, {"type": "node", "id": 8669589503, "lat": 46.6894939, "lon": 11.1125544, "tags": {"aerialway": "pylon"}}, {"type": "node", "id": 8669589504, "lat": 46.6898504, "lon": 11.1123337, "tags": {"aerialway": "pylon"}}, {"type": "node", "id": 8687413795, "lat": 46.6973807, "lon": 11.1091631, "tags": {"aerialway": "pylon"}}, {"type": "node", "id": 8687413796, "lat": 46.6983578, "lon": 11.1090194, "tags": {"aerialway": "pylon"}}, {"type": "node", "id": 8687413797, "lat": 46.6994645, "lon": 11.1089068, "tags": {"aerialway": "pylon"}}, {"type": "node", "id": 8687413798, "lat": 46.7004191, "lon": 11.1088096, "tags": {"aerialway": "pylon"}}, {"type": "node", "id": 8687413799, "lat": 46.7011317, "lon": 11.1087371, "tags": {"aerialway": "pylon"}}, {"type": "node", "id": 8687413800, "lat": 46.7017417, "lon": 11.108675, "tags": {"aerialway": "pylon"}}, {"type": "node", "id": 8687413801, "lat": 46.7027439, "lon": 11.108573, "tags": {"aerialway": "pylon"}}, {"type": "node", "id": 8687413802, "lat": 46.704224, "lon": 11.1084224, "tags": {"aerialway": "pylon"}}, {"type": "node", "id": 8687413803, "lat": 46.7045041, "lon": 11.1083938, "tags": {"aerialway": "pylon"}}, {"type": "node", "id": 8687662688, "lat": 46.5424171, "lon": 10.9328655, "tags": {"aerialway": "pylon"}}, {"type": "node", "id": 8687662689, "lat": 46.543163, "lon": 10.9346774, "tags": {"aerialway": "pylon"}}, {"type": "node", "id": 8687662690, "lat": 46.544014, "lon": 10.9367444, "tags": {"aerialway": "pylon"}}, {"type": "node", "id": 8687662691, "lat": 46.5444313, "lon": 10.9377581, "tags": {"aerialway": "pylon"}}, {"type": "node", "id": 8687662692, "lat": 46.5450821, "lon": 10.9393389, "tags": {"aerialway": "pylon"}}, {"type": "node", "id": 8687662693, "lat": 46.5454348, "lon": 10.9401955, "tags": {"aerialway": "pylon"}}, {"type": "node", "id": 8687662694, "lat": 46.5457449, "lon": 10.9409488, "tags": {"aerialway": "pylon"}}, {"type": "node", "id": 10693230131, "lat": 46.6775509, "lon": 11.2570652, "tags": {"aerialway": "station"}}, {"type": "node", "id": 10693230132, "lat": 46.6827051, "lon": 11.2640116, "tags": {"aerialway": "station"}}, {"type": "node", "id": 10693230133, "lat": 46.6854471, "lon": 11.2725808, "tags": {"aerialway": "station"}}, {"type": "node", "id": 11905125513, "lat": 46.7341661, "lon": 11.2269253}, {"type": "node", "id": 11905125514, "lat": 46.7342093, "lon": 11.2271326}, {"type": "node", "id": 12079044066, "lat": 46.6715347, "lon": 11.2479092, "tags": {"aerialway": "pylon"}}, {"type": "node", "id": 12079044067, "lat": 46.6723289, "lon": 11.2488748, "tags": {"aerialway": "pylon"}}, {"type": "node", "id": 12079044068, "lat": 46.6732928, "lon": 11.2500436, "tags": {"aerialway": "pylon"}}, {"type": "node", "id": 12079058169, "lat": 46.6744748, "lon": 11.2514833, "tags": {"aerialway": "pylon"}}, {"type": "node", "id": 12079058170, "lat": 46.6755164, "lon": 11.2527499, "tags": {"aerialway": "pylon"}}, {"type": "node", "id": 12079058171, "lat": 46.6771966, "lon": 11.2547857, "tags": {"aerialway": "pylon"}}, {"type": "node", "id": 12079058172, "lat": 46.6769689, "lon": 11.2545115, "tags": {"aerialway": "pylon"}}, {"type": "node", "id": 12079058173, "lat": 46.6764269, "lon": 11.253859, "tags": {"aerialway": "pylon"}}, {"type": "node", "id": 12090983049, "lat": 46.6770208, "lon": 11.2548369, "tags": {"aerialway": "pylon", "mapillary": "1974731472983273", "ref": "15"}}, {"type": "node", "id": 12092475894, "lat": 46.6824699, "lon": 11.2636853, "tags": {"aerialway": "pylon", "mapillary": "857608259624021", "material": "metal", "ref": "8", "structure": "tubular"}}, {"type": "node", "id": 12092475895, "lat": 46.6853637, "lon": 11.2723192, "tags": {"aerialway": "pylon", "mapillary": "856228855979934", "material": "metal", "ref": "16", "structure": "tubular"}}, {"type": "node", "id": 12092475896, "lat": 46.6850538, "lon": 11.2713516, "tags": {"aerialway": "pylon", "mapillary": "8648063305208254", "material": "metal", "ref": "15", "structure": "tubular"}}, {"type": "node", "id": 12092475897, "lat": 46.6849172, "lon": 11.2709277, "tags": {"aerialway": "pylon", "mapillary": "497928959487904", "material": "metal", "ref": "14", "structure": "tubular"}}, {"type": "node", "id": 12092475898, "lat": 46.6846291, "lon": 11.270016, "tags": {"aerialway": "pylon", "mapillary": "1967176153721735", "material": "metal", "ref": "13", "structure": "tubular"}}, {"type": "node", "id": 12092475899, "lat": 46.6839491, "lon": 11.2678947, "tags": {"aerialway": "pylon", "mapillary": "404255569340753", "material": "metal", "ref": "12", "structure": "tubular"}}, {"type": "node", "id": 12092475900, "lat": 46.683437, "lon": 11.2663081, "tags": {"aerialway": "pylon", "mapillary": "519624913827310", "material": "metal", "ref": "11", "structure": "tubular"}}, {"type": "node", "id": 12092475901, "lat": 46.6830548, "lon": 11.2651089, "tags": {"aerialway": "pylon", "mapillary": "1087236879487249", "material": "metal", "ref": "10", "structure": "tubular"}}, {"type": "node", "id": 12092475902, "lat": 46.6828392, "lon": 11.2644259, "tags": {"aerialway": "pylon", "mapillary": "1614245456110322", "material": "metal", "ref": "9", "structure": "tubular"}}, {"type": "node", "id": 12092475903, "lat": 46.6822541, "lon": 11.2633839, "tags": {"aerialway": "pylon", "mapillary": "1032678145127884", "material": "metal", "ref": "7", "structure": "tubular"}}, {"type": "node", "id": 12092475904, "lat": 46.6816418, "lon": 11.2625753, "tags": {"aerialway": "pylon", "mapillary": "1489108728635376", "material": "metal", "ref": "6", "structure": "tubular"}}, {"type": "node", "id": 12092475905, "lat": 46.6810097, "lon": 11.26173, "tags": {"aerialway": "pylon", "mapillary": "1397765487566245", "material": "metal", "ref": "5", "structure": "tubular"}}, {"type": "node", "id": 12092475906, "lat": 46.6801736, "lon": 11.2606, "tags": {"aerialway": "pylon", "mapillary": "1661532507821918", "material": "metal", "ref": "4", "structure": "tubular"}}, {"type": "node", "id": 12092475907, "lat": 46.6792792, "lon": 11.2593996, "tags": {"aerialway": "pylon", "mapillary": "1023177639596246", "material": "metal", "ref": "3", "structure": "tubular"}}, {"type": "node", "id": 12092475908, "lat": 46.6783102, "lon": 11.258088, "tags": {"aerialway": "pylon", "mapillary": "873948017427336", "material": "metal", "ref": "2", "structure": "tubular"}}, {"type": "node", "id": 12092475909, "lat": 46.6777303, "lon": 11.2573051, "tags": {"aerialway": "pylon", "mapillary": "1838181760337430", "material": "metal", "ref": "1", "structure": "tubular"}}, {"type": "node", "id": 12787532878, "lat": 46.5514735, "lon": 10.919095}, {"type": "node", "id": 13139766311, "lat": 46.635832, "lon": 11.1011111, "tags": {"aerialway": "pylon"}}, {"type": "node", "id": 13139766325, "lat": 46.6304054, "lon": 11.1129481, "tags": {"aerialway": "pylon"}}, {"type": "node", "id": 13139766326, "lat": 46.6293942, "lon": 11.1151539, "tags": {"aerialway": "pylon"}}, {"type": "node", "id": 13139766327, "lat": 46.6290177, "lon": 11.115975, "tags": {"aerialway": "pylon"}}, {"type": "node", "id": 13139766334, "lat": 46.6284085, "lon": 11.1173015}, {"type": "way", "id": 25275591, "nodes": [275366007, 8687413795, 8687413796, 8687413797, 8687413798, 8687413799, 8687413800, 8687413801, 8687413802, 8687413803, 1411601669], "tags": {"aerialway": "gondola", "aerialway:bubble": "no", "aerialway:heating": "no", "aerialway:occupancy": "2", "description": "Der Korblift Vellau wurde f\u00fcr Wanderer entwickelt und erinnert vom Aussehen an einen Einkaufswagen. In den kleinen Gondeln kann man zu zweit hintereinander stehen.", "name": "Vellau - Leiteralm  -  Velloi - Malga Leiter", "name:de": "Vellau - Leiteralm", "name:it": "Velloi - Malga Leiter", "oneway": "no", "website": "https://www.gasteiger.it/sessellift-korblift/"}}, {"type": "way", "id": 25332714, "nodes": [13139766334, 276020761, 5537734641, 13139766327, 13139766326, 5537734640, 13139766325, 5537734639, 5537734638, 5537734637, 5537734636, 5537734633, 5537734635, 5537734634, 5537734297, 5537734298, 13139766311, 3799977742], "tags": {"aerialway": "chair_lift", "aerialway:occupancy": "1", "description": "Sessellift - Seggiovia", "oneway": "no"}}, {"type": "way", "id": 25333487, "nodes": [276029680, 3997203671, 3997203670, 2471288296], "tags": {"aerialway": "cable_car", "bicycle": "yes", "name": "Seilbahn Unterstell - Funivia Unterstell", "name:de": "Seilbahn Unterstell", "name:it": "Funivia Unterstell"}}, {"type": "way", "id": 25381519, "nodes": [276649409, 2269445852, 2269445831, 2269445819, 2269445804, 2269445822, 2269445845, 2269445827, 2269445794, 2269445849, 2269445791, 2269445832, 2269445830, 2269445823, 12090983049, 276649411], "tags": {"aerialway": "gondola", "aerialway:bicycle": "yes", "aerialway:bubble": "yes", "aerialway:capacity": "2000", "aerialway:duration": "5", "aerialway:occupancy": "6", "name": "Umlaufbahn Falzeben - Cabinovia Falzeben", "name:de": "Umlaufbahn Falzeben", "name:it": "Cabinovia Falzeben", "ref": "B"}}, {"type": "way", "id": 25382346, "nodes": [276656763, 2790929993, 8640135204, 1760430571, 2790770358, 276656764], "tags": {"aerialway": "cable_car", "aerialway:bicycle": "yes", "aerialway:bubble": "yes", "aerialway:capacity": "840", "aerialway:duration": "7", "aerialway:occupancy": "120", "bicycle": "yes", "name": "Bergbahn Meran 2000 - Funivia Merano 2000", "name:de": "Bergbahn Meran 2000", "name:it": "Funivia Merano 2000", "ref": "A"}}, {"type": "way", "id": 25385387, "nodes": [276682614, 8669589485, 8669589486, 8669589487, 8669589488, 8669589489, 8669589490, 8669589491, 8669589492, 8669589493, 8669589494, 8669589495, 8669589496, 8669589497, 8669589498, 276682619], "tags": {"aerialway": "chair_lift", "aerialway:capacity": "1200", "aerialway:duration": "8", "aerialway:occupancy": "2", "name": "Mittager", "ref": "F"}}, {"type": "way", "id": 26631649, "nodes": [3589734328, 5582628899, 292117952], "tags": {"aerialway": "cable_car", "aerialway:duration": "7", "aerialway:heating": "no", "aerialway:occupancy": "35", "bicycle": "yes", "name": "Seilbahn Aschbach - Funivia Riolagundo", "name:de": "Seilbahn Aschbach", "name:it": "Funivia Riolagundo", "wikidata": "Q2266718", "wikipedia": "de:Seilbahn Aschbach"}}, {"type": "way", "id": 27166910, "nodes": [298072757, 298072758], "tags": {"aerialway": "cable_car", "aerialway:bubble": "no", "aerialway:capacity": "275", "aerialway:duration": "4", "aerialway:occupancy": "21", "name": "Hochmuth - Alta Muta", "name:de": "Hochmuth", "name:it": "Alta Muta", "oneway": "no", "wikidata": "Q1584756"}}, {"type": "way", "id": 28167475, "nodes": [309383838, 4358923133, 4358923146, 4358923190, 4358923251, 4358923290, 4358923307, 4358923344, 4358923368, 4358923417, 4358923442, 4358923460, 4358923506, 309383840], "tags": {"aerialway": "gondola", "aerialway:capacity": "1800", "aerialway:heating": "no", "aerialway:occupancy": "6", "bicycle": "yes", "name": "Reinswald"}}, {"type": "way", "id": 28848172, "nodes": [317166182, 1368188057, 3574055754, 3660098844, 3574088830, 317166187], "tags": {"aerialway": "cable_car", "aerialway:bicycle": "yes", "aerialway:bubble": "yes", "aerialway:occupancy": "25", "name": "Taser Seilbahn - Funivia Taser", "name:de": "Taser Seilbahn", "name:it": "Funivia Taser"}}, {"type": "way", "id": 30001384, "nodes": [330270422, 330270424, 11905125513], "tags": {"aerialway": "cable_car", "bicycle": "yes", "name": "Hirzer - Punta Cervina", "name:de": "Hirzer", "name:it": "Punta Cervina"}}, {"type": "way", "id": 30838311, "nodes": [305686532, 418145896, 418145897, 418145898, 2279221741, 418145899, 418145900, 418145901, 342950163], "tags": {"aerialway": "gondola", "aerialway:bicycle": "yes", "aerialway:bubble": "yes", "aerialway:capacity": "720", "aerialway:duration": "12", "aerialway:occupancy": "35", "layer": "1", "name": "Rittner Seilbahn - Funivia del Renon", "name:de": "Rittner Seilbahn", "name:it": "Funivia del Renon", "oneway": "no", "wikidata": "Q2155305", "wikipedia": "de:Rittner Seilbahn"}}, {"type": "way", "id": 30838313, "nodes": [342950170, 3818491366, 8622470771, 342950166], "tags": {"aerialway": "cable_car", "aerialway:bicycle": "yes", "aerialway:capacity": "100", "aerialway:duration": "5", "aerialway:occupancy": "20", "email": "info@kohlererbahn.it", "layer": "1", "name": "Funivia del Colle - Kohlerer Seilbahn", "name:de": "Kohlerer Seilbahn", "name:it": "Funivia del Colle", "operator": "Funivia del Colle S.r.l.", "phone": "+39 0471 978 545", "ref:vatin": "IT0042500213", "website": "https://www.kohlererbahn.it/home-2/home.html", "wikidata": "Q1485098"}}, {"type": "way", "id": 33682623, "nodes": [385106026, 8687662694, 8687662693, 8687662692, 8687662691, 8687662690, 8687662689, 8687662688, 385106027], "tags": {"aerialway": "chair_lift", "aerialway:occupancy": "2", "name": "Breiteben", "ref": "1"}}, {"type": "way", "id": 33684003, "nodes": [385106021, 5320032072, 5320032073, 5320032074, 5320032075, 5320032076, 5320032077, 5320032078, 5320032079, 5320032080, 5320032081, 5320032086, 5320032085, 5320032084, 5320032083, 5320032082, 385106020], "tags": {"aerialway": "chair_lift", "aerialway:bubble": "yes", "aerialway:occupancy": "4", "name": "Mutegg - Monte Muta", "name:de": "Mutegg", "name:it": "Monte Muta", "ref": "5"}}, {"type": "way", "id": 33684016, "nodes": [639686208, 5320031761, 5320031762, 5320031763, 5320031764, 5320031765, 5320031766, 5320031767, 5320031768, 5320031769, 5320031770, 5320031771, 5320031772, 5320031773, 5320031774, 5320031775, 5320031781, 5320031780, 385106019], "tags": {"aerialway": "gondola", "bicycle": "yes", "name": "Schwemmalmbahn - Cabinovia Malga Guazza", "name:de": "Schwemmalmbahn", "name:it": "Cabinovia Malga Guazza", "ref": "6"}}, {"type": "way", "id": 34107634, "nodes": [2459444426, 390978041, 390978040, 2459444417], "tags": {"aerialway": "cable_car", "name": "Funivia Alperia Greenpower Srl GmbH (ex ENEL): Alpe di Riposo - Diga del lago di Quaira della miniera", "name:de": "Seilbahn Alperia Greenpower Srl GmbH (ex ENEL): Alpe di Riposo - Staudamm Arzkarsee", "operator": "(power company)"}}, {"type": "way", "id": 34167337, "nodes": [391926963, 3686762479, 3686762478, 3686762469, 3686762464, 3686762446, 391926964, 3686762432, 3686762319, 3686762317, 3686762311, 391926965, 391926966, 3686762310, 391926967, 3686762309, 3686762308, 391926968, 391926969, 391926970], "tags": {"aerialway": "chair_lift", "aerialway:bubble": "no", "aerialway:heating": "no", "aerialway:occupancy": "3", "name:de": "Sessellift Monte Roen", "name:it": "Seggiovia Monte Roen", "oneway": "no", "source": "yahoo"}}, {"type": "way", "id": 34481008, "nodes": [398229985, 4216261698, 4216261699, 4216261700, 4216261697, 4216261701, 4216261702, 4216261703, 4216261704, 4216261705, 4216261706, 4216261707, 4216261708, 398229983], "tags": {"aerialway": "chair_lift", "aerialway:bubble": "yes", "aerialway:capacity": "2000", "aerialway:duration": "5", "aerialway:occupancy": "4", "name": "St. Oswald - S. Osvaldo", "name:de": "St. Oswald", "name:it": "S. Osvaldo", "ref": "E"}}, {"type": "way", "id": 35763863, "nodes": [418125100, 418125101], "tags": {"aerialway": "cable_car", "aerialway:occupancy": "4", "bicycle": "yes", "name:de": "Seilbahn Vilpian-M\u00f6lten", "name:it": "Funivia Vilpiano-Meltina"}}, {"type": "way", "id": 35824506, "nodes": [418823736, 4573544490, 4573544491, 4573544492, 4573544489, 4573544488, 418823735], "tags": {"aerialway": "chair_lift", "aerialway:bubble": "no", "aerialway:capacity": "249", "aerialway:duration": "5", "aerialway:heating": "no", "aerialway:occupancy": "1", "layer": "5", "name": "Meran\u2013Dorf Tirol / Merano\u2013Tirolo", "name:de": "Meran\u2013Dorf Tirol", "name:it": "Merano\u2013Tirolo", "oneway": "no", "wikidata": "Q113529768"}}, {"type": "way", "id": 36990566, "nodes": [430179176, 4825753485, 4825753477, 3597076554], "tags": {"aerialway": "cable_car", "name": "Seilbahn Verdins - Tall"}}, {"type": "way", "id": 37805615, "nodes": [443431044, 8669589499, 8669589503, 8669589504, 8669589502, 8669589501, 8669589500, 443431043], "tags": {"aerialway": "chair_lift", "aerialway:bubble": "no", "aerialway:heating": "no", "aerialway:occupancy": "1", "name": "Algund-Vellau - Lagundo-Velloi", "name:de": "Algund-Vellau", "name:it": "Lagundo-Velloi", "oneway": "no"}}, {"type": "way", "id": 60730566, "nodes": [760265759, 760265758], "tags": {"aerialway": "cable_car", "bicycle": "yes", "name": "Texelbahn", "wikidata": "Q97562001"}}, {"type": "way", "id": 61635496, "nodes": [768422154, 2794855368, 2794855363, 2794855375, 2794855350, 2794855345, 2794855322, 2794855342, 2794855362, 2794855379, 2794855389, 2794855355, 2794855358, 2794855356, 2794855335, 2794855353, 2794855341, 2794855383, 1672091298], "tags": {"aerialway": "chair_lift", "aerialway:capacity": "1200", "aerialway:duration": "11", "aerialway:occupancy": "2", "name": "Kesselberg - Costa Valcanova", "name:de": "Kesselberg", "name:it": "Costa Valcanova", "ref": "G"}}, {"type": "way", "id": 71550106, "nodes": [3597094056, 3597094057, 3597094058, 3597094059, 3597094060, 3597094061, 3597094062, 3597094063, 3597094064, 5483058854, 3597094065, 3597094066, 3597094067, 3597094068, 4825753479, 3597076556, 851121894], "tags": {"aerialway": "chair_lift", "aerialway:bubble": "no", "aerialway:heating": "no", "aerialway:occupancy": "1", "name": "Sessellift Grube"}}, {"type": "way", "id": 131794314, "nodes": [1450065759, 12079044066, 12079044067, 12079044068, 12079058169, 12079058170, 12079058173, 12079058172, 12079058171, 1450065763], "tags": {"aerialway": "chair_lift", "aerialway:bubble": "yes", "aerialway:capacity": "1028", "aerialway:heating": "yes", "aerialway:occupancy": "6", "name": "Wallpach", "ref": "C", "seasonal": "winter"}}, {"type": "way", "id": 233359476, "nodes": [2417538743, 3773192892, 5181317303, 5181317302, 5181317301, 5181317300, 4907076933], "tags": {"aerialway": "cable_car", "bicycle": "yes", "email": "info@vigilio.com", "name": "Vigiljoch - San Vigilio", "name:de": "Vigiljoch", "name:it": "San Vigilio", "phone": "+39 0473 56 13 33", "website": "https://www.vigilio.com/"}}, {"type": "way", "id": 310630564, "nodes": [3160854130, 5502983219, 5502983218, 3160854125], "tags": {"aerialway": "cable_car", "bicycle": "yes", "disused:aerialway": "cable_car", "name": "Seilbahn Pawigl - Funivia Pavicolo", "name:de": "Seilbahn Pawigl - au\u00dfer Betrieb", "name:it": "Funivia Pavicolo - Fuori servizio", "note": "Cable car out of service since end of February 2022!\nCable car system exists, currently out of service"}}, {"type": "way", "id": 530862589, "nodes": [5153990233, 5153990238, 5153990232], "tags": {"aerialway": "cable_car", "aerialway:bicycle": "yes", "aerialway:capacity": "360", "aerialway:duration": "5", "aerialway:occupancy": "35", "charge": "6 EUR", "name": "Seilbahn V\u00f6ran - Funivia Verano", "name:de": "Seilbahn V\u00f6ran", "name:it": "Funivia di Verano", "start_date": "2017-10-07", "wikidata": "Q41791734", "wikipedia": "de:Seilbahn V\u00f6ran"}}, {"type": "way", "id": 654013767, "nodes": [6128814095, 6128814096, 6128814097, 8591437503, 8591437502, 6128814086], "tags": {"aerialway": "chair_lift"}}, {"type": "way", "id": 1149441846, "nodes": [10693230131, 12092475909, 12092475908, 12092475907, 12092475906, 12092475905, 12092475904, 12092475903, 12092475894, 10693230132, 12092475902, 12092475901, 12092475900, 12092475899, 12092475898, 12092475897, 12092475896, 12092475895, 10693230133], "tags": {"aerialway": "gondola", "aerialway:occupancy": "10", "name": "Naifjoch - Passo di Nova", "name:de": "Naifjoch", "name:it": "Passo di Nova"}}, {"type": "way", "id": 1282999551, "nodes": [11905125514, 3597076561, 3597076562, 3597076563, 3597076564, 3597076557], "tags": {"aerialway": "cable_car", "bicycle": "yes", "name": "Hirzer - Punta Cervina", "name:de": "Hirzer", "name:it": "Punta Cervina"}}, {"type": "way", "id": 1306997571, "nodes": [3335325542, 385123248], "tags": {"aerialway": "chair_lift", "aerialway:bubble": "yes", "aerialway:capacity": "2200", "aerialway:duration": "4", "aerialway:occupancy": "6", "name": "Schwemmeregg"}}, {"type": "way", "id": 1381316656, "nodes": [2459444424, 12787532878], "tags": {"aerialway": "cable_car", "name": "Funivia Alperia Greenpower Srl GmbH (ex ENEL): Alpe di Riposo - Centrale idroelettrica Pracomune", "name:de": "Seilbahn Alperia Greenpower Srl GmbH (ex ENEL): Alpe di Riposo - Kraftwerk Kuppelwies"}}, {"type": "relation", "id": 8317845, "members": [{"type": "node", "ref": 305686532, "role": "stop_entry_only"}, {"type": "node", "ref": 342950163, "role": "stop_exit_only"}, {"type": "way", "ref": 30838311, "role": ""}], "tags": {"aerialway": "gondola", "from": "Oberbozen - Soprabolzano", "name": "Aerialway 161: Ritten - Renon => Bolzano - Bozen", "name:de": "Aerialway 161: Ritten => Bozen", "name:it": "Aerialway 161: Renon => Bozano", "network": "TVS", "operator": "SAD", "public_transport:version": "2", "ref": "161", "route": "aerialway", "to": "Bolzano - Bozen", "type": "route"}}, {"type": "relation", "id": 8317846, "members": [{"type": "node", "ref": 342950163, "role": "stop_entry_only"}, {"type": "node", "ref": 305686532, "role": "stop_exit_only"}, {"type": "way", "ref": 30838311, "role": ""}], "tags": {"aerialway": "gondola", "from": "Bolzano - Bozen", "name": "Aerialway 161: Bolzano - Bozen => Ritten - Renon", "name:de": "Aerialway 161: Bozen => Ritten", "name:it": "Aerialway 161: Bolzano => Renon", "network": "TVS", "operator": "SAD", "public_transport:version": "2", "ref": "161", "route": "aerialway", "to": "Oberbozen - Soprabolzano", "type": "route"}}, {"type": "relation", "id": 8317850, "members": [{"type": "node", "ref": 342950170, "role": "stop_entry_only"}, {"type": "way", "ref": 30838313, "role": "forward"}, {"type": "node", "ref": 342950166, "role": "stop_exit_only"}], "tags": {"aerialway": "gondola", "from": "Bozen", "name": "118 Bozen - Kolhern", "network": "TVS", "operator": "SAD", "ref": "118", "route": "aerialway", "to": "Kohlern", "type": "route"}}, {"type": "relation", "id": 8317851, "members": [{"type": "node", "ref": 342950170, "role": "stop_exit_only"}, {"type": "way", "ref": 30838313, "role": "backward"}, {"type": "node", "ref": 342950166, "role": "stop_entry_only"}], "tags": {"aerialway": "gondola", "from": "Kohlern", "name": "118 Kohlern - Bozen", "network": "TVS", "operator": "Funivia del Colle S.r.l/Kohler Bahn G.m.b.H..", "ref": "118", "route": "aerialway", "to": "Bozen", "type": "route"}}, {"type": "relation", "id": 8317858, "members": [{"type": "way", "ref": 35763863, "role": "forward"}, {"type": "node", "ref": 418125100, "role": "stop_entry_only"}, {"type": "node", "ref": 418125101, "role": "stop_exit_only"}], "tags": {"aerialway": "gondola", "from": "Vilpian", "name": "203 Vilpian - M\u00f6lten", "ref": "203", "route": "aerialway", "to": "M\u00f6lten", "type": "route"}}, {"type": "relation", "id": 8317859, "members": [{"type": "way", "ref": 35763863, "role": "backward"}, {"type": "node", "ref": 418125100, "role": "stop_exit_only"}, {"type": "node", "ref": 418125101, "role": "stop_entry_only"}], "tags": {"aerialway": "gondola", "from": "M\u00f6lten", "name": "203 M\u00f6lten - Vilpian", "ref": "203", "route": "aerialway", "to": "Vilpian", "type": "route"}}, {"type": "relation", "id": 8317861, "members": [{"type": "node", "ref": 5153990232, "role": "stop_exit_only"}, {"type": "way", "ref": 530862589, "role": "forward"}, {"type": "node", "ref": 5153990233, "role": "stop_entry_only"}], "tags": {"aerialway": "gondola", "from": "Burgstall", "name": "226 Burgstall - V\u00f6ran", "ref": "226", "route": "aerialway", "to": "V\u00f6ran", "type": "route"}}, {"type": "relation", "id": 8317862, "members": [{"type": "node", "ref": 5153990232, "role": "stop_entry_only"}, {"type": "way", "ref": 530862589, "role": "backward"}, {"type": "node", "ref": 5153990233, "role": "stop_exit_only"}], "tags": {"aerialway": "gondola", "from": "V\u00f6ran", "name": "226 V\u00f6ran - Burgstall", "ref": "226", "route": "aerialway", "to": "Burgstall", "type": "route"}}]}