{"version": 0.6, "generator": "Overpass API 0.7.62.10 2d4cfc48", "osm3s": {"timestamp_osm_base": "2026-02-08T12:49:15Z", "copyright": "The data included in this document is from www.openstreetmap.org. The data is made available under ODbL."}, "elements": [{"type": "node", "id": 289246661, "lat": 46.8140783, "lon": 11.9351688, "tags": {"addr:city": "Bruneck - Brunico", "addr:country": "IT", "addr:postcode": "39031", "amenity": "pharmacy", "contact:phone": "+39 0474 551400", "contact:website": "http://www.st-barbara.it/", "lastcheck": "2016-07-18", "name": "St. Barbara Apotheke", "opening_hours": "Mo-Sa 08:30-12:30, Mo-Fr 15:00-19:00", "wheelchair": "yes"}}, {"type": "node", "id": 299473860, "lat": 46.918894, "lon": 11.9510464, "tags": {"addr:city": "Sand in Taufers - Campo Tures", "addr:housenumber": "21", "addr:postcode": "39032", "addr:street": "Ahrntalerstra\u00dfe - via valle Aurina", "amenity": "pharmacy", "email": "info@apotheke-farmacia.it", "fax": "+39 0474 68 65 70", "healthcare": "pharmacy", "name": "Farmacia Dr. Aichner Apotheke", "name:de": "Apotheke Dr. Aichner", "name:it": "Farmacia Dr. Aichner", "opening_hours": "Mo-Fr 08:00-12:30,15:00-18:30; Sa 08:00-12:30,15:00-18:00", "phone": "+39 0474 67 80 35", "ref:vatin": "IT00745390211", "website": "https://www.apotheke-farmacia.it/"}}, {"type": "node", "id": 621168890, "lat": 46.8168962, "lon": 11.7218979, "tags": {"amenity": "pharmacy", "dispensing": "yes", "name": "Sankt Paulus", "operator": "Zardini Bruno", "ref:msal": "4128", "ref:vatin": "IT01329740219"}}, {"type": "node", "id": 846729689, "lat": 46.9378118, "lon": 11.4433115, "tags": {"amenity": "pharmacy"}}, {"type": "node", "id": 1602254899, "lat": 46.8092895, "lon": 11.8823448, "tags": {"addr:city": "Pfalzen - Falzes", "addr:housenumber": "4", "addr:postcode": "39030", "addr:street": "Pfalzner Stra\u00dfe - Via Falzes", "amenity": "pharmacy", "healthcare": "pharmacy", "name": "Sonnen-Apotheke", "opening_hours": "Mo-Fr 08:00-12:30,15:00-18:30; Sa 08:00-12:00", "operator": "Sonnenapotheke S.R.L.", "ref:msal": "4112", "ref:vatin": "IT03059450217"}}, {"type": "node", "id": 1612460203, "lat": 46.7837534, "lon": 11.8983731}, {"type": "node", "id": 1612460232, "lat": 46.783781, "lon": 11.898483}, {"type": "node", "id": 1612460239, "lat": 46.7838043, "lon": 11.8983546}, {"type": "node", "id": 1612460241, "lat": 46.78381, "lon": 11.8985589}, {"type": "node", "id": 1612460243, "lat": 46.7838117, "lon": 11.8984861}, {"type": "node", "id": 1612460244, "lat": 46.7838118, "lon": 11.8985335}, {"type": "node", "id": 1612460251, "lat": 46.7838446, "lon": 11.8985388}, {"type": "node", "id": 1824065621, "lat": 46.8990898, "lon": 11.9431014, "tags": {"amenity": "pharmacy", "healthcare": "pharmacy", "name": "Apotheke Dr. Aichner"}}, {"type": "node", "id": 2015423836, "lat": 46.8063393, "lon": 11.835705, "tags": {"addr:city": "Kiens - Chienes", "addr:city:de": "Kiens", "addr:city:it": "Chienes", "addr:housenumber": "13", "addr:postcode": "39030", "addr:street": "Pustertaler Stra\u00dfe - Via Val Pusteria", "addr:street:de": "Pustertaler Stra\u00dfe", "addr:street:it": "Via Pusteria", "amenity": "pharmacy", "contact:email": "info@apotheke-kiens.it", "contact:website": "https://www.apotheke-kiens.it", "dispensing": "yes", "name": "Apotheke - Farmacia", "name:de": "Apotheke Kiens", "name:it": "Farmacia Chienes", "opening_hours": "Mo-Fr 08:00-12:00,15:00-18:30; Sa 08:00-12:00", "operator": "Dott. Birgit Pircher", "phone": "+39 0474 564077", "ref:msal": "4153", "ref:vatin": "IT01621540218"}}, {"type": "node", "id": 2038645572, "lat": 46.7958661, "lon": 11.9379397, "tags": {"addr:city": "Bruneck - Brunico", "addr:city:de": "Bruneck", "addr:city:it": "Brunico", "addr:housenumber": "43a", "addr:postcode": "39031", "addr:street": "Stadtgasse - Via Centrale", "addr:street:de": "Stadtgasse", "addr:street:it": "Via Centrale", "amenity": "pharmacy", "dispensing": "yes", "name": "Apotheke von Zieglauer Farmacia", "name:de": "Apotheke von Zieglauer Farmacia", "name:it": "Farmacia von Zeiglauer", "opening_hours": "Mo-Fr 08:30-12:30,15:00-19:00; Sa 08:30-12:30"}}, {"type": "node", "id": 2121259377, "lat": 46.7978613, "lon": 11.9378222, "tags": {"addr:city": "Bruneck - Brunico", "addr:housenumber": "1b", "addr:postcode": "39031", "addr:street": "Via Josef Seeber", "amenity": "pharmacy", "check_date": "2024-03-09", "healthcare": "pharmacy", "name": "Farmacia Sant'Anna Apotheke", "opening_hours": "08:30-12:30,15:00-19:00", "phone": "+39 0474 555264", "website": "https://www.farmaciasantannabrunico.it/", "wheelchair": "yes"}}, {"type": "node", "id": 2304611741, "lat": 46.8998518, "lon": 11.4627236}, {"type": "node", "id": 2304611764, "lat": 46.8999756, "lon": 11.4626482}, {"type": "node", "id": 2304611766, "lat": 46.9000244, "lon": 11.4628198}, {"type": "node", "id": 2304611768, "lat": 46.8999006, "lon": 11.4628952}, {"type": "node", "id": 2417810105, "lat": 46.949208, "lon": 11.9226213, "tags": {"amenity": "pharmacy", "contact:email": "apotheke.ahrntal@rolmail.net", "contact:phone": "+39 0474 671086", "healthcare": "pharmacy", "name": "Apotheke Ahrntal", "name:de": "Apotheke Ahrntal", "opening_hours": "Mo,Tu,Th,Fr 08:10-12:30,15:00-18:30; Sa 08:10-12:30; We,Su,PH off", "wheelchair": "yes"}}, {"type": "node", "id": 2722896907, "lat": 46.7972954, "lon": 11.6680477, "tags": {"addr:city": "M\u00fchlbach - Rio di Pusteria", "addr:city:de": "M\u00fchlbach", "addr:city:it": "Rio di Pusteria", "addr:housenumber": "75e", "addr:postcode": "39037", "addr:street": "Katharina-Lanz-Stra\u00dfe - Via Katharina Lanz", "addr:street:de": "Katharina-Lanz-Stra\u00dfe", "addr:street:it": "Via Katharina Lanz", "amenity": "pharmacy", "dispensing": "yes", "email": "info@farmaciapeer.it", "level": "0", "name": "Farmacia Peer Apotheke", "name:de": "Peer Apotheke", "name:it": "Farmacia Peer", "opening_hours": "Mo-Fr 08:00-12:30,15:00-19:00; Sa 08:00-12:00; PH closed", "operator": "Dr. Albrecht Peer", "phone": "+39 0472 849719", "ref:msal": "4125", "ref:vatin": "IT01710770213", "website": "https://www.farmaciapeer.it/", "wheelchair": "yes"}}, {"type": "node", "id": 5812332906, "lat": 46.9491546, "lon": 11.9226607, "tags": {"amenity": "pharmacy", "healthcare": "pharmacy"}}, {"type": "node", "id": 5931785549, "lat": 46.7764124, "lon": 11.9499864, "tags": {"addr:city": "Bruneck - Brunico", "addr:city:de": "Bruneck", "addr:city:it": "Brunico", "addr:hamlet": "Reischach - Riscone", "addr:hamlet:de": "Reischach", "addr:hamlet:it": "Riscone", "addr:housenumber": "16b", "addr:postcode": "39031", "addr:street": "Prack-Zu-Asch-Stra\u00dfe - Via Prack Zu Asch", "addr:street:de": "Prack-Zu-Asch-Stra\u00dfe", "addr:street:it": "Via Prack Zu Asch", "amenity": "pharmacy", "check_date": "2025-08-10", "contact:facebook": "https://www.facebook.com/farmaciakronapotheke/", "dispensing": "yes", "healthcare": "pharmacy", "name": "Kron Apotheke - Farmacia Kron", "name:de": "Kron Apotheke", "name:it": "Farmacia Kron", "opening_hours": "Mo-Fr 08:30-12:30,14:30-18:30; Sa 08:30-12:30; Su off", "phone": "+39 0474 548440", "wheelchair": "yes"}}, {"type": "node", "id": 9571744993, "lat": 46.7699278, "lon": 11.6649783, "tags": {"amenity": "pharmacy"}}, {"type": "way", "id": 148151025, "nodes": [1612460203, 1612460232, 1612460243, 1612460244, 1612460241, 1612460251, 1612460239, 1612460203], "tags": {"amenity": "pharmacy", "building": "yes", "healthcare": "pharmacy", "name": "Sebatum", "opening_hours": "Mo-Fr 08:30-12:30,15:00-19:00; Sa 08:30-12:30", "operator": "Dr. Oberleiter Alois", "phone": "+39 0474 476068", "ref:msal": "4129", "ref:vatin": "IT01709610214", "website": "https://www.sebatum.com/", "wikidata": "Q14880144"}}, {"type": "way", "id": 221433024, "nodes": [2304611764, 2304611766, 2304611768, 2304611741, 2304611764], "tags": {"amenity": "pharmacy", "building": "yes", "dispensing": "yes", "name": "Apotheke Wiesen", "operator": "Unterkircher Gunther", "ref:msal": "18137", "source": "Ministero della Salute", "source:start_date": "2007-11-01"}}]}