{"version": 0.6, "generator": "Overpass API 0.7.62.10 2d4cfc48", "osm3s": {"timestamp_osm_base": "2026-02-08T12:44:13Z", "copyright": "The data included in this document is from www.openstreetmap.org. The data is made available under ODbL."}, "elements": [{"type": "node", "id": 276665082, "lat": 46.6769406, "lon": 11.2554098, "tags": {"addr:city": "Hafling - Avelengo", "addr:city:de": "Hafling", "addr:city:it": "Avelengo", "addr:housenumber": "16", "addr:postcode": "39010", "addr:street": "Piffingerweg - Via Piffing", "addr:street:de": "Piffingerweg", "addr:street:it": "Via Piffing", "amenity": "restaurant", "name": "Piffinger K\u00f6pfl", "opening_hours": "Mo-Su 09:15-18:00", "outdoor_seating": "yes", "phone": "+39 0473 279 610", "website": "https://www.piffinger-koepfl.com/", "wheelchair": "yes"}}, {"type": "node", "id": 276677547, "lat": 46.6833792, "lon": 11.2818588}, {"type": "node", "id": 276677548, "lat": 46.6833696, "lon": 11.282059}, {"type": "node", "id": 276677549, "lat": 46.683164, "lon": 11.2820379}, {"type": "node", "id": 276677550, "lat": 46.6831737, "lon": 11.2818377}, {"type": "node", "id": 276681083, "lat": 46.685534, "lon": 11.273794}, {"type": "node", "id": 276681084, "lat": 46.6856123, "lon": 11.2739855}, {"type": "node", "id": 276681085, "lat": 46.6854523, "lon": 11.2741245}, {"type": "node", "id": 276681086, "lat": 46.685374, "lon": 11.273933}, {"type": "node", "id": 276681953, "lat": 46.6905778, "lon": 11.3030956}, {"type": "node", "id": 276681955, "lat": 46.6906733, "lon": 11.3031672}, {"type": "node", "id": 276681956, "lat": 46.6906613, "lon": 11.3032012}, {"type": "node", "id": 276681957, "lat": 46.6907393, "lon": 11.3032596}, {"type": "node", "id": 276681958, "lat": 46.6905998, "lon": 11.3034438}, {"type": "node", "id": 276681959, "lat": 46.6904852, "lon": 11.3033579}, {"type": "node", "id": 289741261, "lat": 46.3952497, "lon": 11.3857603, "tags": {"amenity": "restaurant", "cuisine": "italian;pizza", "name": "Gasthof Wieser", "phone": "+39 0471 615152"}}, {"type": "node", "id": 289741267, "lat": 46.3966755, "lon": 11.3944388, "tags": {"amenity": "restaurant", "name": "Gasthof Weber"}}, {"type": "node", "id": 290774318, "lat": 46.5920259, "lon": 10.9311498}, {"type": "node", "id": 290827909, "lat": 46.6687892, "lon": 10.9939325}, {"type": "node", "id": 290831118, "lat": 46.6706, "lon": 11.0066482, "tags": {"addr:city": "Naturns - Naturno", "addr:city:de": "Naturns", "addr:city:it": "Naturno", "addr:country": "IT", "addr:housenumber": "77a", "addr:postcode": "39025", "addr:street": "Sonnenberg-Monte Sole", "amenity": "restaurant", "ele": "1445", "email": "info@pirchhof.it", "facebook": "https://www.facebook.com/HofschankPirchhof", "name": "Pirchhof", "phone": "+39 0473 667812", "phone:mobile": "+39 348 8501414", "source": "http://www.pirchhof.com/", "source:date": "2019-03-07", "website": "http://www.pirchhof.com/"}}, {"type": "node", "id": 290958323, "lat": 46.6568512, "lon": 11.0130051, "tags": {"amenity": "restaurant", "name": "Wiedenplatz", "wheelchair": "limited", "wheelchair:description": "Damentoilett ist f\u00fcr Rollstuhlfahrer zug\u00e4nglich, es sind aber keine Haltegriffe vorhanden."}}, {"type": "node", "id": 291290003, "lat": 46.6587091, "lon": 11.0736106, "tags": {"amenity": "restaurant", "cuisine": "regional", "name": "Unterobereben", "opening_hours": "Mo-Su 08:00-23:00; Sa off", "opening_hours:kitchen": "Mo-Su 12:00-14:30, 17:30-20:30; Sa off", "outdoor_seating": "yes"}}, {"type": "node", "id": 292811263, "lat": 46.5633788, "lon": 11.3566442, "tags": {"amenity": "restaurant", "name": "Moar"}}, {"type": "node", "id": 292811271, "lat": 46.6105319, "lon": 11.3387133, "tags": {"amenity": "restaurant", "name": "Hauser Berg"}}, {"type": "node", "id": 293599658, "lat": 46.6171415, "lon": 11.3080033, "tags": {"addr:city": "Jenesien - San Genesio Atesino", "addr:city:de": "Jenesien", "addr:city:it": "San Genesio Atesino", "addr:housenumber": "22", "addr:place": "Flaas - Valas", "addr:place:de": "Flaas", "addr:place:it": "Valas", "addr:postcode": "39050", "addr:street": "Kampideller Weg", "amenity": "restaurant", "ele": "1660", "name": "Jenesier J\u00f6chl"}}, {"type": "node", "id": 293599663, "lat": 46.6238284, "lon": 11.3343245, "tags": {"amenity": "restaurant", "name": "Putzer Kreuz"}}, {"type": "node", "id": 293599665, "lat": 46.5495355, "lon": 11.3705267, "tags": {"amenity": "restaurant", "name": "Steinmann", "name:de": "Steinmann"}}, {"type": "node", "id": 308301683, "lat": 46.6920656, "lon": 11.0547553, "tags": {"amenity": "restaurant", "check_date": "2023-07-05", "cuisine": "austrian;buschenschank;german;italian", "ele": "950", "internet_access": "wlan", "name": "Birkenwald", "opening_hours": "We-Mo 10:00-19:00", "outdoor_seating": "yes", "phone": "+39 0473 968356", "self_service": "no"}}, {"type": "node", "id": 309946873, "lat": 46.6998012, "lon": 11.1462273, "tags": {"access": "customers", "amenity": "restaurant", "cuisine": "regional", "name": "Culinaria living", "opening_hours": "12:00-14:00,19:00-21:30", "phone": "+39 0473 923508"}}, {"type": "node", "id": 310438217, "lat": 46.6777736, "lon": 10.916148, "tags": {"abandoned": "restaurant", "amenity": "restaurant", "ele": "1882", "name": "Saxalb Alm - Malga di Sassalbo", "name:de": "Saxalb Alm", "name:it": "Malga di Sassalbo"}}, {"type": "node", "id": 310461412, "lat": 46.735277, "lon": 10.9121306, "tags": {"amenity": "restaurant", "name": "Graf Alm"}}, {"type": "node", "id": 310468986, "lat": 46.5992023, "lon": 11.0491402, "tags": {"amenity": "restaurant", "ele": "1885", "name": "Stafler Alm - Malga Stafler (Scaglioni)", "name:de": "Stafler Alm", "name:it": "Malga Stafler (Scaglioni)"}}, {"type": "node", "id": 310469786, "lat": 46.6330082, "lon": 11.0938804, "tags": {"amenity": "restaurant", "ele": "1700", "email": "gampl@familyparadies.com", "mobile": "+39 338 6226987", "name": "Familyalm Gampl - Albergo Gampl", "name:de": "Familyalm Gampl", "name:it": "Albergo Gampl", "opening_hours": "Mo-Su,PH 08:00-20:00", "phone": "+39 0473 562014", "website": "https://www.familyparadies.com/"}}, {"type": "node", "id": 310670722, "lat": 46.6714059, "lon": 11.0968892, "tags": {"addr:housenumber": "35", "addr:postcode": "39022", "addr:street": "Vinschgauerstra\u00dfe", "amenity": "restaurant", "name": "Gasthaus Gramegg", "outdoor_seating": "yes", "phone": "+39 0473 967425"}}, {"type": "node", "id": 313207106, "lat": 46.6171997, "lon": 11.1114126, "tags": {"addr:housenumber": "3", "addr:postcode": "39011", "addr:street": "Pawigl", "amenity": "restaurant", "cuisine": "regional", "email": "info@greitwies.it", "mobile": "+39 339 2229238", "name": "Jausenstation Greitwies", "phone": "+39 0473 563376", "website": "http://www.greitwies.it/"}}, {"type": "node", "id": 329525749, "lat": 46.5196548, "lon": 11.3621034, "tags": {"amenity": "restaurant", "name": "Seeberger", "wheelchair": "limited"}}, {"type": "node", "id": 362792011, "lat": 46.7245759, "lon": 10.9299696, "tags": {"addr:city": "Schnals-Senales", "addr:housenumber": "9", "addr:street": "Pfossental", "amenity": "restaurant", "contact:email": "info@nassreidhof.it", "contact:mobile": "+39 320 7770557", "contact:phone": "+39 0473 679233", "contact:website": "http://www.nassreidhof.it/", "cuisine": "regional", "name": "Nassreidhof", "rooms": "7", "source": "http://www.nassreidhof.it/", "source:date": "2019-03-07", "tourism": "guest_house"}}, {"type": "node", "id": 385123328, "lat": 46.5417277, "lon": 10.9321044, "tags": {"amenity": "restaurant", "internet_access": "yes", "internet_access:fee": "no", "name": "Bergrestaurant Breiteben"}}, {"type": "node", "id": 385123329, "lat": 46.5412309, "lon": 10.9313462, "tags": {"amenity": "restaurant", "cuisine": "regional", "name": "Jausenstation L\u00e4rchegg"}}, {"type": "node", "id": 385123330, "lat": 46.5324376, "lon": 10.9181448, "tags": {"amenity": "restaurant", "ele": "2145", "name": "Bergrestaurant Schwemmalm - Ristorante di montagna Malga Guazza", "name:de": "Bergrestaurant Schwemmalm", "name:it": "Ristorante di montagna Malga Guazza"}}, {"type": "node", "id": 392944495, "lat": 46.6634873, "lon": 11.2578012, "tags": {"amenity": "restaurant", "cuisine": "regional", "name": "Moschwaldalm"}}, {"type": "node", "id": 398230252, "lat": 46.6760441, "lon": 11.2495739}, {"type": "node", "id": 398230254, "lat": 46.676084, "lon": 11.2497607}, {"type": "node", "id": 398230256, "lat": 46.6762607, "lon": 11.2496804}, {"type": "node", "id": 398230258, "lat": 46.6762208, "lon": 11.2494936}, {"type": "node", "id": 398230260, "lat": 46.6744792, "lon": 11.25707}, {"type": "node", "id": 398230261, "lat": 46.6745345, "lon": 11.2573093}, {"type": "node", "id": 398230263, "lat": 46.6744197, "lon": 11.2572933}, {"type": "node", "id": 398230264, "lat": 46.6743794, "lon": 11.2571191}, {"type": "node", "id": 398756692, "lat": 46.6083463, "lon": 11.2388352}, {"type": "node", "id": 398756694, "lat": 46.6081834, "lon": 11.2389232}, {"type": "node", "id": 398756711, "lat": 46.6081541, "lon": 11.2386759}, {"type": "node", "id": 398756714, "lat": 46.6083014, "lon": 11.2386589}, {"type": "node", "id": 398757017, "lat": 46.6218338, "lon": 11.2494761}, {"type": "node", "id": 398757020, "lat": 46.6219554, "lon": 11.2492139}, {"type": "node", "id": 398757027, "lat": 46.6217217, "lon": 11.2493659}, {"type": "node", "id": 398757439, "lat": 46.6256064, "lon": 11.2445327}, {"type": "node", "id": 398757441, "lat": 46.6255469, "lon": 11.2443709}, {"type": "node", "id": 398757442, "lat": 46.6254463, "lon": 11.2444075}, {"type": "node", "id": 398757444, "lat": 46.6254759, "lon": 11.2445801}, {"type": "node", "id": 410827582, "lat": 46.6682388, "lon": 11.1736621, "tags": {"addr:city": "Meran - Merano", "addr:city:de": "Meran", "addr:city:it": "Merano", "addr:country": "IT", "addr:housenumber": "22", "addr:postcode": "39012", "addr:street": "Dantestra\u00dfe", "amenity": "restaurant", "day_off": "Sonntag / Dom", "level": "0", "name": "Pizzeria Kirchsteiger", "opening_hours": "Mo-Sa 11:00-14:00, 17:30-22:30", "phone": "+39 0473 609580", "website": "https://www.restaurant-kirchsteiger.it/", "wheelchair": "limited"}}, {"type": "node", "id": 411324029, "lat": 46.625858, "lon": 11.2110877, "tags": {"addr:housenumber": "1", "addr:street": "V\u00f6ranerstra\u00dfe", "amenity": "restaurant", "cuisine": "regional", "email": "info@gasthofalpenrose.com", "name": "Alpenrose", "opening_hours": "Mo-Th, Sa, Su 11:00-23:00", "phone": "+390473278060", "website": "https://www.gasthofalpenrose.com/"}}, {"type": "node", "id": 411676566, "lat": 46.7003926, "lon": 11.1672927, "tags": {"amenity": "restaurant", "capacity": "100", "cuisine": "regional", "dog": "yes", "email": "info@ungerichthof.it", "fax": "+39 0473 241342", "name": "Gasthof Ungericht", "opening_hours": "Tu-Sa 11:00-23:00", "phone": "+39 0473 241112", "season": "Feb off", "source": "http://www.passeiertal.it/smartedit/documents/download/gastro-riffian-neu.pdf", "source:date": "2015-04-25", "terrace": "yes", "website": "https://www.ungerichthof.it/", "wheelchair": "yes"}}, {"type": "node", "id": 415268926, "lat": 46.6347375, "lon": 11.1335293}, {"type": "node", "id": 417200226, "lat": 46.7020612, "lon": 11.203375, "tags": {"addr:housenumber": "3", "addr:street": "Hofweg", "amenity": "restaurant", "contact:email": "koestenthaler@rolmail.net", "cuisine": "regional", "name": "K\u00f6stenthaler-Hof", "opening_hours": "Mo, Tu, Th-Su 11:00-23:00", "phone": "+39 0473 945831", "smoking": "no", "website": "http://koestenthaler.com", "wheelchair": "no"}}, {"type": "node", "id": 418590055, "lat": 46.5484338, "lon": 11.4124084, "tags": {"amenity": "restaurant", "cuisine": "regional", "name": "Lobishof", "opening_hours": "Th-Tu 11:00-18:00", "website": "https://www.lobishof.com/de/gasthaus-restaurant-ritten.htm"}}, {"type": "node", "id": 430384067, "lat": 46.6744821, "lon": 11.2572626}, {"type": "node", "id": 443435231, "lat": 46.6897789, "lon": 11.120846, "tags": {"amenity": "restaurant", "check_date:opening_hours": "2024-04-25", "name": "Kaffee Konrad", "opening_hours": "Mar-Oct: Mo-Tu,Th-Su 10:30-18:00", "phone": "+39 0473 448646"}}, {"type": "node", "id": 443448126, "lat": 46.6345592, "lon": 10.9967492}, {"type": "node", "id": 469106203, "lat": 46.5776295, "lon": 11.1380402, "tags": {"amenity": "restaurant", "cuisine": "regional", "name": "V\u00f6llaner Badl", "name:de": "V\u00f6llaner Badl", "name:it": "Voellaner Badl", "source": "survey", "tourism": "guest_house"}}, {"type": "node", "id": 470256244, "lat": 46.4552667, "lon": 11.2399826, "tags": {"addr:city": "Eppan an der Weinstra\u00dfe - Appiano sulla Strada del Vino", "addr:hamlet": "St. Michael - San Michele", "addr:housenumber": "9", "addr:postcode": "39057", "addr:street": "Matschatscher Weg - Strada Masaccio", "air_conditioning": "yes", "amenity": "restaurant", "bar": "yes", "brand": "Steinegger", "brewery": "Forst Kronen", "contact:email": "info@steinegger.it", "contact:facebook": "https://www.facebook.com/DerSteineggerEppan/", "contact:phone": "+39 0471 662248", "contact:website": "https://www.steinegger.it", "cuisine": "italian;regional", "diet:gluten_free": "yes", "diet:vegetarian": "yes", "ele": "614", "internet_access": "yes", "internet_access:fee": "customers", "name": "Steinegger", "opening_hours": "Apr-Nov: Mo-Su,PH 12:00-21:00; We,Th off; Dec-Mar: off", "operator": "Familie v. Eisenstecken", "outdoor_seating": "yes", "payment:bancomat": "yes", "payment:cash": "yes", "payment:mastercard": "yes", "payment:visa": "yes", "ref:vatin": "IT02912130214", "rooms": "30", "start_date": "1669", "tourism": "hotel"}}, {"type": "node", "id": 470259436, "lat": 46.4547772, "lon": 11.2636727, "tags": {"amenity": "restaurant", "cuisine": "pizza", "name": "\u00dcberetscher Keller Restaurant Pizzeria"}}, {"type": "node", "id": 478636891, "lat": 46.5301638, "lon": 10.9581921, "tags": {"amenity": "restaurant", "name": "Kuppelwies", "toilets:wheelchair": "yes", "wheelchair": "yes"}}, {"type": "node", "id": 482740210, "lat": 46.5866717, "lon": 11.2532878, "tags": {"addr:housenumber": "44", "addr:street": "M\u00f6ltnerstra\u00dfe", "amenity": "restaurant", "contact:email": "marianne_geiser@hotmail.it", "cuisine": "pizza", "name": "Friedheim", "opening_hours": "Mo, Th-Su 09:00-23:00", "phone": "+390471668048"}}, {"type": "node", "id": 495259963, "lat": 46.7338661, "lon": 11.2275193, "tags": {"amenity": "restaurant", "ele": "1404", "name": "Gasthof Prennanger"}}, {"type": "node", "id": 495277792, "lat": 46.7363834, "lon": 11.2281777, "tags": {"amenity": "restaurant", "cuisine": "regional", "name": "Kaffee Sterneck \u2014 Restaurant Zum Gustl"}}, {"type": "node", "id": 495278242, "lat": 46.7362119, "lon": 11.2269208, "tags": {"amenity": "restaurant", "name": "Gasthof Alpenblick", "operator": "Familie Karlegger"}}, {"type": "node", "id": 495296082, "lat": 46.7186063, "lon": 11.2509486, "tags": {"amenity": "restaurant", "check_date": "2017-04-29", "contact:phone": "+39 0473 949452", "cuisine": "regional", "ele": "1536", "name": "Gasthof Hiaslbauer", "opening_hours": "Apr 01-Nov 17,Dec 26-31 08:00-22:00; Nov 18-Dec 25 Sa,Su 08:00-21:00", "operator": "Fam. Pichler", "outdoor_seating": "yes", "source": "https://www.merano-suedtirol.it/de/schenna/betrieb/hiaslbauer-berggasthaus-1431/", "source:date": "2015-04-25"}}, {"type": "node", "id": 495297077, "lat": 46.718245, "lon": 11.2509768, "tags": {"amenity": "restaurant", "check_date": "2017-06-16", "contact:email": "info@haashof.it", "contact:mobile": "+39 333 3010641", "contact:phone": "+39 0473 949509", "cuisine": "regional", "ele": "1536", "name": "Gasthaus Haashof", "opening_hours": "May-Jul: Sa-Th, Fr off; Aug-Nov: Mo-Su; Dec 26-Jan 06: Mo-Su; Jan-Feb: Sa-Su", "operator": "Fam. Karolina Haller", "outdoor_seating": "yes", "source": "https://www.merano-suedtirol.it/de/passeiertal/veranstaltung/artikel/huetten-im-passeiertal-309/", "source:date": "2015-04-25", "website": "http://www.haashof.it/", "wikidata": "Q104332722"}}, {"type": "node", "id": 499994779, "lat": 46.4991165, "lon": 11.3625622, "tags": {"addr:city": "Bolzano - Bozen", "addr:housenumber": "33", "addr:postcode": "39100", "addr:street": "Via Renon - Rittner Stra\u00dfe", "amenity": "restaurant", "cuisine": "pizza", "indoor_seating": "yes", "name": "Bar Haidi Pizzeria Bistro", "opening_hours": "Mo-Sa 05:00-24:00; Su 15:00-24:00", "outdoor_seating": "yes"}}, {"type": "node", "id": 500004619, "lat": 46.4990306, "lon": 11.3525008, "tags": {"addr:city": "Bolzano - Bozen", "addr:housenumber": "3", "addr:postcode": "39100", "addr:street": "Via Johann Wolfgang Von Goethe - Johann-Wolfgang-Von-Goethe-Stra\u00dfe", "addr:street:de": "Goethestra\u00dfe", "addr:street:it": "Via Goethe", "amenity": "restaurant", "changing_table": "yes", "check_date": "2024-10-11", "contact:email": "info@voegle.it", "contact:fax": "+39 0471 325750", "contact:phone": "+39 0471 973938", "contact:website": "https://www.voegele.it/", "cuisine": "regional;italian", "diet:meat": "yes", "diet:vegetarian": "yes", "name": "V\u00f6gele", "opening_hours": "Mo-Sa 09:00-01:00; Su, PH off", "operator": "Alber Wilhelm GmbH Ssrl", "ref:vatin": "IT01350980213", "source": "visit", "wheelchair": "no"}}, {"type": "node", "id": 500004620, "lat": 46.4990726, "lon": 11.3523422, "tags": {"addr:city": "Bolzano - Bozen", "addr:housenumber": "6", "addr:postcode": "39100", "addr:street": "Via Johann Wolfgang Von Goethe - Johann-Wolfgang-Von-Goethe-Stra\u00dfe", "amenity": "restaurant", "check_date": "2023-11-26", "cuisine": "italian;regional", "email": "fb.bz@forst.it", "indoor_seating": "yes", "internet_access": "no", "level": "0", "name": "Forstbr\u00e4u Central", "opening_hours": "Mo-Su 11:30-23:30", "outdoor_seating": "yes", "phone": "+39 0471 977243", "ref:vatin": "IT02738180211", "reservation": "recommended", "smoking": "outside", "website": "https://www.forsterbrau.it/", "wheelchair": "limited"}}, {"type": "node", "id": 500004621, "lat": 46.4993259, "lon": 11.3525722, "tags": {"addr:city": "Bolzano - Bozen", "addr:city:de": "Bozen", "addr:city:it": "Bolzano", "addr:housenumber": "17", "addr:postcode": "39100", "addr:street": "Piazza delle Erbe - Obstplatz", "addr:street:de": "Obstplatz", "addr:street:it": "Piazza delle Erbe", "amenity": "restaurant", "contact:website": "https://www.boznerbier.it/", "craft": "brewery", "cuisine": "regional", "indoor_seating": "yes", "microbrewery": "yes", "name": "Hopfen & Co.", "operator": "Bozner Brau GmbH", "outdoor_seating": "yes", "phone": "+39 0471 300788", "wheelchair": "limited"}}, {"type": "node", "id": 500004622, "lat": 46.5013603, "lon": 11.3574364, "tags": {"addr:city": "Bolzano - Bozen", "addr:housenumber": "30", "addr:postcode": "39100", "addr:street": "Via Andreas Hofer - Andreas-Hofer-Stra\u00dfe", "addr:street:de": "Andreas-Hofer-Stra\u00dfe", "addr:street:it": "Via Andreas Hofer", "amenity": "restaurant", "check_date": "2025-11-08", "cuisine": "regional", "currency:XBT": "no", "diet:meat": "yes", "diet:vegan": "no", "diet:vegetarian": "yes", "email": "info@batzen.it", "fax": "+39 0471 050951", "microbrewery": "yes", "name": "Batzenh\u00e4usl", "opening_hours": "Mo-Su 11:00-01:00", "phone": "+39 0471 050950", "ref:vatin": "IT02498800214", "website": "https://www.batzen.it/", "wheelchair": "limited", "wikidata": "Q14540724", "wikimedia_commons": "Category:Batzenh\u00e4usl", "wikipedia": "de:Batzenh\u00e4usl"}}, {"type": "node", "id": 500522638, "lat": 46.6517894, "lon": 11.3225031, "tags": {"amenity": "restaurant", "name": "Auener Hof", "tourism": "hotel"}}, {"type": "node", "id": 503587221, "lat": 46.4405828, "lon": 11.4003031, "tags": {"amenity": "restaurant", "name": "Bauer im Wald", "opening_hours": "May-Oct: Tu-Su 11:00-15:00 || Jul-Aug: Mo 11:00-15:00", "operator": "Familie Pfeifer", "phone": "+39 0471 616330", "website": "http://bauerimwald.com"}}, {"type": "node", "id": 514489542, "lat": 46.6259892, "lon": 10.9038808}, {"type": "node", "id": 514493965, "lat": 46.6459586, "lon": 11.0989943, "tags": {"amenity": "restaurant", "contact:email": "info@seespitz-vigiljoch.com", "contact:phone": "+39 0473 562955", "cuisine": "regional", "ele": "1730", "name": "Gasthaus Seespitz", "operator": "Familie Platter", "outdoor_seating": "yes", "playground": "yes", "source": "Unterkunftsverzeichnis Marling  2023, S. 40, schriftliche Erlaubnis des Tourismusvereins Marling vom 2016-08-16 f\u00fcr die Verwendung der Daten f\u00fcr OSM", "source:date": "2022-12-11", "website": "https://www.vigilio.com/de/gasthaeuser/gasthof-seespitz.html"}}, {"type": "node", "id": 528747722, "lat": 46.7097947, "lon": 11.2090191, "tags": {"amenity": "restaurant", "cuisine": "regional", "name": "Gasthof Hasenegg"}}, {"type": "node", "id": 528765366, "lat": 46.6838314, "lon": 11.1983051, "tags": {"amenity": "restaurant", "capacity": "120", "check_date": "2025-05-14", "contact:email": "georgenhof@hotmail.com", "contact:phone": "+39 0473 945 689", "cuisine": "regional", "name": "Restaurant - Cafe Georgenhof", "opening_hours": "Apr 01-Nov 05; Dec 25-Jan 07: 10:00-23:00; Tu off", "opening_hours:kitchen": "Apr 01-Nov 05; Dec 25-Jan 07: 11:30-14:00, 17:30-21:00; Tu off", "source": "Info TV Schenna 2017, S. 42", "wheelchair": "yes"}}, {"type": "node", "id": 529590043, "lat": 46.6296642, "lon": 11.0873019, "tags": {"addr:city": "Lana", "addr:housenumber": "87", "addr:street": "Vigiljoch", "amenity": "restaurant", "cuisine": "regional", "ele": "1705", "email": "beerenhof.alber@alice.it", "internet_access": "no", "name": "B\u00e4renbadalm - Malga Bagno dell'Orso", "name:de": "B\u00e4renbadalm", "name:it": "Malga Bagno dell'Orso", "phone": "+393389918224", "source": "https://www.montagnenostre.net/malga-bagno-dellorso/", "website": "https://baerenbadalm.com"}}, {"type": "node", "id": 538308384, "lat": 46.4874586, "lon": 11.3458727, "tags": {"amenity": "restaurant", "cuisine": "italian", "name": "La Sinfonia"}}, {"type": "node", "id": 538835090, "lat": 46.4826063, "lon": 11.3424494, "tags": {"amenity": "restaurant", "cuisine": "regional", "name": "Trattoria Sarda \"Il Nuraghe\"", "name:de": "Sardisches Restaurant \"Il Nuraghe\"", "name:etymology:wikidata": "Q688292"}}, {"type": "node", "id": 538835829, "lat": 46.481854, "lon": 11.3417647, "tags": {"amenity": "restaurant", "cuisine": "italian", "name": "Ristorante \"Stella Alpina\""}}, {"type": "node", "id": 538835832, "lat": 46.4821951, "lon": 11.3420563, "tags": {"amenity": "restaurant", "cuisine": "pizza", "name": "Pizza Live"}}, {"type": "node", "id": 540371369, "lat": 46.5124093, "lon": 11.2099626, "tags": {"air_conditioning": "no", "amenity": "restaurant", "name": "Jausenstation Moarhof", "opening_hours": "Fr-Mo 11:00-17:00; PH off"}}, {"type": "node", "id": 540989354, "lat": 46.6633964, "lon": 11.0432322, "tags": {"amenity": "restaurant", "name": "Ristorane Pizzeria Caregnato"}}, {"type": "node", "id": 540994930, "lat": 46.6620319, "lon": 11.1639099, "tags": {"addr:city": "Meran - Merano", "addr:city:de": "Meran", "addr:city:it": "Merano", "addr:country": "IT", "addr:housenumber": "166", "addr:postcode": "39012", "addr:street": "Romstra\u00dfe - Via Roma", "addr:street:de": "Romstra\u00dfe", "addr:street:it": "Via Roma", "amenity": "restaurant", "fax": "+39 0473 236400", "name": "Ressmair", "phone": "+39 0473 236400", "tourism": "hotel"}}, {"type": "node", "id": 544815668, "lat": 46.7401003, "lon": 11.2562781}, {"type": "node", "id": 544815672, "lat": 46.7399864, "lon": 11.2562916}, {"type": "node", "id": 544815691, "lat": 46.7401049, "lon": 11.2564377}, {"type": "node", "id": 544815693, "lat": 46.7399956, "lon": 11.2564552}, {"type": "node", "id": 546568556, "lat": 46.7490074, "lon": 11.1609706}, {"type": "node", "id": 546568557, "lat": 46.7489893, "lon": 11.1610882}, {"type": "node", "id": 546568558, "lat": 46.7489288, "lon": 11.1609447}, {"type": "node", "id": 546568559, "lat": 46.7489106, "lon": 11.1610624}, {"type": "node", "id": 551646739, "lat": 46.4983267, "lon": 11.3534441, "tags": {"addr:street": "Piazza della Mostra - Musterplatz", "amenity": "restaurant", "cuisine": "fine_dining", "name": "Kaiserkron", "opening_hours": "Tu-Sa 12:00-15:00,19:00-22:00"}}, {"type": "node", "id": 552719666, "lat": 46.4984999, "lon": 11.3529148, "tags": {"addr:city": "Bolzano - Bozen", "addr:housenumber": "9", "addr:postcode": "39100", "addr:street": "Via della Mostra - Mustergasse", "amenity": "restaurant", "changing_table": "yes", "check_date": "2024-10-13", "description": "Bar: 8:30-22:00\n\nPizza: 17:30-22:00", "diet:vegan": "yes", "diet:vegetarian": "yes", "email": "info@fink-restaurant.it", "name": "Gasthaus Fink", "opening_hours": "Mo-Fr 11:30-15:00, 18:00-22:00", "phone": "+39 0471 975047", "ref:vatin": "IT03054850213", "toilets:wheelchair": "no", "website": "http://fink-restaurant.it", "wheelchair": "yes"}}, {"type": "node", "id": 556402530, "lat": 46.4854945, "lon": 11.2997648, "tags": {"addr:city": "Bolzano - Bozen", "addr:housenumber": "22", "addr:postcode": "39100", "addr:street": "Via Castel Firmiano", "amenity": "restaurant", "email": "angelika.riegler@brennercom.net", "name": "Mendelhof", "outdoor_seating": "yes", "phone": "+39 0471 633371", "ref:vatin": "IT00390290211", "website": "https://www.ristorantemendelhof.it/"}}, {"type": "node", "id": 556615391, "lat": 46.5008164, "lon": 11.3570139, "tags": {"amenity": "restaurant", "changing_table": "yes", "cuisine": "italian;pizza", "diet:vegan": "no", "diet:vegetarian": "yes", "indoor_seating": "yes", "internet_access": "no", "name": "Nussbaumer", "outdoor_seating": "yes", "payment:girocard": "yes", "smoking": "outside", "wheelchair": "limited"}}, {"type": "node", "id": 556616202, "lat": 46.5009217, "lon": 11.3568029, "tags": {"addr:housenumber": "6", "addr:street": "Via dei Bottai - Bindergasse", "amenity": "restaurant", "diet:vegan": "no", "diet:vegetarian": "no", "name": "Wei\u00dfes R\u00f6ssl - Cavallino Bianco", "wheelchair": "limited"}}, {"type": "node", "id": 556620323, "lat": 46.498326, "lon": 11.3551986, "tags": {"addr:city": "Bolzano - Bozen", "addr:city:de": "Bozen", "addr:city:it": "Bolzano", "addr:housenumber": "6", "addr:postcode": "39100", "addr:street": "Piazza Walther - Waltherplatz", "addr:street:de": "Walther-Platz", "addr:street:it": "Piazza Walther", "amenity": "restaurant", "check_date": "2025-01-10", "cuisine": "italian", "diet:gluten_free": "yes", "internet_access": "wlan", "internet_access:fee": "no", "name": "Walther's", "payment:cash": "yes", "payment:mastercard": "yes", "payment:visa": "yes", "toilets": "yes", "website": "https://www.walthers.it", "wheelchair": "limited"}}, {"type": "node", "id": 556629278, "lat": 46.4989757, "lon": 11.3570282, "tags": {"amenity": "restaurant", "email": "info@hotelfeichter.it", "fax": "+39 0471 974803", "indoor_seating": "yes", "name": "Feichter", "operator": "Hotel Feichter OHG", "outdoor_seating": "yes", "phone": "+39 0471 978768", "stars": "2", "tourism": "hotel", "website": "https://www.hotelfeichter.it/"}}, {"type": "node", "id": 557771903, "lat": 46.498948, "lon": 11.357497, "tags": {"addr:city": "Bolzano - Bozen", "addr:housenumber": "25", "addr:postcode": "39100", "addr:street": "Via dei Conciapelli - Gerbergasse", "amenity": "restaurant", "cuisine": "pizza", "email": "info@latorcia.it", "name": "Pizzeria La Torcia", "opening_hours": "Mo-We 12:00-14:00,18:30-21:30; Th-Sa 12:00-14:00,18:30-22:00", "phone": "+39 0471 973236", "website": "https://landing.latorciapizzeria.it/", "wheelchair": "no"}}, {"type": "node", "id": 557773990, "lat": 46.4990881, "lon": 11.3581238, "tags": {"amenity": "restaurant", "check_date": "2025-06-01", "name": "Il Tinello", "wheelchair": "no"}}, {"type": "node", "id": 557776326, "lat": 46.4990901, "lon": 11.3537903, "tags": {"amenity": "restaurant", "cuisine": "regional", "name": "Ritter"}}, {"type": "node", "id": 557776630, "lat": 46.4991012, "lon": 11.3535054, "tags": {"addr:city": "Bolzano - Bozen", "addr:city:de": "Bozen", "addr:city:it": "Bolzano", "addr:housenumber": "51", "addr:postcode": "39100", "addr:street": "Via dei Portici - Laubengasse", "addr:street:de": "Laubengasse", "addr:street:it": "Via dei Portici", "amenity": "restaurant", "cuisine": "german;italian;pizza", "name": "Paulaner Stuben", "outdoor_seating": "yes", "phone": "+39 0471 980407", "wheelchair": "limited"}}, {"type": "node", "id": 557788693, "lat": 46.5039495, "lon": 11.3338565, "tags": {"amenity": "restaurant", "name": "Da Piero - Antico Abramo"}}, {"type": "node", "id": 557806687, "lat": 46.5012077, "lon": 11.365532, "tags": {"addr:city": "Bolzano - Bozen", "addr:city:de": "Bozen", "addr:city:it": "Bolzano", "addr:country": "IT", "addr:housenumber": "2a", "addr:postcode": "39100", "addr:street": "Santa Maddalena di Sotto - Untermagdalena", "addr:street:de": "Untermagdalena", "addr:street:it": "Santa Maddalena di Sotto", "amenity": "restaurant", "description": "Gasthaus", "name": "Schwarze Katz", "opening_hours": "Mo-Sa 07:00-24:00", "opening_hours:kitchen": "Mo-Sa 19:00-21:00", "phone": "+39 0471 975417", "tourism": "hotel", "website": "https://www.schwarzekatz.it/"}}, {"type": "node", "id": 557808752, "lat": 46.5030254, "lon": 11.3731022, "tags": {"addr:housenumber": "1", "addr:street": "Santa Maddalena di Sopra - Obermagdalena", "addr:street:de": "Obermagdalena", "addr:street:it": "Santa Maddalena di Sopra", "amenity": "restaurant", "cuisine": "buschenschank", "description": "Buschenschank (tipical wine estate)", "description:de": "Buschenschank", "description:it": "Azienda agricola: vini", "name": "Steidler-Hof", "website": "https://steidlerhof.bz/"}}, {"type": "node", "id": 557944917, "lat": 46.500345, "lon": 11.3606238, "tags": {"addr:city": "Bolzano - Bozen", "addr:city:de": "Bozen", "addr:city:it": "Bolzano", "addr:housenumber": "3", "addr:postcode": "39100", "addr:street": "Piazza della Dogana - Zollstangenplatz", "addr:street:de": "Zollstangenplatz", "addr:street:it": "Piazza della Dogana", "amenity": "restaurant", "name": "L\u00f6wengrube"}}, {"type": "node", "id": 560075421, "lat": 46.5003917, "lon": 11.3535791, "tags": {"amenity": "restaurant", "brewery": "yes", "changing_table": "yes", "check_date": "2023-11-12", "cuisine": "italian;regional", "indoor_seating": "yes", "internet_access": "no", "level": "0", "name": "Franziskaner Stuben", "opening_hours": "Mo-Sa 10:00-15:00, 18:30-22:00", "outdoor_seating": "yes", "payment:mastercard": "yes", "payment:visa": "yes", "reservation": "recommended", "smoking": "outside", "toilets": "yes", "toilets:access": "customers", "wheelchair": "limited"}}, {"type": "node", "id": 560079415, "lat": 46.499684, "lon": 11.3522359, "tags": {"addr:city": "Bolzano - Bozen", "addr:housenumber": "2a", "addr:street": "Via Museo - Museumstra\u00dfe", "amenity": "restaurant", "check_date": "2025-03-25", "check_date:opening_hours": "2025-03-25", "cuisine": "italian;regional;pizza", "diet:meat": "yes", "diet:vegetarian": "yes", "indoor_seating": "yes", "level": "2", "name": "Casa al Torchio - Torgglhaus", "name:de": "Torgglhaus", "name:it": "Casa al Torchio", "opening_hours": "Tu-Su 11:30-22:30; Mo off", "outdoor_seating": "yes", "ref:vatin": "IT02258180211", "wheelchair": "no"}}, {"type": "node", "id": 582639402, "lat": 46.5289969, "lon": 11.2488264, "tags": {"addr:city": "Terlan - Terlano", "addr:city:de": "Terlan", "addr:city:it": "Terlano", "addr:housenumber": "1", "addr:place": "Dr.-Weiser-Platz - Piazza Dott. Weiser", "addr:place:de": "Dr.-Weiser-Platz", "addr:place:it": "Piazza Dott. Weiser", "addr:postcode": "39018", "amenity": "restaurant", "cuisine": "pizza;regional;italian;fish", "email": "info@oberhauser.bz", "name": "Oberhauser", "phone": "+39 0471 257121", "ref:vatin": "IT00757330212", "website": "https://oberhauser.bz/", "wheelchair": "yes"}}, {"type": "node", "id": 582641419, "lat": 46.5320781, "lon": 11.2506092, "tags": {"amenity": "restaurant", "name": "Oberbacher"}}, {"type": "node", "id": 582644897, "lat": 46.5302586, "lon": 11.2477964, "tags": {"amenity": "restaurant", "name": "Buschenhans"}}, {"type": "node", "id": 582654151, "lat": 46.5606112, "lon": 11.4126887, "tags": {"amenity": "restaurant", "name": "Messnerwirt"}}, {"type": "node", "id": 598455014, "lat": 46.6649464, "lon": 11.1765072, "tags": {"FIXME": "Position estimated", "amenity": "restaurant", "blind:description:de": "Dinner im Dunkeln", "name": "Hotel Ansitz Plantiz", "tourism": "hotel", "wikidata": "Q111413222"}}, {"type": "node", "id": 604989124, "lat": 46.4779667, "lon": 11.280309, "tags": {"amenity": "restaurant"}}, {"type": "node", "id": 608058937, "lat": 46.4376758, "lon": 11.2163572, "tags": {"amenity": "restaurant", "name": "Restaurant PanoramaHotel Penegal"}}, {"type": "node", "id": 609130800, "lat": 46.417282, "lon": 11.1663497, "tags": {"addr:city": "Sarnonico", "addr:housenumber": "1", "addr:postcode": "38010", "addr:street": "Via Bifio Ruffre", "amenity": "restaurant", "name": "Hotel Waldheim"}}, {"type": "node", "id": 630367294, "lat": 46.4029698, "lon": 11.3188651, "tags": {"amenity": "restaurant", "cuisine": "pizza", "indoor_seating": "yes", "name": "Pizzeria Postilion", "name:de": "Pizzeria Postilion", "outdoor_seating": "yes"}}, {"type": "node", "id": 630367301, "lat": 46.4026258, "lon": 11.318326, "tags": {"amenity": "restaurant", "name": "Veneri- Chiesa Vecchia"}}, {"type": "node", "id": 633206893, "lat": 46.6655938, "lon": 11.2412825, "tags": {"addr:city": "Hafling - Avelengo", "addr:postcode": "39010", "addr:street": "Falzebenstrasse / Via Falzeben", "amenity": "restaurant", "dog": "yes", "name": "Restaurant Panorama", "outdoor_seating": "yes", "phone": "+39 333 411 8014", "toilets:wheelchair": "no", "wheelchair": "limited"}}, {"type": "node", "id": 649169278, "lat": 46.5281698, "lon": 11.187891, "tags": {"amenity": "restaurant", "name": "Restaurant Pension Jagerwirt", "stars": "1"}}, {"type": "node", "id": 649169295, "lat": 46.5297863, "lon": 11.186743, "tags": {"amenity": "restaurant", "cuisine": "regional", "name": "Apollonia", "opening_hours": "Tu-Su 11:30-22:00", "outdoor_seating": "yes", "website": "http://www.restaurant-apollonia.it/", "wheelchair": "no"}}, {"type": "node", "id": 666745733, "lat": 46.6756901, "lon": 11.1489595, "tags": {"amenity": "restaurant", "cuisine": "pizza", "name": "Pizzeria Pomodoro", "opening_hours": "Tu-Fr 11:30-13:45,17:00-21:30; Sa-Su 17:00-21:30; Mo off"}}, {"type": "node", "id": 666745736, "lat": 46.6756092, "lon": 11.1545814, "tags": {"addr:housenumber": "15", "addr:postcode": "39012", "addr:street": "J. W. Goethe-Stra\u00dfe - Via J. W. Goethe", "amenity": "restaurant", "contact:facebook": "https://www.facebook.com/lasmorfia.pizzeria.ristorante", "contact:instagram": "https://www.instagram.com/lasmorfiamerano/", "contact:tripadvisor": "https://www.tripadvisor.it/Restaurant_Review-g187860-d6691969-Reviews-La_Smorfia-Merano_Province_of_South_Tyrol_Trentino_Alto_Adige.html", "cuisine": "italian;pizza", "name": "La Smorfia", "opening_hours": "Mo off; Tu 18:30-23:00; We-Su 12:00-14:00,18:30-23:00", "website": "https://www.lasmorfiamerano.com", "wheelchair": "yes"}}, {"type": "node", "id": 666979280, "lat": 46.4705677, "lon": 11.2424199, "tags": {"amenity": "restaurant", "name": "Landgasthof Kreuzstein", "stars": "3"}}, {"type": "node", "id": 670438771, "lat": 46.4551011, "lon": 11.2609972, "tags": {"amenity": "restaurant", "cuisine": "pizza", "name": "Pension Pizzeria Sternegg"}}, {"type": "node", "id": 670866510, "lat": 46.4146258, "lon": 11.2364501, "tags": {"addr:housenumber": "15", "addr:postcode": "39052", "addr:street": "Krumbachweg - Via Krumbach", "amenity": "restaurant", "name": "Gasthof Schwarzer Adler", "opening_hours": "Mo-Sa 08:00-14:30, 16:30-23:00", "phone": "+390471963256", "website": "https://www.kaltern.com/de/info/schwarzer-adler.html"}}, {"type": "node", "id": 670866572, "lat": 46.4091428, "lon": 11.2351934, "tags": {"addr:city": "Kaltern - Caldaro", "addr:country": "IT", "addr:housenumber": "53", "addr:street": "Sankt Anton - Sant'Antonio", "amenity": "restaurant", "cuisine": "pizza;regional", "indoor_seating": "yes", "name": "Pizzeria Maso Eggbauerhof", "opening_hours": "Mo-Su 07:30-23:00", "outdoor_seating": "yes", "payment:credit_cards": "yes", "payment:debit_cards": "yes", "phone": "+39 0471 962152", "website": "https://www.eggbauerhof.com/"}}, {"type": "node", "id": 670892796, "lat": 46.4301782, "lon": 11.2599941, "tags": {"addr:housenumber": "43", "addr:place": "Unterplanitzing - Pianizza di Sotto", "addr:place:de": "Unterplanitzing", "addr:place:it": "Pianizza di Sotto", "addr:postcode": "39052", "amenity": "restaurant", "capacity": "150", "capacity:indoor": "50", "capacity:outdoor": "100", "cuisine": "jause;regional", "description": "Fr\u00fchjahr und Herbst kein Ruhetag", "name": "Christl im Loch", "opening_hours": "Mo-Sa 09:00-20:00", "operator": "Sigrid Geier", "phone": "+39 0471 963294", "toilets:wheelchair": "yes", "wheelchair": "yes"}}, {"type": "node", "id": 670892797, "lat": 46.445608, "lon": 11.2622206, "tags": {"amenity": "restaurant", "name": "Bar Caf\u00e8 Restaurant Kreuzweg"}}, {"type": "node", "id": 670892798, "lat": 46.4473946, "lon": 11.2652777, "tags": {"addr:housenumber": "39", "addr:postcode": "39057", "addr:street": "Umfahrungsstra\u00dfe - Strada di Circonvallazione", "amenity": "restaurant", "cuisine": "pizza", "email": "info@pfeffermuehle.it", "indoor_seating": "yes", "name": "Restaurant Pizzeria Pfefferm\u00fchle", "opening_hours": "Fr-Tu 11:00-15:00,18:00-24:00; Th 18:00-24:00", "outdoor_seating": "yes", "payment:credit_cards": "yes", "payment:debit_cards": "yes", "phone": "+39 0471 663057", "website": "https://www.pfeffermuehle.it/"}}, {"type": "node", "id": 671402785, "lat": 46.4365079, "lon": 11.2483823, "tags": {"amenity": "restaurant", "name": "Siegi's Diner", "toilets:wheelchair": "yes", "wheelchair": "yes", "wheelchair:description": "Ebenerdiger Zugang, Rollstuhl-Wc in der Damentoilette."}}, {"type": "node", "id": 671402810, "lat": 46.4369673, "lon": 11.2491467, "tags": {"addr:housenumber": "30", "addr:postcode": "39052", "addr:street": "Oberplanitzing", "amenity": "restaurant", "cuisine": "regional", "delivery": "no", "description": "Frische Qualit\u00e4tsprodukte, saisongerecht und schonend zubereitet \u2013 das ist das ganz pers\u00f6nliche Rezept unseres K\u00fcchenchefs, regionale und mediterrane K\u00f6stlichkeiten, hausgemachte Kuchen, gern auch glutenfrei.", "diet:gluten_free": "yes", "name": "Cafe Restaurant Masatsch", "opening_hours": "Mo-Sa 07:30-23:00", "smoking": "outside", "takeaway": "no", "toilets:wheelchair": "yes", "website": "https://www.masatsch.it/de/herzlich-gemutlich-gut", "wheelchair": "yes"}}, {"type": "node", "id": 684186798, "lat": 46.4972549, "lon": 11.2277169, "tags": {"addr:housenumber": "29", "amenity": "restaurant", "name": "Gasthof Wieser", "phone": "+39 0471 662376", "website": "https://www.gasthofwieser.com/"}}, {"type": "node", "id": 690540443, "lat": 46.6658282, "lon": 11.0695451, "tags": {"amenity": "restaurant", "cuisine": "italian", "name": "Laterne", "opening_hours": "summer: Tu-Su 10:00-24:00; winter Tu-Su 17:00-01:00", "phone": "+39 0473967099", "website": "https://www.laterne.it/", "wheelchair": "yes"}}, {"type": "node", "id": 691991116, "lat": 46.5110598, "lon": 10.9238583, "tags": {"amenity": "restaurant", "name": "Gasthaus Mesner"}}, {"type": "node", "id": 700373524, "lat": 46.544609, "lon": 11.1999248, "tags": {"addr:city": "Nals - Nalles", "addr:city:de": "Nals", "addr:city:it": "Nalles", "addr:housenumber": "2", "addr:postcode": "39010", "addr:street": "Prissianerstra\u00dfe - Via Prissiano", "addr:street:de": "Prissianerstra\u00dfe", "addr:street:it": "Via Prissiano", "amenity": "restaurant", "name": "Stachelburg-Keller", "website": "www.stachelburgkeller.it"}}, {"type": "node", "id": 700376060, "lat": 46.5445342, "lon": 11.2016857, "tags": {"amenity": "restaurant", "name": "Restaurant Figl", "website": "www.figl.it"}}, {"type": "node", "id": 728460029, "lat": 46.4951891, "lon": 11.3318982, "tags": {"addr:city": "Bolzano - Bozen", "addr:housenumber": "66", "addr:postcode": "39100", "addr:street": "Viale Druso - Drususallee", "amenity": "restaurant", "name": "Pantagruel"}}, {"type": "node", "id": 729616640, "lat": 46.4222831, "lon": 11.3393118, "tags": {"amenity": "restaurant", "name": "Brunner", "wheelchair": "no"}}, {"type": "node", "id": 731025148, "lat": 46.6919636, "lon": 11.1345112, "tags": {"amenity": "restaurant", "cuisine": "regional", "name": "Schloss Thurnstein"}}, {"type": "node", "id": 732231281, "lat": 46.696792, "lon": 11.1910694}, {"type": "node", "id": 732231384, "lat": 46.6966412, "lon": 11.1910184}, {"type": "node", "id": 732231566, "lat": 46.6967792, "lon": 11.1912571}, {"type": "node", "id": 733654569, "lat": 46.6966026, "lon": 11.1912504}, {"type": "node", "id": 735699709, "lat": 46.4650538, "lon": 11.3661201}, {"type": "node", "id": 735699737, "lat": 46.46479, "lon": 11.3661805}, {"type": "node", "id": 735699738, "lat": 46.4649488, "lon": 11.3659916}, {"type": "node", "id": 735699743, "lat": 46.4649519, "lon": 11.3662896}, {"type": "node", "id": 735947496, "lat": 46.4087065, "lon": 11.2109608}, {"type": "node", "id": 735947508, "lat": 46.4088635, "lon": 11.2108209}, {"type": "node", "id": 735947523, "lat": 46.4087477, "lon": 11.2111022}, {"type": "node", "id": 735947537, "lat": 46.4088118, "lon": 11.211063}, {"type": "node", "id": 735947558, "lat": 46.4087998, "lon": 11.2110219}, {"type": "node", "id": 735947576, "lat": 46.4089035, "lon": 11.2109584}, {"type": "node", "id": 736861020, "lat": 46.5970452, "lon": 11.1611856, "tags": {"addr:city": "Lana", "addr:country": "IT", "addr:housenumber": "5", "addr:postcode": "39011", "addr:street": "Brandiswaalweg", "addr:street:de": "Brandiswaalweg", "amenity": "restaurant", "changing_table": "yes", "cuisine": "italian", "description": "\u00d6ffnungszeiten: Mitte M\u00e4rz bis Anfang November", "email": "r.unterholzner@rolmail.net", "name": "Waalrast", "opening_hours": "Tu-Su 11:00-22:00; Mo off", "operator": "Roland Unterholzner", "phone": "+39 0473 561270", "website": "http://www.waalrast.com", "wheelchair": "no"}}, {"type": "node", "id": 736899611, "lat": 46.6942165, "lon": 11.1441119, "tags": {"addr:housenumber": "25", "addr:street": "Schlossweg - Via del Castello", "amenity": "restaurant", "cuisine": "italian", "email": "info@gasthaus-schlosstirol.com", "name": "Gasthaus Schloss Tirol", "opening_hours": "Tu-Su 07:00-18:00", "phone": "+39 0473 443125", "website": "https://www.dorftirol.com/gasthaus/dt/gasthaus.htm"}}, {"type": "node", "id": 736899620, "lat": 46.6900405, "lon": 11.1556214, "tags": {"amenity": "restaurant", "check_date": "2023-10-05", "cuisine": "italian;pizza", "name": "Burggr\u00e4fler Weinstube", "opening_hours": "Mo-Su 10:00-14:00,17:00-22:30", "outdoor_seating": "yes"}}, {"type": "node", "id": 736899626, "lat": 46.6962066, "lon": 11.1522293, "tags": {"amenity": "restaurant", "cuisine": "italian", "name": "Talstation", "toilets:wheelchair": "no", "wheelchair": "yes"}}, {"type": "node", "id": 738029849, "lat": 46.6623336, "lon": 10.9790558, "tags": {"addr:city": "Naturns - Naturno", "addr:city:de": "Naturns", "addr:city:it": "Naturno", "addr:country": "IT", "addr:housenumber": "48", "addr:postcode": "39025", "addr:street": "Sonnenberg-Monte Sole", "amenity": "restaurant", "changing_table": "yes", "cuisine": "regional", "diet:vegan": "no", "diet:vegetarian": "yes", "email": "info@linthof.com", "internet_access": "wlan", "internet_access:fee": "no", "name": "Linthof", "outdoor_seating": "terrace", "payment:girocard": "yes", "phone": "+39 0473 667884", "phone:mobile": "+39 349 3786678", "source": "http://www.linthof.com/", "source:date": "2019-03-07", "toilets": "yes", "tourism": "guest_house", "website": "http://www.linthof.com/", "wheelchair": "limited"}}, {"type": "node", "id": 738029856, "lat": 46.6588535, "lon": 10.9833059, "tags": {"addr:city": "Naturns - Naturno", "addr:city:de": "Naturns", "addr:city:it": "Naturno", "addr:country": "IT", "addr:street": "Sonnenberg-Monte Sole", "amenity": "restaurant", "contact:email": "info@unterstellhof.com", "contact:phone": "+39 0473 667747", "contact:website": "http://www.unterstellhof.com/", "cuisine": "regional", "internet_access": "no", "name": "Unterstellhof", "opening_hours": "08:00+; Fr off", "source": "http://www.unterstellhof.com/", "source:date": "2019-03-07", "wheelchair": "yes"}}, {"type": "node", "id": 738029994, "lat": 46.660822, "lon": 10.9790258, "tags": {"addr:city": "Naturns - Naturno", "addr:city:de": "Naturns", "addr:city:it": "Naturno", "addr:country": "IT", "addr:housenumber": "47", "addr:street": "Sonnenberg-Monte Sole", "amenity": "restaurant", "beds": "6", "cuisine": "regional", "ele": "1386", "email": "info@patleidhof.it", "internet_access": "wlan", "internet_access:fee": "no", "name": "Patleidhof", "outdoor_seating": "terrace", "phone": "+39 0473 667767", "phone:mobile": "+39 346 3269105", "rooms": "3", "source": "http://www.patleidhof.it/", "source:date": "2019-03-07", "tourism": "guest_house", "website": "http://www.patleidhof.it/"}}, {"type": "node", "id": 738046738, "lat": 46.642364, "lon": 11.0281592}, {"type": "node", "id": 739347151, "lat": 46.6606462, "lon": 11.1858058}, {"type": "node", "id": 739347161, "lat": 46.6606698, "lon": 11.185876}, {"type": "node", "id": 739347176, "lat": 46.6606408, "lon": 11.1856064}, {"type": "node", "id": 739347182, "lat": 46.6609795, "lon": 11.1858053}, {"type": "node", "id": 739347184, "lat": 46.66095, "lon": 11.1856601}, {"type": "node", "id": 741111613, "lat": 46.6384072, "lon": 11.1390502}, {"type": "node", "id": 741111616, "lat": 46.6383371, "lon": 11.1388617}, {"type": "node", "id": 741111618, "lat": 46.6385199, "lon": 11.1389613}, {"type": "node", "id": 741111619, "lat": 46.6384498, "lon": 11.1387728}, {"type": "node", "id": 741111621, "lat": 46.6383545, "lon": 11.1389086}, {"type": "node", "id": 742472415, "lat": 46.5452566, "lon": 11.3143335}, {"type": "node", "id": 760263751, "lat": 46.6904589, "lon": 11.0803584, "tags": {"addr:housenumber": "15", "addr:postcode": "39020", "addr:street": "Vertigenstra\u00dfe - Via Vertigen", "amenity": "restaurant", "check_date": "2024-07-05", "contact:email": "info@graswegerkeller.it", "cuisine": "regional", "mobile": "+39 347 233 1521", "name": "Gasthof Graswegerkeller", "opening_hours": "Mar-Nov: Mo 11:00-17:00; We-Su 11:00-23:00; Tu off; Dec-Feb: Sa-Su", "outdoor_seating": "yes", "website": "https://www.graswegerkeller.it/"}}, {"type": "node", "id": 760263779, "lat": 46.6842167, "lon": 11.0730216, "tags": {"amenity": "restaurant", "cuisine": "pizza", "name": "Stiegenwirt", "opening_hours": "Tu off", "outdoor_seating": "yes"}}, {"type": "node", "id": 760263782, "lat": 46.6831763, "lon": 11.0735573, "tags": {"amenity": "restaurant", "cuisine": "regional", "diet:vegan": "yes", "diet:vegetarian": "yes", "indoor_seating": "yes", "name": "Kronenwirt", "opening_hours": "PH,We-Mo 10:00-14:30; Tu off, PH,We-Mo 17:30-23:00", "outdoor_seating": "yes"}}, {"type": "node", "id": 760625058, "lat": 46.6657397, "lon": 11.3651738, "tags": {"addr:city": "Sarntal - Sarentino", "addr:city:de": "Sarntal", "addr:city:it": "Sarentino", "addr:housenumber": "6", "addr:place": "Astfeld - Campolasta", "addr:place:de": "Astfeld", "addr:place:it": "Campolasta", "addr:postcode": "39058", "amenity": "restaurant", "name": "Weisses R\u00f6ssl"}}, {"type": "node", "id": 760625064, "lat": 46.6893835, "lon": 11.4167049, "tags": {"amenity": "restaurant", "name": "Kircherhof"}}, {"type": "node", "id": 760625100, "lat": 46.6880017, "lon": 11.4214327, "tags": {"addr:postcode": "39058", "amenity": "restaurant", "cuisine": "pizza;regional", "name": "B\u00e4rnstub", "opening_hours": "Tu-Su 07:00-01:00"}}, {"type": "node", "id": 762685254, "lat": 46.4051342, "lon": 11.1434041}, {"type": "node", "id": 762685309, "lat": 46.4050711, "lon": 11.1430154}, {"type": "node", "id": 762685387, "lat": 46.4052226, "lon": 11.1429636}, {"type": "node", "id": 762685419, "lat": 46.4052565, "lon": 11.1433623}, {"type": "node", "id": 768104417, "lat": 46.6562949, "lon": 11.0414439}, {"type": "node", "id": 768139392, "lat": 46.544018, "lon": 11.2091184, "tags": {"addr:housenumber": "7", "addr:street": "St.-Vigilstra\u00dfe", "amenity": "restaurant", "cuisine": "italian;pizza", "name": "Restaurant Pizzeria Sandlst\u00fcbele", "opening_hours": "Tu-Su 17:00-22:00", "phone": "+39 0471 678637", "wheelchair": "yes"}}, {"type": "node", "id": 768139514, "lat": 46.5631565, "lon": 11.1694459, "tags": {"amenity": "restaurant", "name": "Schwarzer Adler"}}, {"type": "node", "id": 768139532, "lat": 46.5423828, "lon": 11.2032047, "tags": {"amenity": "restaurant", "name": "Passler, Grill-Restaurant"}}, {"type": "node", "id": 768139533, "lat": 46.5628108, "lon": 11.1697337, "tags": {"amenity": "restaurant", "name": "Zum L\u00f6wen", "website": "https://www.zumloewen.it/#menue"}}, {"type": "node", "id": 768139535, "lat": 46.5526124, "lon": 11.1794584, "tags": {"addr:city": "Prissian - Prissiano", "addr:housenumber": "2A", "addr:postcode": "39010", "addr:street": "Prissianer Stra\u00dfe - Via Prissiano", "amenity": "restaurant", "cuisine": "pizza;regional", "name": "Zur Br\u00fccke", "outdoor_seating": "yes", "phone": "+39 0473 920914", "website": "https://restaurant-pizzeria-zur-bruecke.jimdosite.com/"}}, {"type": "node", "id": 768270883, "lat": 46.5528416, "lon": 11.179411, "tags": {"amenity": "restaurant", "name": "Zum Mohren"}}, {"type": "node", "id": 768593663, "lat": 46.5589254, "lon": 11.2232502, "tags": {"amenity": "restaurant", "cuisine": "pizza", "name": "Pizzeria Central", "phone": "+39 0471 675001", "website": "https://www.pizzeria-central.com/", "wheelchair": "yes", "wheelchair:description": "Rollstuhl-WC im UG \u00fcber Lift erreichbar."}}, {"type": "node", "id": 769077789, "lat": 46.4917018, "lon": 11.3413017, "tags": {"addr:city": "Bolzano - Bozen", "addr:housenumber": "1", "addr:postcode": "39100", "addr:street": "Via Torino - Turinstra\u00dfe", "amenity": "restaurant", "cuisine": "pizza", "name": "Pizzeria Angolo Moretti", "phone": "+39 0471 917280", "wheelchair": "limited"}}, {"type": "node", "id": 769077790, "lat": 46.4954529, "lon": 11.3356454, "tags": {"addr:city": "Bolzano - Bozen", "addr:city:de": "Bozen", "addr:city:it": "Bolzano", "addr:housenumber": "50", "addr:postcode": "39100", "addr:street": "Viale Druso - Drususallee", "addr:street:de": "Drususallee", "addr:street:it": "Viale Druso", "amenity": "restaurant", "contact:phone": "+39 0471 286160", "cuisine": "pizza", "description": "Cucina mediterranea e pizza napoletana dal 1958.", "name": "Zio Alfonso", "opening_hours": "Mo-Su 00:00-00:30,12:00-14:30,18:30-24:00; We off", "ref:vatin": "IT01278090210", "wheelchair": "limited"}}, {"type": "node", "id": 769077798, "lat": 46.4911453, "lon": 11.3435042, "tags": {"amenity": "restaurant", "cuisine": "pizza", "name": "Vesuvio"}}, {"type": "node", "id": 769077809, "lat": 46.4920941, "lon": 11.3404337, "tags": {"amenity": "restaurant", "name": "Stella d'oro di Rocco e Patrizia", "wheelchair": "no"}}, {"type": "node", "id": 770695071, "lat": 46.6137391, "lon": 11.1549309, "tags": {"addr:housenumber": "51", "addr:street": "Andreas-Hofer-Stra\u00dfe - Via Andreas Hofer", "amenity": "restaurant", "contact:mobile": "+39 377 8135073", "mobile": "+39 377 8135079", "name": "Sushi Thai", "opening_hours": "Tu-Su 11:30-14:30, 17:30-23:00", "phone": "+39 0473 338815", "website": "https://sushithai-it.jimdofree.com/"}}, {"type": "node", "id": 773235923, "lat": 46.3952302, "lon": 11.1456373}, {"type": "node", "id": 773235928, "lat": 46.3952135, "lon": 11.1458998}, {"type": "node", "id": 773235929, "lat": 46.3953406, "lon": 11.1459168}, {"type": "node", "id": 773235930, "lat": 46.3953888, "lon": 11.1456585}, {"type": "node", "id": 803470571, "lat": 46.6711956, "lon": 11.1652785, "tags": {"amenity": "restaurant", "check_date": "2025-08-15", "check_date:opening_hours": "2025-08-15", "contact:website": "https://www.hellwegers.it/", "cuisine": "italian", "name": "Hellweger's", "opening_hours": "Mo-Sa 11:30-14:15,18:00-20:45; Su off"}}, {"type": "node", "id": 803470578, "lat": 46.6712252, "lon": 11.1660288, "tags": {"addr:city": "Meran - Merano", "addr:city:de": "Meran", "addr:city:it": "Merano", "addr:housenumber": "4", "addr:postcode": "39012", "addr:street": "Valentin-Haller-Gasse - Via Valentin Haller", "addr:street:de": "Valentin-Haller-Gasse", "addr:street:it": "Via Valentin Haller", "amenity": "restaurant", "cuisine": "italian", "delivery": "yes", "description": "Italienische Gastfreundschaft im \u00e4ltesten Stadtteil Merans.", "name": "Trattoria Al Boia Partanes", "opening_hours": "Tu-Sa 12:00-14:30, 18:00-00:00; Mo, Su off", "phone": "+39 334 731 5426", "toilets:wheelchair": "limited", "website": "https://alboia.it/", "wheelchair": "limited", "wheelchair:description": "The toilet is on the ground floor, but only a very narrow wheelchair can fit through the door."}}, {"type": "node", "id": 822164746, "lat": 46.5530791, "lon": 10.9026421}, {"type": "node", "id": 830534770, "lat": 46.6732186, "lon": 11.1638477}, {"type": "node", "id": 830534894, "lat": 46.6733645, "lon": 11.1638279}, {"type": "node", "id": 830535233, "lat": 46.673257, "lon": 11.164117}, {"type": "node", "id": 830535380, "lat": 46.6733639, "lon": 11.1638149}, {"type": "node", "id": 830535787, "lat": 46.6732682, "lon": 11.1638695}, {"type": "node", "id": 830535932, "lat": 46.6733654, "lon": 11.1638249}, {"type": "node", "id": 830536348, "lat": 46.673362, "lon": 11.163813}, {"type": "node", "id": 830536921, "lat": 46.6733089, "lon": 11.1639427}, {"type": "node", "id": 830536985, "lat": 46.6731572, "lon": 11.1640608}, {"type": "node", "id": 830537074, "lat": 46.6733657, "lon": 11.1638215}, {"type": "node", "id": 830537438, "lat": 46.673348, "lon": 11.1637917}, {"type": "node", "id": 830537674, "lat": 46.6733139, "lon": 11.1639459}, {"type": "node", "id": 830537851, "lat": 46.6733652, "lon": 11.1638181}, {"type": "node", "id": 830538160, "lat": 46.6732797, "lon": 11.1638181}, {"type": "node", "id": 830599907, "lat": 46.6703505, "lon": 11.1638115}, {"type": "node", "id": 830600373, "lat": 46.6703665, "lon": 11.1636386}, {"type": "node", "id": 830600521, "lat": 46.6704163, "lon": 11.1635318}, {"type": "node", "id": 830600699, "lat": 46.6703775, "lon": 11.1635526}, {"type": "node", "id": 830600896, "lat": 46.6704335, "lon": 11.1635334}, {"type": "node", "id": 830601118, "lat": 46.67038, "lon": 11.1635289}, {"type": "node", "id": 830601581, "lat": 46.6703611, "lon": 11.1636444}, {"type": "node", "id": 830601983, "lat": 46.6703827, "lon": 11.1636399}, {"type": "node", "id": 830602215, "lat": 46.6703954, "lon": 11.1635352}, {"type": "node", "id": 830602340, "lat": 46.6704388, "lon": 11.1635289}, {"type": "node", "id": 830602444, "lat": 46.6703814, "lon": 11.1635218}, {"type": "node", "id": 830602592, "lat": 46.6703727, "lon": 11.1636361}, {"type": "node", "id": 830602825, "lat": 46.6703642, "lon": 11.163616}, {"type": "node", "id": 830602953, "lat": 46.6704347, "lon": 11.1635272}, {"type": "node", "id": 830603225, "lat": 46.6703695, "lon": 11.1638197}, {"type": "node", "id": 830603630, "lat": 46.6703858, "lon": 11.1636255}, {"type": "node", "id": 830604117, "lat": 46.6703724, "lon": 11.1635566}, {"type": "node", "id": 830604262, "lat": 46.6703734, "lon": 11.1638214}, {"type": "node", "id": 830604517, "lat": 46.6703279, "lon": 11.1638018}, {"type": "node", "id": 830604891, "lat": 46.6703611, "lon": 11.1636085}, {"type": "node", "id": 830605196, "lat": 46.6703903, "lon": 11.1635585}, {"type": "node", "id": 831311230, "lat": 46.6708282, "lon": 11.1577374, "tags": {"amenity": "restaurant", "cuisine": "turkish", "name": "Turkish Restaurant Turco"}}, {"type": "node", "id": 831311234, "lat": 46.6707757, "lon": 11.1581146, "tags": {"addr:housenumber": "97a", "addr:street": "Freiheitsstra\u00dfe - Corso della Libert\u00e0", "amenity": "restaurant", "cuisine": "pizza", "name": "Pizzeria Principe", "opening_hours": "Tu-Su 08:30-14:30, 17:00-23:45", "phone": "+39 0473 232828", "website": "http://www.pizzeriaprincipe.com/", "wheelchair": "limited"}}, {"type": "node", "id": 831340661, "lat": 46.6707687, "lon": 11.1628457, "tags": {"addr:housenumber": "60", "addr:postcode": "39012", "addr:street": "Freiheitsstra\u00dfe - Corso della Libert\u00e0", "amenity": "restaurant", "check_date": "2024-08-25", "cuisine": "italian;regional", "email": "fb.meran@forst.it", "indoor_seating": "yes", "name": "Forsterbr\u00e4u Merano", "opening_hours": "Mo-Su 11:00-01:00", "outdoor_seating": "yes", "self_service": "no", "smoking": "separated", "website": "https://www.forsterbrau.it", "website:menu": "https://www.forsterbrau.it/das-menue/", "wheelchair": "limited"}}, {"type": "node", "id": 833477218, "lat": 46.4500774, "lon": 11.3563975}, {"type": "node", "id": 833477311, "lat": 46.450136, "lon": 11.3560594}, {"type": "node", "id": 833477596, "lat": 46.4501941, "lon": 11.3564402}, {"type": "node", "id": 833477706, "lat": 46.4502528, "lon": 11.3561021}, {"type": "node", "id": 850426775, "lat": 46.4867612, "lon": 11.3890813, "tags": {"amenity": "restaurant", "name": "Gasthaus Koflerhof", "tourism": "hotel"}}, {"type": "node", "id": 850426779, "lat": 46.4812756, "lon": 11.3839561, "tags": {"addr:city": "Bolzano - Bozen", "addr:housename": "Bad Isidor", "addr:housenumber": "31", "addr:postcode": "39100", "addr:street": "Via Campegno - Kampennerweg", "amenity": "restaurant", "cuisine": "regional", "name": "Bad St. Isidor - Bagni S. Isidoro", "name:de": "Bad St. Isidor", "name:it": "Bagni S. Isidoro"}}, {"type": "node", "id": 850631424, "lat": 46.6650803, "lon": 11.2688219, "tags": {"amenity": "restaurant", "ele": "1783", "name": "Maiser Alm", "wheelchair": "no"}}, {"type": "node", "id": 873816312, "lat": 46.4267282, "lon": 11.2361626, "tags": {"addr:housenumber": "12", "addr:postcode": "39052", "addr:street": "Kalterer H\u00f6he", "amenity": "restaurant", "name": "Kalterer H\u00f6he", "phone": "+39 0471 963 357"}}, {"type": "node", "id": 873873425, "lat": 46.4136202, "lon": 11.2460383, "tags": {"addr:city": "Kaltern an der Weinstra\u00dfe - Caldaro sulla Strada del Vino", "addr:housenumber": "32", "addr:postcode": "39052", "addr:street": "Andreas-Hofer-Stra\u00dfe - Via Andreas Hofer", "amenity": "restaurant", "brewery": "Franziskaner;Forst", "cuisine": "pizza;noodle;regional", "email": "info@zumturm-kaltern.com", "internet_access": "no", "name": "Zum Turm", "outdoor_seating": "yes", "phone": "+39 0471 96 32 81", "ref:vatin": "IT01590570212", "reservation": "no", "smoking": "outside", "takeaway": "yes", "toilets": "yes", "toilets:wheelchair": "no", "website": "https://www.zumturm-kaltern.com", "wheelchair": "limited"}}, {"type": "node", "id": 873873429, "lat": 46.4134052, "lon": 11.2458774, "tags": {"amenity": "restaurant", "cuisine": "ice_cream;pizza;italian;regional", "internet_access": "no", "name": "Mondschein", "outdoor_seating": "yes", "takeaway": "yes", "toilets:wheelchair": "no", "wheelchair": "limited"}}, {"type": "node", "id": 873873432, "lat": 46.413081, "lon": 11.2460281, "tags": {"amenity": "restaurant", "name": "Zum Wei\u00dfen R\u00f6ssl"}}, {"type": "node", "id": 873886131, "lat": 46.412368, "lon": 11.2437335, "tags": {"amenity": "restaurant", "cuisine": "pizza;regional;italian", "name": "Rottenburger Keller", "opening_hours": "Mo, We-Sa 17:00-23:00; Su 12:00-14:30, 17:00-23:00", "payment:cash": "yes", "payment:credit_cards": "yes", "payment:debit_cards": "yes", "phone": "+39 0471 962108", "website": "http://www.rottenburger.it/"}}, {"type": "node", "id": 873886133, "lat": 46.4115919, "lon": 11.2445221, "tags": {"amenity": "restaurant", "name": "Fledermaus", "toilets:wheelchair": "no", "wheelchair": "no"}}, {"type": "node", "id": 873886140, "lat": 46.4120528, "lon": 11.2463963, "tags": {"amenity": "restaurant", "contact:website": "http://www.windegg.it/", "name": "Windegg"}}, {"type": "node", "id": 878630885, "lat": 46.7402108, "lon": 11.2543925, "tags": {"addr:city": "Schenna - Scena", "addr:place": "Obertall - Talle di Sopra", "addr:postcode": "39017", "amenity": "restaurant", "contact:email": "pircher.roland@rolmail.net", "contact:mobile": "+39 349 074 6722", "ele": "1983", "name": "Resegger Alm", "opening_hours": "May-Nov: Mo-Su", "operator": "Fam. Pircher", "outdoor_seating": "yes", "source": "https://www.merano-suedtirol.it/de/passeiertal/veranstaltung/artikel/huetten-im-passeiertal-309/", "source:date": "2015-04-26", "website": "http://www.resegger-alm.com/"}}, {"type": "node", "id": 882434568, "lat": 46.569396, "lon": 11.0973207, "tags": {"alt_name": "Pfrollen", "amenity": "restaurant", "cuisine": "regional", "name": "Pfrolln"}}, {"type": "node", "id": 886193146, "lat": 46.7004635, "lon": 11.3735576, "tags": {"amenity": "restaurant", "name": "Gentersberg Alm"}}, {"type": "node", "id": 888588205, "lat": 46.6751575, "lon": 11.3686626, "tags": {"amenity": "restaurant", "name": "Messnerhof"}}, {"type": "node", "id": 890628100, "lat": 46.6914266, "lon": 11.0892662, "tags": {"amenity": "restaurant", "cuisine": "regional", "name": "Jausenstation Saxner", "opening_hours": "Mo-Su 10:00-18:00; Tu off", "outdoor_seating": "yes"}}, {"type": "node", "id": 905799756, "lat": 46.7150013, "lon": 11.2317118, "tags": {"addr:city": "Schenna - Scena", "addr:city:de": "Schenna", "addr:city:it": "Scena", "addr:housenumber": "6", "addr:place": "Schennaberg - Montescena", "addr:place:de": "Schennaberg", "addr:place:it": "Montescena", "addr:postcode": "39017", "addr:street": "Verdins", "amenity": "restaurant", "cuisine": "regional", "ele": "1130", "internet_access": "no", "name": "Waalerh\u00fctte", "opening_hours": "Mo-Th, Sa, Su 10:00-18:00", "phone": "+39 0473 949599", "website": "https://www.merano-suedtirol.it/de/schenna/essen-trinken/suedtiroler-kueche/huetten/rid-39C6C44F59FA11D3BBFD00805A12E56D-g-waalerhuette.html"}}, {"type": "node", "id": 906715412, "lat": 46.5001719, "lon": 11.1656232}, {"type": "node", "id": 906715419, "lat": 46.5001508, "lon": 11.1658397}, {"type": "node", "id": 906715435, "lat": 46.4999071, "lon": 11.162407}, {"type": "node", "id": 906715464, "lat": 46.5001423, "lon": 11.1656565}, {"type": "node", "id": 906715496, "lat": 46.5002361, "lon": 11.1657438}, {"type": "node", "id": 906715570, "lat": 46.5000896, "lon": 11.1657249}, {"type": "node", "id": 906715578, "lat": 46.4999287, "lon": 11.1623392}, {"type": "node", "id": 906715699, "lat": 46.5000834, "lon": 11.1657319}, {"type": "node", "id": 906715737, "lat": 46.4997825, "lon": 11.1623236}, {"type": "node", "id": 906715760, "lat": 46.5000631, "lon": 11.1655079}, {"type": "node", "id": 906715794, "lat": 46.4998427, "lon": 11.1621339}, {"type": "node", "id": 906715820, "lat": 46.5000012, "lon": 11.1655775}, {"type": "node", "id": 907036067, "lat": 46.6951657, "lon": 11.2418139, "tags": {"addr:city": "Schenna - Scena", "addr:postcode": "39017", "amenity": "restaurant", "cuisine": "regional", "ele": "1865", "email": "kufasurf@yahoo.it", "name": "Leitenalm", "opening_hours": "Mo-Su 11:00-18:00", "phone": "+39 333 9051465"}}, {"type": "node", "id": 916692382, "lat": 46.6371916, "lon": 11.1273754, "tags": {"amenity": "restaurant", "contact:email": "hoferstief@hotmail.de", "contact:mobile": "+39 339 7973646", "contact:phone": "+39 0473 562362", "cuisine": "regional", "ele": "815", "name": "Jausenstation Hofer-Hof - Ristoro Hofer-Hof", "name:de": "Jausenstation Hofer-Hof", "name:it": "Ristoro Hofer-Hof", "opening_hours": "Tu-Su; Mo off", "operator": "Fam. Schwienbacher", "source": "Unterkunftsverzeichnis Marling  2023, S. 40, schriftliche Erlaubnis des Tourismusvereins Marling vom 2016-08-16 f\u00fcr die Verwendung der Daten f\u00fcr OSM;https://www.merano-suedtirol.it/it/lana-e-dintorni/vacanze-in-montagna/camminate-escursioni/escursioni/esc", "source:date": "2022-12-11", "website": "http://hoferhof.bz.it/"}}, {"type": "node", "id": 918006283, "lat": 46.691066, "lon": 11.1521468, "tags": {"addr:city": "Tirol - Tirolo", "addr:city:de": "Tirol", "addr:city:it": "Tirolo", "addr:postcode": "39019", "addr:street": "Schlossweg - Via del Castello", "addr:street:de": "Schlossweg", "addr:street:it": "Via del Castello", "amenity": "restaurant", "cuisine": "regional", "name": "Gasthof Furggerhof", "opening_hours": "Tu off", "outdoor_seating": "yes"}}, {"type": "node", "id": 918006323, "lat": 46.6909433, "lon": 11.1526564, "tags": {"addr:city": "Tirol - Tirolo", "addr:city:de": "Tirol", "addr:city:it": "Tirolo", "addr:postcode": "39019", "addr:street": "Schlossweg - Via del Castello", "addr:street:de": "Schlossweg", "addr:street:it": "Via del Castello", "amenity": "restaurant", "name": "Sonne", "outdoor_seating": "yes"}}, {"type": "node", "id": 920624291, "lat": 46.7381066, "lon": 11.2470015, "tags": {"amenity": "restaurant", "check_date": "2023-07-04", "contact:email": "klammeben@schenna.com", "contact:mobile": "+39 338 753 5652", "contact:phone": "+39 0473 949 422", "cuisine": "regional", "ele": "1976", "name": "Gasthaus Klammeben", "opening_hours": "Apr 01-Nov 01 08:30-18:30", "outdoor_seating": "yes", "source": "https://www.merano-suedtirol.it/de/schenna/betrieb/klammeben-gasthof-113/"}}, {"type": "node", "id": 930619186, "lat": 46.6954266, "lon": 11.1102697, "tags": {"amenity": "restaurant", "cuisine": "regional", "name": "Buschenschank Gruberhof", "opening_hours": "Mo-Su 11:00-18:00; Sa off", "opening_hours:kitchen": "Mo-Su 11:30-17:30; Sa off", "outdoor_seating": "yes"}}, {"type": "node", "id": 936119791, "lat": 46.6414152, "lon": 11.2329895, "tags": {"addr:city": "Hafling - Avelengo", "addr:city:de": "Hafling", "addr:city:it": "Avelengo", "addr:housenumber": "14", "addr:postcode": "39010", "addr:street": "Hinterdorferweg", "addr:street:de": "Hinterdorferweg", "addr:street:it": "Via Hinterdorf", "amenity": "restaurant", "name": "Avelina", "tourism": "hotel", "website": "https://www.hotel-avelina.com/"}}, {"type": "node", "id": 936123407, "lat": 46.6969241, "lon": 11.1958826, "tags": {"amenity": "restaurant", "cuisine": "regional", "name": "Gasthof Tiefenbrunn"}}, {"type": "node", "id": 939515620, "lat": 46.4226889, "lon": 11.286534}, {"type": "node", "id": 939515625, "lat": 46.422933, "lon": 11.2867593}, {"type": "node", "id": 939515630, "lat": 46.4227629, "lon": 11.2871884}, {"type": "node", "id": 939515633, "lat": 46.4226372, "lon": 11.2870919}, {"type": "node", "id": 939515635, "lat": 46.4227481, "lon": 11.2868129}, {"type": "node", "id": 939515637, "lat": 46.4226224, "lon": 11.2866734}, {"type": "node", "id": 964868305, "lat": 46.4975013, "lon": 11.3504741, "tags": {"addr:city": "Bolzano - Bozen", "addr:housenumber": "3", "addr:postcode": "39100", "addr:street": "Largo Adolph Kolping - Adolph-Kolping-Stra\u00dfe", "amenity": "restaurant", "diet:meat": "yes", "diet:vegetarian": "yes", "name": "Kolpinghaus Bozen", "name:de": "Kolpinghaus Bozen", "ref:vatin": "IT00475280210", "website": "https://www.kolping.it/", "wheelchair": "limited"}}, {"type": "node", "id": 965152106, "lat": 46.6689734, "lon": 11.1731942, "tags": {"amenity": "restaurant", "name": "Kolpinghaus Meran", "wheelchair": "yes"}}, {"type": "node", "id": 966853355, "lat": 46.6967622, "lon": 11.221741, "tags": {"amenity": "restaurant", "name": "Schnugger"}}, {"type": "node", "id": 966853357, "lat": 46.6943985, "lon": 11.2256426, "tags": {"amenity": "restaurant", "ele": "1516", "name": "Gasthaus Egger"}}, {"type": "node", "id": 1005861217, "lat": 46.6096981, "lon": 11.1853446, "tags": {"amenity": "restaurant", "email": "info@etschgrund.com", "fax": "+39 0473 290711", "name": "Etschgrund", "opening_hours": "Mo-Fr 07:00-14:00,17:30-22:00", "operator": "Familie Helga Erb", "phone": "+39 0473 292410", "website": "https://www.etschgrund.com/"}}, {"type": "node", "id": 1005926467, "lat": 46.6607476, "lon": 11.1587031, "tags": {"amenity": "restaurant", "fax": "+39 0473 275287", "name": "Lalessandra", "phone": "+39 0473 236278"}}, {"type": "node", "id": 1007816981, "lat": 46.4973653, "lon": 11.3671988, "tags": {"addr:city": "Bolzano - Bozen", "addr:city:de": "Bozen", "addr:city:it": "Bolzano", "addr:housenumber": "9a", "addr:postcode": "39100", "addr:street": "Via del Macello - Schlachthofstra\u00dfe", "addr:street:de": "Schlachthofstra\u00dfe", "addr:street:it": "Via del Macello", "amenity": "restaurant", "email": "alma9bolzano@gmail.com", "name": "Alma9", "opening_hours": "12:00-14:00, 19:00-22:00", "phone": "+39 0471 1532189", "ref:vatin": "IT02786010211", "website": "https://alma9.com/", "wheelchair": "limited"}}, {"type": "node", "id": 1007872249, "lat": 46.5162579, "lon": 11.4070498, "tags": {"amenity": "restaurant", "cuisine": "buschenschank", "name": "Kinighof", "website": "https://www.hof-kinig.it/"}}, {"type": "node", "id": 1007872253, "lat": 46.508208, "lon": 11.3987726, "tags": {"amenity": "restaurant", "name": "Signater", "name:de": "Signater Hof", "name:it": "Signater", "place": "farm"}}, {"type": "node", "id": 1030163833, "lat": 46.6254815, "lon": 11.139408}, {"type": "node", "id": 1030164066, "lat": 46.625526, "lon": 11.1393291}, {"type": "node", "id": 1030164293, "lat": 46.6254019, "lon": 11.1391805}, {"type": "node", "id": 1030164678, "lat": 46.6253573, "lon": 11.1392594}, {"type": "node", "id": 1081842770, "lat": 46.5021188, "lon": 11.3346799, "tags": {"amenity": "restaurant", "bar": "yes", "check_date": "2022-10-11", "cuisine": "regional", "email": "info@hotel-post-gries.com", "internet_access": "wlan", "internet_access:fee": "customers", "name": "Post Gries", "outdoor_seating": "yes", "payment:contactless": "yes", "payment:credit_cards": "yes", "payment:debit_cards": "yes", "phone": "+39 0471 279000", "reservation": "yes", "smoking": "outside", "website": "https://www.hotel-post-gries.com/de/restaurant.asp", "wheelchair": "yes"}}, {"type": "node", "id": 1102976089, "lat": 46.4999059, "lon": 11.3364523, "tags": {"amenity": "restaurant", "cuisine": "pizza;italian;fish", "level": "0", "name": "Pizzeria Il Giardinetto", "opening_hours": "Mo,We-Su 12:00-14:30,18:30-23:00", "opening_hours:kitchen": "Mo,We-Su 12:00-14:00,18:30-22:00", "outdoor_seating": "yes", "takeaway": "yes", "toilets": "yes"}}, {"type": "node", "id": 1105624891, "lat": 46.4188669, "lon": 11.2508526, "tags": {"amenity": "restaurant", "name": "Restaurant Herrnhof"}}, {"type": "node", "id": 1129436785, "lat": 46.5003639, "lon": 11.351603, "tags": {"amenity": "restaurant", "cuisine": "chinese", "name": "Dragone d'Oro"}}, {"type": "node", "id": 1132368758, "lat": 46.4987095, "lon": 11.355308, "tags": {"addr:city": "Bolzano - Bozen", "addr:city:de": "Bozen", "addr:city:it": "Bolzano", "addr:housenumber": "1a", "addr:postcode": "39100", "addr:street": "Piazza Walther - Waltherplatz", "amenity": "restaurant", "changing_table": "yes", "check_date": "2023-11-26", "name": "Bar/Restaurant/Konditorei Aida", "opening_hours": "Mo-Su 07:30-23:00", "source": "visit"}}, {"type": "node", "id": 1150945340, "lat": 46.6496418, "lon": 10.9659863}, {"type": "node", "id": 1150945376, "lat": 46.6497415, "lon": 10.9658916}, {"type": "node", "id": 1150945408, "lat": 46.6496706, "lon": 10.9657332}, {"type": "node", "id": 1150945410, "lat": 46.6515142, "lon": 10.9661267}, {"type": "node", "id": 1150945450, "lat": 46.6515266, "lon": 10.9663433}, {"type": "node", "id": 1150945486, "lat": 46.651645, "lon": 10.966329}, {"type": "node", "id": 1150945515, "lat": 46.6516327, "lon": 10.9661124}, {"type": "node", "id": 1150945519, "lat": 46.6495709, "lon": 10.9658279}, {"type": "node", "id": 1151745707, "lat": 46.6518946, "lon": 10.9691253}, {"type": "node", "id": 1151746062, "lat": 46.6520545, "lon": 10.9692699}, {"type": "node", "id": 1151746077, "lat": 46.6520593, "lon": 10.969138}, {"type": "node", "id": 1151746467, "lat": 46.6518899, "lon": 10.9692572}, {"type": "node", "id": 1178006834, "lat": 46.5038623, "lon": 11.2280172, "tags": {"amenity": "restaurant", "check_date": "2025-11-22", "indoor_seating": "yes", "name": "Gasthof Lipp", "opening_hours": "Tu-Su", "outdoor_seating": "yes", "phone": "+390471662517", "website": "https://www.lipp.it/"}}, {"type": "node", "id": 1222907615, "lat": 46.4567048, "lon": 11.2589004}, {"type": "node", "id": 1222907833, "lat": 46.4567211, "lon": 11.2587951}, {"type": "node", "id": 1222908301, "lat": 46.4565923, "lon": 11.258904}, {"type": "node", "id": 1224090242, "lat": 46.4607929, "lon": 11.2490374}, {"type": "node", "id": 1224090448, "lat": 46.4607825, "lon": 11.2486831}, {"type": "node", "id": 1224090923, "lat": 46.4606588, "lon": 11.2486908}, {"type": "node", "id": 1224091584, "lat": 46.4606692, "lon": 11.249045}, {"type": "node", "id": 1227853519, "lat": 46.4427398, "lon": 11.2761864}, {"type": "node", "id": 1227853648, "lat": 46.4428706, "lon": 11.2764806}, {"type": "node", "id": 1227854014, "lat": 46.4429165, "lon": 11.2762661}, {"type": "node", "id": 1227854286, "lat": 46.4426939, "lon": 11.2764009}, {"type": "node", "id": 1234645013, "lat": 46.4488689, "lon": 11.2876485}, {"type": "node", "id": 1234645610, "lat": 46.4490828, "lon": 11.287739}, {"type": "node", "id": 1234646074, "lat": 46.4488309, "lon": 11.2878377}, {"type": "node", "id": 1234646231, "lat": 46.4490448, "lon": 11.2879282}, {"type": "node", "id": 1235170889, "lat": 46.4643794, "lon": 11.2798877}, {"type": "node", "id": 1235170932, "lat": 46.4645283, "lon": 11.2799275}, {"type": "node", "id": 1235172784, "lat": 46.4643625, "lon": 11.2795529}, {"type": "node", "id": 1235173962, "lat": 46.4644099, "lon": 11.2799401}, {"type": "node", "id": 1235174365, "lat": 46.4645087, "lon": 11.2795374}, {"type": "node", "id": 1235174913, "lat": 46.4643821, "lon": 11.279943}, {"type": "node", "id": 1241717630, "lat": 46.4890116, "lon": 11.2616225}, {"type": "node", "id": 1241717680, "lat": 46.4828307, "lon": 11.2630974}, {"type": "node", "id": 1241717947, "lat": 46.4890411, "lon": 11.2617125}, {"type": "node", "id": 1241718044, "lat": 46.488854, "lon": 11.2614748}, {"type": "node", "id": 1241718142, "lat": 46.4888277, "lon": 11.2613946}, {"type": "node", "id": 1241718228, "lat": 46.4890274, "lon": 11.2614644}, {"type": "node", "id": 1241718289, "lat": 46.4829736, "lon": 11.2632605}, {"type": "node", "id": 1241718388, "lat": 46.4890667, "lon": 11.2615843}, {"type": "node", "id": 1241718446, "lat": 46.4828378, "lon": 11.2632722}, {"type": "node", "id": 1241718546, "lat": 46.4887946, "lon": 11.2616782}, {"type": "node", "id": 1241718875, "lat": 46.4831268, "lon": 11.2634612}, {"type": "node", "id": 1241718947, "lat": 46.4887512, "lon": 11.2615459}, {"type": "node", "id": 1241718966, "lat": 46.4889718, "lon": 11.2612949}, {"type": "node", "id": 1241719150, "lat": 46.4829823, "lon": 11.2634737}, {"type": "node", "id": 1241719193, "lat": 46.4889126, "lon": 11.2618014}, {"type": "node", "id": 1241719291, "lat": 46.4888578, "lon": 11.2616345}, {"type": "node", "id": 1256613681, "lat": 46.6867139, "lon": 11.1331826, "tags": {"addr:city:de": "Algund", "addr:city:it": "Lagundo", "addr:country": "IT", "addr:hamlet": "Dorf - Paese", "addr:hamlet:de": "Dorf", "addr:hamlet:it": "Paese", "addr:housenumber": "1", "addr:street": "St.-Kassian-Stra\u00dfe", "addr:street:de": "St.-Kassian-Weg", "addr:street:it": "Via S. Cassiano", "amenity": "restaurant", "email": "info@ruster.it", "fax": "+39 0473 440267", "name": "Ruster - Restaurant", "opening_hours": "Mo-Su 12:00-15:00, 18:00-23:00; Su 11:00-23:00", "phone": "+39 0473 220202", "toilets:wheelchair": "no", "website": "https://www.ruster.it/", "wheelchair": "limited"}}, {"type": "node", "id": 1268573960, "lat": 46.6901114, "lon": 11.199522, "tags": {"addr:housenumber": "19", "addr:street": "Pichlerstra\u00dfe", "amenity": "restaurant", "contact:email": "info@cafeamwaal.it", "contact:fax": "+39 0473 945 842", "contact:phone": "+39 0473 945 842", "cuisine": "regional", "ele": "750", "name": "Jausenstation Cafe Am Waal", "opening_hours": "Mo-Fr, Su 09:00-18:00", "operator": "Fam. Josef Kr\u00f6ll", "outdoor_seating": "yes", "phone": "+393382852984", "source": "Schenna Unterkunftsverzeichnis 2015, S. 57", "website": "http://www.cafeamwaal.it"}}, {"type": "node", "id": 1301805873, "lat": 46.4544944, "lon": 11.1086167}, {"type": "node", "id": 1301805889, "lat": 46.4544079, "lon": 11.1082847}, {"type": "node", "id": 1302029936, "lat": 46.4413481, "lon": 11.179815}, {"type": "node", "id": 1302030429, "lat": 46.4412079, "lon": 11.179851}, {"type": "node", "id": 1302030490, "lat": 46.4418552, "lon": 11.1752414}, {"type": "node", "id": 1302030810, "lat": 46.4420579, "lon": 11.1752506}, {"type": "node", "id": 1302030860, "lat": 46.4413779, "lon": 11.1800592}, {"type": "node", "id": 1302031168, "lat": 46.4420626, "lon": 11.1750349}, {"type": "node", "id": 1302031287, "lat": 46.4418598, "lon": 11.1750257}, {"type": "node", "id": 1302031695, "lat": 46.4412378, "lon": 11.1800953}, {"type": "node", "id": 1314456486, "lat": 46.6956333, "lon": 11.0566903, "tags": {"amenity": "restaurant", "contact:phone": "+39 0473 967454", "cuisine": "regional", "ele": "1196", "name": "Pr\u00fcnster", "opening_hours": "Mo-Su 09:00-21:00; Fr off", "opening_hours:kitchen": "Mo-Su 12:00-20:00; Fr off", "outdoor_seating": "yes"}}, {"type": "node", "id": 1314638887, "lat": 46.5850442, "lon": 11.2817087}, {"type": "node", "id": 1314638889, "lat": 46.5850905, "lon": 11.2814684}, {"type": "node", "id": 1314638896, "lat": 46.5851483, "lon": 11.2815474}, {"type": "node", "id": 1314751579, "lat": 46.6237537, "lon": 11.298951}, {"type": "node", "id": 1314751589, "lat": 46.6237225, "lon": 11.2992017}, {"type": "node", "id": 1314751593, "lat": 46.623815, "lon": 11.2991296}, {"type": "node", "id": 1314751643, "lat": 46.6236537, "lon": 11.2990238}, {"type": "node", "id": 1316576564, "lat": 46.5519963, "lon": 11.1492185}, {"type": "node", "id": 1316576787, "lat": 46.5520755, "lon": 11.1493443}, {"type": "node", "id": 1316577005, "lat": 46.5519538, "lon": 11.1494877}, {"type": "node", "id": 1318912138, "lat": 46.5481812, "lon": 11.1315098}, {"type": "node", "id": 1318912416, "lat": 46.5481102, "lon": 11.1316495}, {"type": "node", "id": 1318912481, "lat": 46.538769, "lon": 11.1270871}, {"type": "node", "id": 1318912553, "lat": 46.5479941, "lon": 11.1315248}, {"type": "node", "id": 1318912621, "lat": 46.5387601, "lon": 11.1273433}, {"type": "node", "id": 1318912671, "lat": 46.5480651, "lon": 11.1313851}, {"type": "node", "id": 1318912672, "lat": 46.5385851, "lon": 11.1270737}, {"type": "node", "id": 1318912717, "lat": 46.5385762, "lon": 11.1273299}, {"type": "node", "id": 1318912780, "lat": 46.551881, "lon": 11.149372}, {"type": "node", "id": 1319380834, "lat": 46.5108148, "lon": 11.1095392}, {"type": "node", "id": 1319380897, "lat": 46.5113372, "lon": 11.1094332}, {"type": "node", "id": 1319380944, "lat": 46.5301955, "lon": 11.1124387}, {"type": "node", "id": 1319381084, "lat": 46.5071959, "lon": 11.1059887}, {"type": "node", "id": 1319381156, "lat": 46.4758562, "lon": 11.1060195}, {"type": "node", "id": 1319381218, "lat": 46.5108042, "lon": 11.1097625}, {"type": "node", "id": 1319381299, "lat": 46.5073641, "lon": 11.1060407}, {"type": "node", "id": 1319381306, "lat": 46.5116671, "lon": 11.1097229}, {"type": "node", "id": 1319381445, "lat": 46.4756954, "lon": 11.1057748}, {"type": "node", "id": 1319381533, "lat": 46.5106312, "lon": 11.1095807}, {"type": "node", "id": 1319381599, "lat": 46.5116868, "lon": 11.1094979}, {"type": "node", "id": 1319381667, "lat": 46.5300689, "lon": 11.1123675}, {"type": "node", "id": 1319381932, "lat": 46.5113175, "lon": 11.1096581}, {"type": "node", "id": 1319382007, "lat": 46.5302431, "lon": 11.1122601}, {"type": "node", "id": 1319382229, "lat": 46.5072241, "lon": 11.1061096}, {"type": "node", "id": 1319382412, "lat": 46.4757145, "lon": 11.105948}, {"type": "node", "id": 1319382533, "lat": 46.51063, "lon": 11.1097845}, {"type": "node", "id": 1319382756, "lat": 46.5301165, "lon": 11.1121889}, {"type": "node", "id": 1319382891, "lat": 46.4758044, "lon": 11.1057495}, {"type": "node", "id": 1322473974, "lat": 46.58051, "lon": 11.0550513}, {"type": "node", "id": 1322473976, "lat": 46.5803354, "lon": 11.055156}, {"type": "node", "id": 1322473977, "lat": 46.5803997, "lon": 11.0549704}, {"type": "node", "id": 1322473984, "lat": 46.5804457, "lon": 11.0552369}, {"type": "node", "id": 1332188347, "lat": 46.5860695, "lon": 11.0871767, "tags": {"addr:city": "St. Pankraz - San Pancrazio", "addr:city:de": "St. Pankraz", "addr:city:it": "San Pancrazio", "addr:housenumber": "31", "addr:postcode": "39010", "addr:street": "D\u00f6rfl", "amenity": "restaurant", "cuisine": "pizza", "name": "Turm", "phone": "+39 0473 785044"}}, {"type": "node", "id": 1339603536, "lat": 46.4942134, "lon": 11.3911094}, {"type": "node", "id": 1339603541, "lat": 46.4943089, "lon": 11.3908603}, {"type": "node", "id": 1339603545, "lat": 46.4943234, "lon": 11.3911983}, {"type": "node", "id": 1339603559, "lat": 46.4944178, "lon": 11.390949}, {"type": "node", "id": 1347066802, "lat": 46.4130772, "lon": 11.378941, "tags": {"amenity": "restaurant", "cuisine": "regional", "name": "Schwabhof"}}, {"type": "node", "id": 1353689631, "lat": 46.4327898, "lon": 11.0871913}, {"type": "node", "id": 1353689638, "lat": 46.4328476, "lon": 11.0872924}, {"type": "node", "id": 1353689641, "lat": 46.4328735, "lon": 11.0870906}, {"type": "node", "id": 1353689646, "lat": 46.4329313, "lon": 11.0871917}, {"type": "node", "id": 1364397652, "lat": 46.6024466, "lon": 10.9174136}, {"type": "node", "id": 1364397855, "lat": 46.6024645, "lon": 10.917767}, {"type": "node", "id": 1364397858, "lat": 46.6023671, "lon": 10.9174314}, {"type": "node", "id": 1364397863, "lat": 46.6024042, "lon": 10.9177806}, {"type": "node", "id": 1369451887, "lat": 46.6943881, "lon": 11.2393633}, {"type": "node", "id": 1369451888, "lat": 46.6945145, "lon": 11.2392725}, {"type": "node", "id": 1369451889, "lat": 46.6945575, "lon": 11.2395241}, {"type": "node", "id": 1369451890, "lat": 46.6946236, "lon": 11.239376}, {"type": "node", "id": 1370440487, "lat": 46.6880496, "lon": 11.209269, "tags": {"addr:city": "Schenna - Scena", "addr:housenumber": "17", "addr:postcode": "39017", "addr:street": "Bergerweg", "amenity": "restaurant", "cuisine": "regional", "ele": "1100", "email": "johann.thaler2@gmail.com", "label": "Roter Hahn", "name": "Zmailer Hof", "note": "G\u00fctesiegel Roter Hahn", "opening_hours": "Apr-Oct Mo-Sa, 11:30-16:15; Fr closed", "outdoor_seating": "yes", "phone": "+39 0473 945881", "toilets": "yes", "website": "https://www.facebook.com/profile.php?id=100057267407606"}}, {"type": "node", "id": 1370491067, "lat": 46.6848008, "lon": 11.2049087, "tags": {"addr:city": "Schenna - Scena", "addr:housenumber": "54", "addr:place": "Rastlhof", "addr:postcode": "39017", "addr:street": "St. Georgenstrasse", "amenity": "restaurant", "bar": "yes", "check_date": "2024-08-13", "cuisine": "regional", "ele": "910", "email": "info@rastlhof.com", "internet_access": "wlan", "internet_access:fee": "no", "level": "0", "mobile": "+393334249709", "name": "Gasthof Rastlhof", "opening_hours": "Di-So 08:00-23:00", "outdoor_seating": "yes", "phone": "+390473945657", "smoking": "outside", "stars": "3", "takeaway": "no", "toilets": "yes", "toilets:access": "customers", "toilets:wheelchair": "no", "website": "https://rastlhof.com/", "wheelchair": "limited"}}, {"type": "node", "id": 1373228188, "lat": 46.411372, "lon": 10.9571101}, {"type": "node", "id": 1373228294, "lat": 46.4114327, "lon": 10.9571198}, {"type": "node", "id": 1373228296, "lat": 46.4113984, "lon": 10.9567646}, {"type": "node", "id": 1373228313, "lat": 46.4114352, "lon": 10.9570869}, {"type": "node", "id": 1373228389, "lat": 46.4114922, "lon": 10.9568213}, {"type": "node", "id": 1373228436, "lat": 46.4114954, "lon": 10.9567801}, {"type": "node", "id": 1373228457, "lat": 46.4115247, "lon": 10.9571012}, {"type": "node", "id": 1373228477, "lat": 46.4115454, "lon": 10.9568299}, {"type": "node", "id": 1373237402, "lat": 46.4248145, "lon": 10.9044107}, {"type": "node", "id": 1373237404, "lat": 46.4248191, "lon": 10.9045752}, {"type": "node", "id": 1373237418, "lat": 46.4249255, "lon": 10.9044042}, {"type": "node", "id": 1373237422, "lat": 46.42493, "lon": 10.9045688}, {"type": "node", "id": 1374155194, "lat": 46.7082158, "lon": 11.2135934}, {"type": "node", "id": 1374155195, "lat": 46.7081847, "lon": 11.2136954}, {"type": "node", "id": 1374155208, "lat": 46.7083011, "lon": 11.2135151}, {"type": "node", "id": 1374155209, "lat": 46.7083126, "lon": 11.2136758}, {"type": "node", "id": 1383440261, "lat": 46.7063318, "lon": 11.2096951, "tags": {"amenity": "restaurant", "cuisine": "regional", "name": "Vallplatzerhof"}}, {"type": "node", "id": 1387845474, "lat": 46.7108653, "lon": 11.1380356}, {"type": "node", "id": 1387845479, "lat": 46.7110004, "lon": 11.1381391}, {"type": "node", "id": 1387845482, "lat": 46.7110677, "lon": 11.1379524}, {"type": "node", "id": 1387863240, "lat": 46.7060537, "lon": 11.1112467, "tags": {"addr:city": "Algund - Lagundo", "addr:city:de": "Algund", "addr:city:it": "Lagundo", "addr:country": "IT", "addr:postcode": "39022", "amenity": "restaurant", "contact:email": "info@leiteralm.com", "contact:mobile": "+39 338 3172484", "contact:website": "http://www.leiteralm.com/", "disused:beds": "16", "disused:tourism": "alpine_hut", "ele": "1550", "name": "Leiteralm - Malga Leiter", "name:de": "Leiteralm", "name:it": "Malga Leiter", "opening_hours": "Mar-Nov", "opening_hours:alpine_hut": "Jun-Aug", "outdoor_seating": "terrace", "source": "http://www.leiteralm.com/", "source:date": "2017-01-10"}}, {"type": "node", "id": 1390048018, "lat": 46.6954065, "lon": 11.109461, "tags": {"amenity": "restaurant", "cuisine": "regional", "name": "Gasthaus Gasteiger", "outdoor_seating": "yes"}}, {"type": "node", "id": 1399910371, "lat": 46.5063727, "lon": 11.4098109}, {"type": "node", "id": 1399910372, "lat": 46.5063841, "lon": 11.4099577}, {"type": "node", "id": 1399910380, "lat": 46.5064812, "lon": 11.4097975}, {"type": "node", "id": 1399910383, "lat": 46.5064894, "lon": 11.4099435}, {"type": "node", "id": 1400437569, "lat": 46.4966585, "lon": 11.3547138, "tags": {"addr:city": "Bolzano - Bozen", "addr:housenumber": "24", "addr:postcode": "39100", "addr:street": "Via Alto Adige - S\u00fcdtiroler Stra\u00dfe", "amenity": "restaurant", "cuisine": "kebab;pizza", "name": "PizzaPazza Kebab", "opening_hours": "Mo-Su 11:00-23:00", "phone": "+39 0471 1811191", "ref:vatin": "IT02664150212", "wheelchair": "limited"}}, {"type": "node", "id": 1401538696, "lat": 46.4973958, "lon": 11.34815, "tags": {"addr:housenumber": "3", "addr:postcode": "39100", "addr:street": "Piazza Piero Siena - Piero-Siena-Platz", "amenity": "restaurant", "changing_table": "yes", "cuisine": "regional", "email": "info@cafe-museion.com", "fax": "+39 0471 223412", "indoor_seating": "yes", "mobile": "+39 333 4068762", "name": "Caf\u00e9 Museion", "outdoor_seating": "yes", "phone": "+39 0471 1684479", "toilets:wheelchair": "yes", "website": "https://www.museion.it/cafe-museion/", "wheelchair": "yes"}}, {"type": "node", "id": 1411113086, "lat": 46.5827475, "lon": 11.1460586, "tags": {"amenity": "restaurant", "cuisine": "regional", "name": "Obertalmuehle", "outdoor_seating": "yes"}}, {"type": "node", "id": 1419150581, "lat": 46.5190962, "lon": 11.0771035}, {"type": "node", "id": 1419150582, "lat": 46.5191191, "lon": 11.0772605}, {"type": "node", "id": 1419150583, "lat": 46.5192241, "lon": 11.0770641}, {"type": "node", "id": 1419150584, "lat": 46.519247, "lon": 11.0772211}, {"type": "node", "id": 1419150636, "lat": 46.5219748, "lon": 11.0929907}, {"type": "node", "id": 1419150637, "lat": 46.5219788, "lon": 11.0931397}, {"type": "node", "id": 1419150638, "lat": 46.5220993, "lon": 11.0929837}, {"type": "node", "id": 1419150639, "lat": 46.5221032, "lon": 11.0931327}, {"type": "node", "id": 1420235870, "lat": 46.655015, "lon": 11.0049144}, {"type": "node", "id": 1420235871, "lat": 46.6550885, "lon": 11.0047205}, {"type": "node", "id": 1420235873, "lat": 46.6551128, "lon": 11.0048835}, {"type": "node", "id": 1420509509, "lat": 46.4815909, "lon": 11.4096562}, {"type": "node", "id": 1420509510, "lat": 46.4816606, "lon": 11.4095468}, {"type": "node", "id": 1420509513, "lat": 46.4817206, "lon": 11.4098304}, {"type": "node", "id": 1420509517, "lat": 46.4817903, "lon": 11.4097211}, {"type": "node", "id": 1421494942, "lat": 46.4784548, "lon": 11.411934, "tags": {"amenity": "restaurant", "name": "Gasthaus Brunner"}}, {"type": "node", "id": 1425524811, "lat": 46.5016608, "lon": 11.3578732, "tags": {"addr:housenumber": "8", "addr:postcode": "39100", "addr:street": "Vicolo Ca' De Bezzi - Batzenh\u00e4uslgasse", "addr:street:de": "Batzenh\u00e4uslgasse", "addr:street:it": "Vicolo Ca' De Bezzi", "air_conditioning": "no", "amenity": "restaurant", "brewery": "various", "check_date": "2025-08-10", "cuisine": "italian", "diet:vegetarian": "yes", "name": "Pizzeria Amade'", "outdoor_seating": "yes", "payment:cash": "yes", "payment:credit_cards": "yes", "payment:debit_cards": "yes", "phone": "+39 0471 300105", "smoking": "outside", "takeaway": "yes", "toilets": "yes", "toilets:menstrual_products": "no", "toilets:wheelchair": "limited", "wheelchair": "limited"}}, {"type": "node", "id": 1427344449, "lat": 46.5015012, "lon": 11.3567072, "tags": {"addr:housenumber": "6", "addr:postcode": "39100", "addr:street": "Piazzetta Maria Delago - Maria-Delago-Platz", "addr:street:de": "Maria-Delago-Platz", "addr:street:it": "Piazzetta Maria Delago", "amenity": "restaurant", "contact:email": "info@pims-burger.com", "contact:facebook": "https://www.facebook.com/pims.burger", "contact:instagram": "https://www.instagram.com/pims_bozen/", "contact:mobile": "+39 331 7027506", "contact:website": "https://www.pims-burger.com", "name": "pims", "operator": "Pims GmbH - Pims srl", "ref:vatin": "IT02897410219"}}, {"type": "node", "id": 1429307457, "lat": 46.5359733, "lon": 11.245387}, {"type": "node", "id": 1429307458, "lat": 46.5357316, "lon": 11.2454938}, {"type": "node", "id": 1429307459, "lat": 46.5356838, "lon": 11.2452653}, {"type": "node", "id": 1429307460, "lat": 46.5359254, "lon": 11.2451584}, {"type": "node", "id": 1435797493, "lat": 46.5021357, "lon": 11.033201}, {"type": "node", "id": 1450335405, "lat": 46.5443558, "lon": 11.257008}, {"type": "node", "id": 1450335407, "lat": 46.544379, "lon": 11.2568773}, {"type": "node", "id": 1450335410, "lat": 46.5444354, "lon": 11.2568985}, {"type": "node", "id": 1450335411, "lat": 46.5444542, "lon": 11.2567922}, {"type": "node", "id": 1450335412, "lat": 46.5444609, "lon": 11.2570475}, {"type": "node", "id": 1450335419, "lat": 46.5444713, "lon": 11.2569893}, {"type": "node", "id": 1450335425, "lat": 46.5445408, "lon": 11.2570154}, {"type": "node", "id": 1450335426, "lat": 46.5445725, "lon": 11.2568366}, {"type": "node", "id": 1460508966, "lat": 46.5117281, "lon": 11.3148938}, {"type": "node", "id": 1460508969, "lat": 46.5115773, "lon": 11.3147998}, {"type": "node", "id": 1460508970, "lat": 46.5116267, "lon": 11.3146327}, {"type": "node", "id": 1460508971, "lat": 46.5117775, "lon": 11.3147267}, {"type": "node", "id": 1475087864, "lat": 46.673047, "lon": 11.0532551, "tags": {"amenity": "restaurant", "check_date": "2025-10-08", "name": "Gasthaus Happichl", "opening_hours": "Mo-Tu off; We-Su 11:00-22:00", "toilets:wheelchair": "yes", "website": "http://www.happichl.it/", "wheelchair": "yes"}}, {"type": "node", "id": 1483853893, "lat": 46.4927027, "lon": 11.4028485, "tags": {"amenity": "restaurant", "name": "Ottenkellerhof", "website": "https://ottenkeller.com/hotel-ottenkellerhof/"}}, {"type": "node", "id": 1596081640, "lat": 46.4866627, "lon": 11.3210579, "tags": {"amenity": "restaurant", "name": "Rosticceria La Rustica"}}, {"type": "node", "id": 1597395058, "lat": 46.6427092, "lon": 11.356782, "tags": {"amenity": "restaurant", "cuisine": "international", "name": "Braunwirt"}}, {"type": "node", "id": 1597397087, "lat": 46.6431104, "lon": 11.3576164, "tags": {"amenity": "restaurant", "cuisine": "international", "name": "H\u00f6llriegl"}}, {"type": "node", "id": 1609416984, "lat": 46.6553282, "lon": 11.140917, "tags": {"amenity": "restaurant", "contact:phone": "+39 0473 447216", "cuisine": "international", "name": "Traubenwirt - Restaurant, Pizzeria, Cafe", "operator": "Familie Unterholzer", "source": "Unterkunftsverzeichnis Marling  2023, S. 40, schriftliche Erlaubnis des Tourismusvereins Marling vom 2016-08-16 f\u00fcr die Verwendung der Daten f\u00fcr OSM", "source:date": "2022-12-11", "website": "https://www.traubenwirt.com/de/Hotel%20Traubenwirt/"}}, {"type": "node", "id": 1612062900, "lat": 46.4884828, "lon": 11.3829161, "tags": {"amenity": "restaurant", "cuisine": "regional", "name": "Graf"}}, {"type": "node", "id": 1621906612, "lat": 46.5084997, "lon": 11.381152}, {"type": "node", "id": 1621906615, "lat": 46.5086684, "lon": 11.3811318}, {"type": "node", "id": 1621906620, "lat": 46.5086843, "lon": 11.3814145}, {"type": "node", "id": 1621906625, "lat": 46.5085156, "lon": 11.3814346}, {"type": "node", "id": 1621966234, "lat": 46.4974008, "lon": 11.4207844, "tags": {"amenity": "restaurant", "cuisine": "regional", "name": "Lun"}}, {"type": "node", "id": 1627187846, "lat": 46.6278156, "lon": 11.3599383, "tags": {"amenity": "restaurant", "cuisine": "fish", "name": "Sarner Forellenzucht - Troticoltura Sarentino", "name:de": "Sarner Forellenzucht", "name:it": "Troticoltura Sarentino"}}, {"type": "node", "id": 1634911291, "lat": 46.6878733, "lon": 11.4049815, "tags": {"amenity": "restaurant", "cuisine": "pizza", "name": "Pizzeria Santerhof"}}, {"type": "node", "id": 1635492157, "lat": 46.5158325, "lon": 11.0540509}, {"type": "node", "id": 1635492160, "lat": 46.5157255, "lon": 11.0542721}, {"type": "node", "id": 1635492164, "lat": 46.5016379, "lon": 11.0380497}, {"type": "node", "id": 1635492170, "lat": 46.5016494, "lon": 11.0377682}, {"type": "node", "id": 1635492178, "lat": 46.5157236, "lon": 11.0540529}, {"type": "node", "id": 1635492181, "lat": 46.5015386, "lon": 11.0380445}, {"type": "node", "id": 1635492187, "lat": 46.5015492, "lon": 11.0377669}, {"type": "node", "id": 1635492236, "lat": 46.5158344, "lon": 11.0542701}, {"type": "node", "id": 1636814239, "lat": 46.4781857, "lon": 11.0225493}, {"type": "node", "id": 1636814241, "lat": 46.4776032, "lon": 11.0224263}, {"type": "node", "id": 1636814247, "lat": 46.4774205, "lon": 11.0223292}, {"type": "node", "id": 1636814265, "lat": 46.4780469, "lon": 11.0225086}, {"type": "node", "id": 1636814278, "lat": 46.4776292, "lon": 11.0221929}, {"type": "node", "id": 1636814293, "lat": 46.4780195, "lon": 11.022749}, {"type": "node", "id": 1636814328, "lat": 46.478228, "lon": 11.0227752}, {"type": "node", "id": 1636814344, "lat": 46.4774478, "lon": 11.0221382}, {"type": "node", "id": 1636843901, "lat": 46.4609587, "lon": 11.0352241, "tags": {"amenity": "restaurant", "cuisine": "regional", "name": "Waldrast"}}, {"type": "node", "id": 1640746218, "lat": 46.4703181, "lon": 11.0404042}, {"type": "node", "id": 1640746255, "lat": 46.4705117, "lon": 11.0404229}, {"type": "node", "id": 1640746315, "lat": 46.4704302, "lon": 11.0402744}, {"type": "node", "id": 1640746407, "lat": 46.4703997, "lon": 11.0405526}, {"type": "node", "id": 1641825052, "lat": 46.4538714, "lon": 11.0605584}, {"type": "node", "id": 1641825085, "lat": 46.4543268, "lon": 11.0621774}, {"type": "node", "id": 1641825103, "lat": 46.4542484, "lon": 11.0619147}, {"type": "node", "id": 1641825235, "lat": 46.4538847, "lon": 11.0608486}, {"type": "node", "id": 1641825301, "lat": 46.4538052, "lon": 11.0606238}, {"type": "node", "id": 1641825304, "lat": 46.4538396, "lon": 11.0606492}, {"type": "node", "id": 1641825306, "lat": 46.453759, "lon": 11.0607561}, {"type": "node", "id": 1641825323, "lat": 46.4541933, "lon": 11.0620554}, {"type": "node", "id": 1641825325, "lat": 46.4543848, "lon": 11.062047}, {"type": "node", "id": 1641825330, "lat": 46.4539626, "lon": 11.0606256}, {"type": "node", "id": 1641831828, "lat": 46.485305, "lon": 11.1391193}, {"type": "node", "id": 1641831830, "lat": 46.4850984, "lon": 11.1392172}, {"type": "node", "id": 1641831846, "lat": 46.4850867, "lon": 11.1389436}, {"type": "node", "id": 1641831896, "lat": 46.4852922, "lon": 11.1388211}, {"type": "node", "id": 1641837602, "lat": 46.4893374, "lon": 11.1322652}, {"type": "node", "id": 1641837624, "lat": 46.4891417, "lon": 11.1320698}, {"type": "node", "id": 1641837654, "lat": 46.4892022, "lon": 11.1323312}, {"type": "node", "id": 1641837694, "lat": 46.4892769, "lon": 11.1320038}, {"type": "node", "id": 1643318986, "lat": 46.494651, "lon": 11.1282869}, {"type": "node", "id": 1643318987, "lat": 46.4950589, "lon": 11.1295724}, {"type": "node", "id": 1643318988, "lat": 46.4947544, "lon": 11.1281759}, {"type": "node", "id": 1643318989, "lat": 46.4947472, "lon": 11.1286357}, {"type": "node", "id": 1643318991, "lat": 46.4946751, "lon": 11.1284938}, {"type": "node", "id": 1643318995, "lat": 46.4951523, "lon": 11.1296707}, {"type": "node", "id": 1643319012, "lat": 46.4947276, "lon": 11.1284375}, {"type": "node", "id": 1643319015, "lat": 46.4952425, "lon": 11.1294898}, {"type": "node", "id": 1643319024, "lat": 46.4949187, "lon": 11.1284517}, {"type": "node", "id": 1643319041, "lat": 46.4951491, "lon": 11.1293915}, {"type": "node", "id": 1645418106, "lat": 46.4294066, "lon": 11.2940021, "tags": {"amenity": "restaurant", "cuisine": "regional", "delivery": "no", "name": "Jausenstation Kleiner Montiggler See - Ristoro Lago Piccolo di Monticolo", "name:de": "Jausenstation Kleiner Montiggler See", "name:it": "Ristoro Lago Piccolo di Monticolo", "opening_hours": "Apr-Oct Mo-We, Fr-Su 08:30-19:00", "operator": "Antholzer H. & R. Montiggl", "outdoor_seating": "yes", "phone": "+39 0471 663127", "ref:vatin": "IT01714060215", "takeaway": "yes", "toilets:wheelchair": "no", "website": "https://www.kleinermontigglersee.com/", "wheelchair": "yes"}}, {"type": "node", "id": 1648170635, "lat": 46.5582627, "lon": 11.1207944}, {"type": "node", "id": 1648170673, "lat": 46.558081, "lon": 11.1208947}, {"type": "node", "id": 1648170675, "lat": 46.558128, "lon": 11.1207185}, {"type": "node", "id": 1648170694, "lat": 46.5582158, "lon": 11.1209706}, {"type": "node", "id": 1657754115, "lat": 46.6198618, "lon": 11.0568321}, {"type": "node", "id": 1657754118, "lat": 46.6198678, "lon": 11.0565344}, {"type": "node", "id": 1657754123, "lat": 46.620157, "lon": 11.0568448}, {"type": "node", "id": 1657754124, "lat": 46.6201586, "lon": 11.0567632}, {"type": "node", "id": 1657754125, "lat": 46.6202379, "lon": 11.0567666}, {"type": "node", "id": 1657754126, "lat": 46.6202409, "lon": 11.0566182}, {"type": "node", "id": 1657792487, "lat": 46.7183707, "lon": 11.1453997}, {"type": "node", "id": 1657792488, "lat": 46.7184159, "lon": 11.145235}, {"type": "node", "id": 1657792510, "lat": 46.718464, "lon": 11.1455025}, {"type": "node", "id": 1657792513, "lat": 46.7185347, "lon": 11.1453659}, {"type": "node", "id": 1659674970, "lat": 46.6562925, "lon": 11.3875734}, {"type": "node", "id": 1659674976, "lat": 46.6563555, "lon": 11.387461}, {"type": "node", "id": 1659674978, "lat": 46.6564047, "lon": 11.3877171}, {"type": "node", "id": 1659674980, "lat": 46.6564699, "lon": 11.3875918}, {"type": "node", "id": 1667817060, "lat": 46.5020224, "lon": 11.0331918}, {"type": "node", "id": 1667817061, "lat": 46.5020526, "lon": 11.0329512}, {"type": "node", "id": 1667817064, "lat": 46.5021477, "lon": 11.0329549}, {"type": "node", "id": 1670634755, "lat": 46.6160716, "lon": 11.2466609, "tags": {"amenity": "restaurant", "cuisine": "regional", "name": "Gasthaus Rohrer"}}, {"type": "node", "id": 1671767077, "lat": 46.6041477, "lon": 11.2234775, "tags": {"amenity": "restaurant", "email": "info@hotel-alber.com", "fax": "+39 0473 278605", "name": "Alber", "phone": "+39 0473 278245", "website": "https://www.hotel-alber.com/"}},