{"version": 0.6, "generator": "Overpass API 0.7.62.10 2d4cfc48", "osm3s": {"timestamp_osm_base": "2026-02-08T12:36:59Z", "copyright": "The data included in this document is from www.openstreetmap.org. The data is made available under ODbL."}, "elements": [{"type": "node", "id": 75659604, "lat": 45.7693256, "lon": 10.7629226, "tags": {"bus": "yes", "highway": "bus_stop", "name": "Tremosine Gardesana porto", "public_transport": "stop_position"}}, {"type": "node", "id": 205029986, "lat": 45.7687228, "lon": 10.822728, "tags": {"bench": "no", "bin": "no", "highway": "bus_stop", "lit": "yes", "name": "Val di Monte", "public_transport": "platform", "shelter": "no", "tactile_paving": "no"}}, {"type": "node", "id": 268256654, "lat": 45.9473703, "lon": 10.6213556, "tags": {"highway": "bus_stop", "public_transport": "stop_position"}}, {"type": "node", "id": 276605399, "lat": 45.7636632, "lon": 10.8098482, "tags": {"bench": "yes", "bus": "yes", "highway": "bus_stop", "name": "Malcesine - Autostazione", "network": "ATV", "network:wikidata": "Q3602277", "network:wikipedia": "it:ATV (Verona)", "operator": "ATV", "public_transport": "platform", "shelter": "yes"}}, {"type": "node", "id": 315123335, "lat": 45.8976568, "lon": 10.8441374, "tags": {"bench": "yes", "bus": "yes", "highway": "bus_stop", "name": "Albola", "public_transport": "platform", "shelter": "yes"}}, {"type": "node", "id": 393013166, "lat": 45.8078215, "lon": 10.7876599, "tags": {"bench": "no", "bin": "yes", "bus": "yes", "highway": "bus_stop", "name": "Limone bivio per Tremosine", "operator": "Trasporti Brescia Nord", "public_transport": "platform", "shelter": "no"}}, {"type": "node", "id": 393013263, "lat": 45.8140088, "lon": 10.7917975, "tags": {"bench": "yes", "bin": "yes", "bus": "yes", "highway": "bus_stop", "lit": "no", "name": "Limone", "operator": "Trasporti Brescia Nord", "public_transport": "platform", "route_ref": "S202m;LN027", "shelter": "yes", "tactile_paving": "no"}}, {"type": "node", "id": 393013272, "lat": 45.888858, "lon": 10.846051, "tags": {"bench": "yes", "bin": "yes", "bus": "yes", "highway": "bus_stop", "lit": "yes", "name": "Riva del Garda - Via D. Chiesa", "network": "ATV", "network:wikidata": "Q3602277", "network:wikipedia": "it:ATV (Verona)", "operator": "ATV", "public_transport": "platform", "route_ref": "1;2;3;4;484", "shelter": "yes", "tactile_paving": "no"}}, {"type": "node", "id": 393013322, "lat": 45.7938755, "lon": 10.7780816, "tags": {"bus": "yes", "highway": "bus_stop", "name": "Tremosine Bassanega", "operator": "Trasporti Brescia Nord", "public_transport": "platform", "route_ref": "LN012"}}, {"type": "node", "id": 393013329, "lat": 45.7938749, "lon": 10.7779492, "tags": {"bus": "yes", "highway": "bus_stop", "name": "Tremosine Bassanega", "operator": "Trasporti Brescia Nord", "public_transport": "platform", "route_ref": "LN012"}}, {"type": "node", "id": 393013364, "lat": 45.7890817, "lon": 10.7735131, "tags": {"bus": "yes", "highway": "bus_stop", "name": "Tremosine via Aldo Moro", "operator": "Trasporti Brescia Nord", "public_transport": "platform", "route_ref": "LN012", "shelter": "no"}}, {"type": "node", "id": 393013369, "lat": 45.7888061, "lon": 10.7733146, "tags": {"bus": "yes", "highway": "bus_stop", "name": "Tremosine via Aldo Moro", "operator": "Trasporti Brescia Nord", "public_transport": "platform", "route_ref": "LN012", "shelter": "no"}}, {"type": "node", "id": 393013388, "lat": 45.784086, "lon": 10.7707521, "tags": {"bench": "yes", "bin": "yes", "bus": "yes", "highway": "bus_stop", "name": "Tremosine bivio per Ustecchio", "name:signed": "no", "operator": "Trasporti Brescia Nord", "public_transport": "platform", "route_ref": "LN012", "shelter": "yes", "tactile_paving": "no"}}, {"type": "node", "id": 393013389, "lat": 45.7841378, "lon": 10.7706072, "tags": {"bench": "no", "bus": "yes", "highway": "bus_stop", "name": "Tremosine bivio per Ustecchio", "operator": "Trasporti Brescia Nord", "public_transport": "platform", "route_ref": "LN012", "shelter": "no"}}, {"type": "node", "id": 393013429, "lat": 45.782635, "lon": 10.7633022, "tags": {"bus": "yes", "highway": "bus_stop", "name": "Tremosine Voltino", "operator": "Trasporti Brescia Nord", "public_transport": "platform", "route_ref": "LN012", "shelter": "yes"}}, {"type": "node", "id": 393013524, "lat": 45.8038716, "lon": 10.783803, "tags": {"bus": "yes", "highway": "bus_stop", "name": "Limone via Tamas", "operator": "Trasporti Brescia Nord", "public_transport": "platform"}}, {"type": "node", "id": 393013535, "lat": 45.802274, "lon": 10.7866003, "tags": {"bus": "yes", "highway": "bus_stop", "name": "Limone Hotel Leonardo", "operator": "Trasporti  Brescia Nord", "public_transport": "platform", "route_ref": "S202m"}}, {"type": "node", "id": 393013536, "lat": 45.7529206, "lon": 10.7491402, "tags": {"bench": "yes", "bin": "yes", "bus": "yes", "highway": "bus_stop", "lit": "no", "name": "Campione Via Tavernini chiesa", "operator": "Trasporti Brescia Nord", "public_transport": "platform", "route_ref": "S202m", "shelter": "yes", "tactile_paving": "no"}}, {"type": "node", "id": 461102489, "lat": 45.9071636, "lon": 10.8403781, "tags": {"bench": "no", "bin": "yes", "bus": "yes", "highway": "bus_stop", "lit": "yes", "name": "Varone Alberello", "public_transport": "platform", "shelter": "yes", "tactile_paving": "no"}}, {"type": "node", "id": 489869126, "lat": 45.8373096, "lon": 10.8600372, "tags": {"bench": "no", "bin": "no", "bus": "yes", "departures_board": "yes", "highway": "bus_stop", "lit": "no", "name": "Tempesta", "network": "ATV", "network:wikidata": "Q3602277", "network:wikipedia": "it:ATV (Verona)", "operator": "ATV", "public_transport": "platform", "shelter": "no", "tactile_paving": "no"}}, {"type": "node", "id": 491402624, "lat": 45.8872353, "lon": 10.8555209, "tags": {"bench": "no", "bin": "no", "bus": "yes", "highway": "bus_stop", "lit": "yes", "name": "S. Alessandro Cartiera", "public_transport": "platform", "shelter": "no", "tactile_paving": "no"}}, {"type": "node", "id": 491402626, "lat": 45.8870568, "lon": 10.8554974, "tags": {"bench": "no", "bin": "no", "bus": "yes", "highway": "bus_stop", "lit": "yes", "name": "S. Alessandro Cartiera", "public_transport": "platform", "shelter": "no", "tactile_paving": "no"}}, {"type": "node", "id": 491402651, "lat": 45.8856303, "lon": 10.8466894, "tags": {"bench": "yes", "bin": "no", "bus": "yes", "check_date:shelter": "2025-04-08", "highway": "bus_stop", "lit": "yes", "name": "Riva del Garda - Viale Carducci Hotel Liberty", "public_transport": "platform", "shelter": "no", "tactile_paving": "no"}}, {"type": "node", "id": 491402661, "lat": 45.8830987, "lon": 10.8525826, "tags": {"bench": "yes", "bin": "no", "bus": "yes", "check_date:shelter": "2025-04-05", "highway": "bus_stop", "lit": "yes", "name": "Riva del Garda - Hotel du Lac", "network": "ATV", "network:wikidata": "Q3602277", "network:wikipedia": "it:ATV (Verona)", "operator": "ATV", "operator2": "Trentino Trasporti S.p.A.", "public_transport": "platform", "shelter": "yes", "tactile_paving": "no"}}, {"type": "node", "id": 491402699, "lat": 45.8801233, "lon": 10.8560562, "tags": {"bench": "no", "bin": "no", "bus": "yes", "highway": "bus_stop", "lit": "yes", "name": "Riva del Garda - Viale Rovereto Hotel Brione", "public_transport": "platform", "shelter": "no", "tactile_paving": "no"}}, {"type": "node", "id": 514888983, "lat": 45.9046882, "lon": 10.8642573, "tags": {"bench": "yes", "bus": "yes", "highway": "bus_stop", "lit": "yes", "name": "Arco S. Caterina Eurospar", "public_transport": "platform", "shelter": "yes"}}, {"type": "node", "id": 618870909, "lat": 45.896478, "lon": 10.8514031, "tags": {"bench": "no", "bin": "no", "bus": "yes", "highway": "bus_stop", "lit": "yes", "name": "Centro Commerciale 2000", "public_transport": "platform", "shelter": "no", "tactile_paving": "no"}}, {"type": "node", "id": 618870919, "lat": 45.89535, "lon": 10.8500305, "tags": {"bench": "yes", "bin": "yes", "bus": "yes", "highway": "bus_stop", "lit": "yes", "name": "Riva del Garda Viale Trento \"Rione Degasperi\"", "public_transport": "platform", "shelter": "no", "tactile_paving": "no"}}, {"type": "node", "id": 666992903, "lat": 45.9215939, "lon": 10.820756, "tags": {"bus": "yes", "highway": "bus_stop", "name": "Pranzo (ex Cabina ENEL)", "public_transport": "platform"}}, {"type": "node", "id": 677718104, "lat": 45.899502, "lon": 10.8550912, "tags": {"bus": "yes", "highway": "bus_stop", "name": "Riva Del G. S. Nazarro", "public_transport": "platform"}}, {"type": "node", "id": 956791999, "lat": 45.751219, "lon": 10.7311022, "tags": {"fixme": "I think this bus stop does not exist", "highway": "bus_stop", "public_transport": "platform"}}, {"type": "node", "id": 956793568, "lat": 45.7422732, "lon": 10.7306185, "tags": {"bench": "no", "bin": "yes", "bus": "yes", "highway": "bus_stop", "name": "Tignale santuario", "public_transport": "platform", "shelter": "no", "tactile_paving": "no"}}, {"type": "node", "id": 956794683, "lat": 45.7384787, "lon": 10.7223087, "tags": {"bench": "yes", "bin": "yes", "bus": "yes", "highway": "bus_stop", "lit": "yes", "name": "Tignale-Gardola", "public_transport": "platform", "shelter": "yes", "tactile_paving": "no"}}, {"type": "node", "id": 956795222, "lat": 45.7382746, "lon": 10.7294044, "tags": {"bus": "yes", "highway": "bus_stop", "name": "Tignale panorama", "public_transport": "platform"}}, {"type": "node", "id": 956796135, "lat": 45.7349311, "lon": 10.7208857, "tags": {"bench": "yes", "bin": "yes", "bus": "yes", "highway": "bus_stop", "lit": "yes", "name": "Tignale Oldesio", "public_transport": "platform", "shelter": "yes", "tactile_paving": "no"}}, {"type": "node", "id": 1346650968, "lat": 45.7898895, "lon": 10.7618359, "tags": {"bus": "yes", "highway": "bus_stop", "name": "Tremosine via Dalco", "public_transport": "platform"}}, {"type": "node", "id": 1384752854, "lat": 45.8715904, "lon": 10.8752846, "tags": {"bench": "no", "bin": "yes", "bus": "yes", "highway": "bus_stop", "lit": "yes", "name": "Torbole (Bivio)", "network": "ATV", "network:wikidata": "Q3602277", "network:wikipedia": "it:ATV (Verona)", "operator": "ATV", "operator2": "Trentino Trasporti S.p.A.", "public_transport": "platform", "shelter": "yes", "tactile_paving": "no"}}, {"type": "node", "id": 1384752869, "lat": 45.8714749, "lon": 10.8750524, "tags": {"bench": "yes", "bin": "yes", "bus": "yes", "highway": "bus_stop", "lit": "yes", "name": "Torbole (Bivio)", "network": "ATV", "network:wikidata": "Q3602277", "network:wikipedia": "it:ATV (Verona)", "operator": "ATV", "operator2": "Trentino Trasporti S.p.A.", "public_transport": "platform", "shelter": "yes", "tactile_paving": "no", "wheelchair": "limited"}}, {"type": "node", "id": 1384851593, "lat": 45.8768769, "lon": 10.8699434, "tags": {"bench": "yes", "bin": "no", "bus": "yes", "highway": "bus_stop", "lit": "yes", "name": "Linfano", "public_transport": "platform", "shelter": "no", "tactile_paving": "no"}}, {"type": "node", "id": 1781890932, "lat": 45.9081436, "lon": 10.8450102, "tags": {"bus": "yes", "departures_board": "timetable", "highway": "bus_stop", "name": "Varone Via Venezia/Via Sega", "operator": "Trentino trasporti", "public_transport": "platform", "ref": "2136SG", "shelter": "yes"}}, {"type": "node", "id": 1781890934, "lat": 45.9139509, "lon": 10.857651, "tags": {"bench": "yes", "bus": "yes", "highway": "bus_stop", "lit": "yes", "name": "Ceole Madonna Grazie", "public_transport": "platform"}}, {"type": "node", "id": 1805699242, "lat": 45.7557378, "lon": 10.7500501, "tags": {"bench": "yes", "bin": "no", "bus": "yes", "highway": "bus_stop", "lit": "yes", "name": "Campione rotondo Via Cozzaglio", "operator": "Trasporti Brescia Nord", "public_transport": "platform", "route_ref": "S202m", "shelter": "yes", "tactile_paving": "no"}}, {"type": "node", "id": 2289556723, "lat": 45.9082362, "lon": 10.8450044, "tags": {"bus": "yes", "departures_board": "timetable", "highway": "bus_stop", "name": "Varone Via Venezia / Via Sega", "operator": "Trentino trasporti", "public_transport": "platform", "shelter": "no"}}, {"type": "node", "id": 2305037861, "lat": 45.7783681, "lon": 10.8163533, "tags": {"bench": "no", "bin": "no", "bus": "yes", "highway": "bus_stop", "lit": "no", "name": "Malcesine - Locanda Da Tino", "network": "ATV", "network:wikidata": "Q3602277", "network:wikipedia": "it:ATV (Verona)", "operator": "ATV", "public_transport": "platform", "shelter": "no", "tactile_paving": "no"}}, {"type": "node", "id": 2339666839, "lat": 45.7556818, "lon": 10.8053267, "tags": {"bench": "no", "bin": "no", "bus": "yes", "highway": "bus_stop", "lit": "no", "name": "Malcesine - La Rocca", "network": "ATV", "network:wikidata": "Q3602277", "network:wikipedia": "it:ATV (Verona)", "operator": "ATV", "public_transport": "platform", "shelter": "no", "tactile_paving": "no"}}, {"type": "node", "id": 2363332861, "lat": 45.7636742, "lon": 10.809746, "tags": {"bench": "yes", "bus": "yes", "highway": "bus_stop", "name": "Malcesine - Autostazione", "network": "ATV", "network:wikidata": "Q3602277", "network:wikipedia": "it:ATV (Verona)", "operator": "ATV", "public_transport": "platform", "shelter": "yes"}}, {"type": "node", "id": 2399187115, "lat": 46.0182548, "lon": 10.8119958, "tags": {"bus": "yes", "highway": "bus_stop", "name": "Rango", "public_transport": "platform"}}, {"type": "node", "id": 2423106606, "lat": 45.8844184, "lon": 10.8627643, "tags": {"bench": "yes", "bus": "yes", "highway": "bus_stop", "lit": "yes", "name": "Brione H. Orchidea", "public_transport": "platform", "shelter": "no"}}, {"type": "node", "id": 2478244798, "lat": 45.7604845, "lon": 10.7447421, "tags": {"bus": "yes", "highway": "bus_stop", "name": "Tremosine Pregasio", "public_transport": "platform"}}, {"type": "node", "id": 2487276234, "lat": 45.7859491, "lon": 10.7623095, "tags": {"bus": "yes", "highway": "bus_stop", "name": "Tremosine via Campi", "public_transport": "platform"}}, {"type": "node", "id": 2515258892, "lat": 45.978852, "lon": 10.6666924, "tags": {"bus": "yes", "highway": "bus_stop", "name": "Fontaneo", "public_transport": "platform"}}, {"type": "node", "id": 2515258907, "lat": 45.9791635, "lon": 10.6669069, "tags": {"bus": "yes", "highway": "bus_stop", "name": "Fontaneo", "public_transport": "platform"}}, {"type": "node", "id": 2515259888, "lat": 45.9962392, "lon": 10.6909583, "tags": {"bus": "yes", "highway": "bus_stop", "name": "Pr\u00e0 di Bondo", "public_transport": "platform"}}, {"type": "node", "id": 2515259891, "lat": 45.9963168, "lon": 10.6908471, "tags": {"bus": "yes", "highway": "bus_stop", "name": "Pr\u00e0 di Bondo", "public_transport": "platform"}}, {"type": "node", "id": 2515259979, "lat": 46.0001491, "lon": 10.6931518, "tags": {"bus": "yes", "highway": "bus_stop", "name": "Bondo", "public_transport": "platform"}}, {"type": "node", "id": 2515259985, "lat": 46.0002149, "lon": 10.6929874, "tags": {"bus": "yes", "highway": "bus_stop", "name": "Bondo", "public_transport": "platform"}}, {"type": "node", "id": 2515260227, "lat": 46.00632, "lon": 10.6978314, "tags": {"bus": "yes", "highway": "bus_stop", "name": "Breguzzo Hotel Carlone", "public_transport": "platform"}}, {"type": "node", "id": 2515260236, "lat": 46.0064052, "lon": 10.6981093, "tags": {"bus": "yes", "highway": "bus_stop", "name": "Breguzzo Hotel Carlone", "public_transport": "platform"}}, {"type": "node", "id": 2705490389, "lat": 45.7720076, "lon": 10.8251531, "tags": {"highway": "bus_stop", "public_transport": "platform", "shelter": "no"}}, {"type": "node", "id": 2890065710, "lat": 45.9042796, "lon": 10.8422187, "tags": {"bus": "yes", "highway": "bus_stop", "name": "Varone Via Ballino 14", "public_transport": "platform"}}, {"type": "node", "id": 2890065717, "lat": 45.9043603, "lon": 10.8418686, "tags": {"bus": "yes", "highway": "bus_stop", "name": "Varone Via Ballino 14", "public_transport": "platform"}}, {"type": "node", "id": 2894201077, "lat": 45.9115204, "lon": 10.8089847, "tags": {"bus": "yes", "highway": "bus_stop", "name": "Campi Bivio (Parisi)", "operator": "Trentino trasporti S.p.A.", "public_transport": "platform"}}, {"type": "node", "id": 2894201225, "lat": 45.9154486, "lon": 10.8469628, "tags": {"bus": "yes", "highway": "bus_stop", "lit": "yes", "name": "Cologna Alb. Panaroma", "public_transport": "platform", "shelter": "no"}}, {"type": "node", "id": 2894201226, "lat": 45.9154861, "lon": 10.8470968, "tags": {"bus": "yes", "highway": "bus_stop", "lit": "yes", "name": "Cologna Alb. Panaroma", "public_transport": "platform", "shelter": "no"}}, {"type": "node", "id": 2894201637, "lat": 45.9304125, "lon": 10.8228895, "tags": {"bus": "yes", "highway": "bus_stop", "name": "Villa del Monte", "public_transport": "platform", "shelter": "yes"}}, {"type": "node", "id": 2894201640, "lat": 45.9303914, "lon": 10.8224715, "tags": {"bus": "yes", "highway": "bus_stop", "name": "Villa del Monte", "public_transport": "platform"}}, {"type": "node", "id": 2894201675, "lat": 45.9357347, "lon": 10.811307, "tags": {"bench": "no", "highway": "bus_stop", "name": "Lago di Tenno", "public_transport": "platform", "shelter": "no"}}, {"type": "node", "id": 2924849031, "lat": 45.9099608, "lon": 10.8708965, "tags": {"bench": "yes", "bus": "yes", "highway": "bus_stop", "name": "Arco Via S. Caterina Poli", "public_transport": "platform", "shelter": "yes"}}, {"type": "node", "id": 3556927852, "lat": 45.883074, "lon": 10.8383949, "tags": {"bench": "no", "bin": "yes", "bus": "yes", "check_date:shelter": "2024-08-04", "highway": "bus_stop", "lit": "yes", "name": "Riva del Garda via Cis, centro", "operator": "Trasporti Brescia", "public_transport": "platform", "route_ref": "LN027", "shelter": "no", "tactile_paving": "no"}}, {"type": "node", "id": 3556927854, "lat": 45.8831558, "lon": 10.8385304, "tags": {"bench": "no", "bin": "no", "bus": "yes", "check_date:shelter": "2024-08-04", "highway": "bus_stop", "lit": "yes", "name": "Riva del Garda via Cis, centro", "operator": "Trasporti Brescia", "public_transport": "platform", "route_ref": "LN027", "shelter": "no", "tactile_paving": "no"}}, {"type": "node", "id": 3632459435, "lat": 45.8289387, "lon": 10.5351439, "tags": {"bus": "yes", "highway": "bus_stop", "name": "Lodrone", "public_transport": "platform"}}, {"type": "node", "id": 3638659715, "lat": 45.8177977, "lon": 10.5439634, "tags": {"bus": "yes", "highway": "bus_stop", "name": "Ponte Caffaro pescicolture", "public_transport": "platform"}}, {"type": "node", "id": 3638659716, "lat": 45.8211275, "lon": 10.5388614, "tags": {"bus": "yes", "highway": "bus_stop", "name": "Ponte Caffaro Mobilif", "public_transport": "platform"}}, {"type": "node", "id": 3638659717, "lat": 45.8211944, "lon": 10.5388813, "tags": {"bench": "no", "bin": "no", "bus": "yes", "highway": "bus_stop", "name": "Ponte Caffaro Mobilif", "public_transport": "platform", "shelter": "no", "tactile_paving": "no"}}, {"type": "node", "id": 3638703660, "lat": 45.8196376, "lon": 10.5242745, "tags": {"bus": "yes", "highway": "bus_stop", "name": "Ponte Caffaro Via Cadutti", "public_transport": "platform"}}, {"type": "node", "id": 3638703661, "lat": 45.819847, "lon": 10.5248069, "tags": {"bus": "yes", "highway": "bus_stop", "name": "Ponte Caffaro Via Cadutti", "public_transport": "platform"}}, {"type": "node", "id": 3638703663, "lat": 45.8251781, "lon": 10.5301361, "tags": {"bench": "no", "bin": "no", "bus": "yes", "highway": "bus_stop", "lit": "yes", "name": "Ponte Caffaro Via Cadutti 214 (Bar Ponte)", "public_transport": "platform", "shelter": "yes", "tactile_paving": "no"}}, {"type": "node", "id": 3639309767, "lat": 46.0265741, "lon": 10.7198876, "tags": {"bus": "yes", "highway": "bus_stop", "name": "Polin", "public_transport": "platform"}}, {"type": "node", "id": 3639309768, "lat": 46.0266291, "lon": 10.7195642, "tags": {"bus": "yes", "highway": "bus_stop", "name": "Polin", "public_transport": "platform"}}, {"type": "node", "id": 3674901166, "lat": 45.8139825, "lon": 10.7916914, "tags": {"bus": "yes", "highway": "bus_stop", "name": "Limone", "operator": "Trasporti Brescia Nord", "public_transport": "platform", "route_ref": "S202m;LN027"}}, {"type": "node", "id": 3752102193, "lat": 45.7346458, "lon": 10.7203208, "tags": {"bench": "no", "bin": "no", "bus": "yes", "highway": "bus_stop", "name": "Tignale Oldesio", "public_transport": "platform", "shelter": "no", "tactile_paving": "no"}}, {"type": "node", "id": 3761968044, "lat": 45.7893291, "lon": 10.7491991, "tags": {"bench": "no", "bin": "no", "bus": "yes", "highway": "bus_stop", "name": "Tremosine bivio per Villa", "public_transport": "platform", "shelter": "no"}}, {"type": "node", "id": 3761968045, "lat": 45.7893399, "lon": 10.7487069, "tags": {"bus": "yes", "highway": "bus_stop", "name": "Tremosine bivio per Villa", "public_transport": "platform", "shelter": "no"}}, {"type": "node", "id": 3761968051, "lat": 45.7894518, "lon": 10.7486648, "tags": {"bus": "yes", "highway": "bus_stop", "name": "Tremosine bivio per Villa", "public_transport": "platform"}}, {"type": "node", "id": 3761968378, "lat": 45.7906957, "lon": 10.7474569, "tags": {"bus": "yes", "highway": "bus_stop", "public_transport": "platform"}}, {"type": "node", "id": 3761968392, "lat": 45.7907766, "lon": 10.7472252, "tags": {"bus": "yes", "highway": "bus_stop", "public_transport": "platform"}}, {"type": "node", "id": 3793777867, "lat": 45.7719229, "lon": 10.7604555, "tags": {"bench": "no", "bin": "no", "bus": "yes", "highway": "bus_stop", "lit": "yes", "name": "Tremosine Pieve", "public_transport": "platform", "shelter": "no", "tactile_paving": "no"}}, {"type": "node", "id": 3793777869, "lat": 45.7720038, "lon": 10.7604129, "tags": {"bench": "no", "bin": "no", "bus": "yes", "highway": "bus_stop", "lit": "yes", "name": "Tremosine Pieve", "public_transport": "platform", "shelter": "no", "tactile_paving": "no"}}, {"type": "node", "id": 3797184592, "lat": 45.7686553, "lon": 10.7621927, "tags": {"bench": "no", "bin": "no", "bus": "yes", "highway": "bus_stop", "name": "Tremosine Gardesana porto", "public_transport": "platform", "shelter": "no", "tactile_paving": "no"}}, {"type": "node", "id": 3797184593, "lat": 45.7691708, "lon": 10.7628331, "tags": {"bench": "no", "bin": "no", "bus": "yes", "highway": "bus_stop", "name": "Tremosine Gardesana porto", "public_transport": "platform", "shelter": "no", "tactile_paving": "no"}}, {"type": "node", "id": 3801129126, "lat": 45.7638443, "lon": 10.7496655, "tags": {"bus": "yes", "highway": "bus_stop", "name": "Tremosine via Belvedere/Pralonc", "public_transport": "platform", "route_ref": "12"}}, {"type": "node", "id": 3801129128, "lat": 45.7641253, "lon": 10.7497248, "tags": {"bus": "yes", "highway": "bus_stop", "name": "Tremosine via Belvedere/Pralonc", "public_transport": "platform", "route_ref": "12"}}, {"type": "node", "id": 3926911544, "lat": 45.7338414, "lon": 10.7888735, "tags": {"bench": "yes", "bin": "no", "bus": "yes", "highway": "bus_stop", "lit": "yes", "name": "Cassone", "network": "ATV", "network:wikidata": "Q3602277", "network:wikipedia": "it:ATV (Verona)", "operator": "ATV", "public_transport": "platform", "shelter": "yes", "tactile_paving": "no"}}, {"type": "node", "id": 3926911545, "lat": 45.7339872, "lon": 10.789423, "tags": {"bench": "yes", "bin": "no", "bus": "yes", "highway": "bus_stop", "lit": "yes", "name": "Cassone", "network": "ATV", "network:wikidata": "Q3602277", "network:wikipedia": "it:ATV (Verona)", "operator": "ATV", "public_transport": "platform", "shelter": "yes", "tactile_paving": "no"}}, {"type": "node", "id": 4003293716, "lat": 45.8907721, "lon": 10.8504439, "tags": {"bench": "no", "bin": "no", "bus": "yes", "highway": "bus_stop", "lit": "yes", "public_transport": "platform", "shelter": "no", "tactile_paving": "no"}}, {"type": "node", "id": 4003293721, "lat": 45.8908215, "lon": 10.8503752, "tags": {"bench": "no", "bin": "no", "bus": "yes", "highway": "bus_stop", "lit": "yes", "public_transport": "platform", "shelter": "no", "tactile_paving": "no"}}, {"type": "node", "id": 4003293867, "lat": 45.8946932, "lon": 10.8494815, "tags": {"bench": "yes", "bus": "yes", "highway": "bus_stop", "lit": "yes", "name": "Riva Del G. Viale Trento", "public_transport": "platform", "shelter": "yes"}}, {"type": "node", "id": 4261646689, "lat": 45.8880498, "lon": 10.8623436, "tags": {"bench": "yes", "bin": "no", "bus": "yes", "highway": "bus_stop", "lit": "yes", "name": "S. Alessandro", "public_transport": "platform", "shelter": "no", "tactile_paving": "no"}}, {"type": "node", "id": 4261646690, "lat": 45.8883165, "lon": 10.8613877, "tags": {"bench": "no", "bin": "no", "bus": "yes", "highway": "bus_stop", "lit": "yes", "name": "S. Alessandro", "public_transport": "platform", "shelter": "no", "tactile_paving": "no"}}, {"type": "node", "id": 4313519189, "lat": 45.821584, "lon": 10.802236, "tags": {"bench": "no", "bus": "yes", "highway": "bus_stop", "name": "Limone Supino", "public_transport": "platform", "shelter": "no"}}, {"type": "node", "id": 4315368795, "lat": 45.7994643, "lon": 10.8373048, "tags": {"bench": "yes", "bus": "yes", "highway": "bus_stop", "name": "Navene", "network": "ATV", "network:wikidata": "Q3602277", "network:wikipedia": "it:ATV (Verona)", "operator": "ATV", "public_transport": "platform", "shelter": "yes"}}, {"type": "node", "id": 4315405790, "lat": 45.7994873, "lon": 10.837453, "tags": {"bus": "yes", "highway": "bus_stop", "name": "Navene", "network": "ATV", "network:wikidata": "Q3602277", "network:wikipedia": "it:ATV (Verona)", "operator": "ATV", "public_transport": "platform", "shelter": "no"}}, {"type": "node", "id": 4316268698, "lat": 45.8921433, "lon": 10.8429672, "tags": {"bench": "yes", "bin": "yes", "bus": "yes", "departures_board": "timetable", "highway": "bus_stop", "lit": "yes", "name": "Riva del Garda - Viale dei Tigli 21", "operator": "Trentino Trasporti S.p.A.", "public_transport": "platform", "shelter": "no", "tactile_paving": "no"}}, {"type": "node", "id": 4316269100, "lat": 45.8904294, "lon": 10.8430148, "tags": {"bench": "no", "bin": "no", "bus": "yes", "departures_board": "yes", "highway": "bus_stop", "lit": "yes", "name": "Riva del Garda - Viale dei Tigli 11", "operator": "Trentino Trasporti S.p.A.", "public_transport": "platform", "shelter": "no", "tactile_paving": "no"}}, {"type": "node", "id": 4316295215, "lat": 45.9210266, "lon": 10.8313478, "tags": {"bus": "yes", "highway": "bus_stop", "name": "Tenno", "public_transport": "platform"}}, {"type": "node", "id": 4316311590, "lat": 45.9210848, "lon": 10.8314286, "tags": {"bus": "yes", "highway": "bus_stop", "name": "Tenno", "public_transport": "platform"}}, {"type": "node", "id": 4316311698, "lat": 45.8996752, "lon": 10.8445574, "tags": {"bus": "yes", "highway": "bus_stop", "name": "Riva del Garda Viale Oleandri 24", "public_transport": "platform"}}, {"type": "node", "id": 4316345095, "lat": 45.9084344, "lon": 10.8333889, "tags": {"bench": "yes", "bus": "yes", "highway": "bus_stop", "lit": "yes", "name": "Deva", "public_transport": "platform", "shelter": "no", "tactile_paving": "no"}}, {"type": "node", "id": 4316345295, "lat": 45.9119731, "lon": 10.8374006, "tags": {"bench": "no", "bin": "no", "bus": "yes", "highway": "bus_stop", "lit": "yes", "name": "Varone Cascata", "public_transport": "platform", "shelter": "no", "tactile_paving": "no"}}, {"type": "node", "id": 4316345794, "lat": 45.8883178, "lon": 10.8443531, "tags": {"bench": "yes", "bin": "yes", "bus": "yes", "highway": "bus_stop", "lit": "yes", "name": "Riva del Garda - Viale Martiri", "network": "ATV", "network:wikidata": "Q3602277", "network:wikipedia": "it:ATV (Verona)", "operator": "ATV", "operator2": "Trentino Trasporti S.p.A.", "public_transport": "platform", "shelter": "yes", "tactile_paving": "no"}}, {"type": "node", "id": 4317044789, "lat": 45.8800874, "lon": 10.8562604, "tags": {"bench": "no", "bin": "yes", "bus": "yes", "highway": "bus_stop", "lit": "yes", "name": "Riva del Garda - Viale Rovereto Hotel Brione", "public_transport": "platform", "shelter": "no", "tactile_paving": "no"}}, {"type": "node", "id": 4897838123, "lat": 45.7553309, "lon": 10.8048083, "tags": {"bench": "no", "bin": "no", "bus": "yes", "highway": "bus_stop", "lit": "yes", "name": "Malcesine - La Rocca", "network": "ATV", "network:wikidata": "Q3602277", "network:wikipedia": "it:ATV (Verona)", "operator": "ATV", "public_transport": "platform", "shelter": "no", "tactile_paving": "no"}}, {"type": "node", "id": 4941771841, "lat": 45.8053339, "lon": 10.7874434, "tags": {"bus": "yes", "highway": "bus_stop", "name": "Limone camping garda", "public_transport": "platform"}}, {"type": "node", "id": 5039586013, "lat": 45.9190551, "lon": 10.8705053, "tags": {"bench": "yes", "bin": "yes", "bus": "yes", "highway": "bus_stop", "name": "Chiarano", "public_transport": "platform", "shelter": "yes", "tactile_paving": "no"}}, {"type": "node", "id": 5039586014, "lat": 45.9183072, "lon": 10.8615691, "tags": {"bench": "yes", "bus": "yes", "highway": "bus_stop", "lit": "yes", "name": "Varignano", "public_transport": "platform", "shelter": "yes"}}, {"type": "node", "id": 5039586015, "lat": 45.9182529, "lon": 10.8616496, "tags": {"bench": "yes", "bus": "yes", "highway": "bus_stop", "lit": "yes", "name": "Varignano", "public_transport": "platform", "shelter": "yes"}}, {"type": "node", "id": 5039586016, "lat": 45.9161516, "lon": 10.8586687, "tags": {"bench": "no", "highway": "bus_stop", "lit": "yes", "name": "Varignano Via Grazie/Veneto", "public_transport": "platform", "shelter": "no"}}, {"type": "node", "id": 5039586017, "lat": 45.9162448, "lon": 10.8588944, "tags": {"bench": "no", "highway": "bus_stop", "lit": "yes", "name": "Varignano Via Grazie/Veneto", "public_transport": "platform", "shelter": "no"}}, {"type": "node", "id": 5062886534, "lat": 45.9495486, "lon": 10.6375953, "tags": {"bus": "yes", "highway": "bus_stop", "name": "Praso", "public_transport": "platform", "shelter": "yes"}}, {"type": "node", "id": 5062886535, "lat": 45.9495471, "lon": 10.637401, "tags": {"bus": "yes", "highway": "bus_stop", "name": "Praso", "public_transport": "platform", "shelter": "no"}}, {"type": "node", "id": 5097451885, "lat": 45.7512485, "lon": 10.7986022, "tags": {"bench": "no", "bin": "no", "bus": "yes", "highway": "bus_stop", "name": "Val di Sogno", "network": "ATV", "network:wikidata": "Q3602277", "network:wikipedia": "it:ATV (Verona)", "operator": "ATV", "public_transport": "platform", "shelter": "yes", "tactile_paving": "no"}}, {"type": "node", "id": 5401012844, "lat": 46.0310355, "lon": 10.8685489, "tags": {"bench": "yes", "bin": "no", "bus": "yes", "highway": "bus_stop", "lit": "yes", "name": "Ponte Arche Via Ballino", "public_transport": "platform", "shelter": "yes", "tactile_paving": "no"}}, {"type": "node", "id": 5401357606, "lat": 46.0275122, "lon": 10.8681796, "tags": {"bench": "no", "bin": "no", "bus": "yes", "highway": "bus_stop", "name": "Campo Lomaso indizio Paese", "public_transport": "platform", "shelter": "no", "tactile_paving": "no"}}, {"type": "node", "id": 5406780555, "lat": 46.0350167, "lon": 10.8681008, "tags": {"bench": "no", "bin": "no", "bus": "yes", "highway": "bus_stop", "lit": "yes", "name": "Ponte Arche SP5 Civ.1", "public_transport": "platform", "shelter": "no", "tactile_paving": "no"}}, {"type": "node", "id": 5769107853, "lat": 45.8665339, "lon": 10.7881854, "tags": {"bench": "yes", "bus": "yes", "departures_board": "timetable", "highway": "bus_stop", "name": "Pr\u00e8", "operator": "Trentino trasporti S.p.A.", "public_transport": "platform", "shelter": "yes"}}, {"type": "node", "id": 5943754352, "lat": 46.033941, "lon": 10.7354189, "tags": {"bus": "yes", "highway": "bus_stop", "name": "Bolbeno bivio", "public_transport": "platform"}}, {"type": "node", "id": 5943754354, "lat": 46.0340135, "lon": 10.7353069, "tags": {"highway": "bus_stop", "name": "Bolbeno bivio", "public_transport": "platform"}}, {"type": "node", "id": 5968593341, "lat": 46.0151453, "lon": 10.8110222, "tags": {"bench": "yes", "bus": "yes", "highway": "bus_stop", "name": "Balbido", "public_transport": "platform", "shelter": "yes"}}, {"type": "node", "id": 5968593342, "lat": 46.0148177, "lon": 10.8110845, "tags": {"bus": "yes", "highway": "bus_stop", "name": "Balbido", "public_transport": "platform"}}, {"type": "node", "id": 5968593343, "lat": 46.022456, "lon": 10.8187201, "tags": {"bus": "yes", "highway": "bus_stop", "name": "Cavaione", "public_transport": "platform"}}, {"type": "node", "id": 5968593344, "lat": 46.0263644, "lon": 10.8200211, "tags": {"highway": "bus_stop", "name": "Marrazzone", "public_transport": "platform"}}, {"type": "node", "id": 5968593345, "lat": 46.0286439, "lon": 10.8236997, "tags": {"bench": "yes", "bus": "yes", "highway": "bus_stop", "name": "Larido", "public_transport": "platform", "shelter": "yes"}}, {"type": "node", "id": 5968593346, "lat": 46.0288449, "lon": 10.8271715, "tags": {"bench": "yes", "bus": "yes", "highway": "bus_stop", "name": "Bivedo", "public_transport": "platform", "shelter": "yes"}}, {"type": "node", "id": 5968593347, "lat": 46.02855, "lon": 10.8266685, "tags": {"bench": "no", "bin": "no", "bus": "yes", "highway": "bus_stop", "name": "Bivedo", "public_transport": "platform", "shelter": "no", "tactile_paving": "no"}}, {"type": "node", "id": 5968593349, "lat": 46.0237848, "lon": 10.832154, "tags": {"bench": "no", "bin": "no", "bus": "yes", "highway": "bus_stop", "lit": "yes", "name": "Madice", "public_transport": "platform", "shelter": "no", "tactile_paving": "no"}}, {"type": "node", "id": 5968593350, "lat": 46.0240322, "lon": 10.8322307, "tags": {"bench": "no", "bin": "no", "bus": "yes", "highway": "bus_stop", "lit": "yes", "name": "Madice", "public_transport": "platform", "shelter": "no", "tactile_paving": "no"}}, {"type": "node", "id": 5968593351, "lat": 46.0245127, "lon": 10.8390678, "tags": {"bus": "yes", "highway": "bus_stop", "public_transport": "platform"}}, {"type": "node", "id": 5968593352, "lat": 46.0245555, "lon": 10.8387808, "tags": {"bus": "yes", "highway": "bus_stop", "name": "Santa Croce", "public_transport": "platform"}}, {"type": "node", "id": 5968593357, "lat": 46.0292443, "lon": 10.8417185, "tags": {"bench": "no", "bin": "no", "bus": "yes", "highway": "bus_stop", "lit": "yes", "name": "Villa di Bleggio", "public_transport": "platform", "shelter": "no", "tactile_paving": "no"}}, {"type": "node", "id": 5968593358, "lat": 46.0315735, "lon": 10.8468141, "tags": {"bench": "no", "bin": "no", "bus": "yes", "highway": "bus_stop", "lit": "yes", "name": "Sesto bivio", "public_transport": "platform", "shelter": "no", "tactile_paving": "no"}}, {"type": "node", "id": 5968593359, "lat": 46.0309275, "lon": 10.8512869, "tags": {"bus": "yes", "highway": "bus_stop", "name": "Comighello", "public_transport": "platform", "shelter": "no"}}, {"type": "node", "id": 5968593360, "lat": 46.0308266, "lon": 10.8513174, "tags": {"highway": "bus_stop", "name": "Comighello", "public_transport": "platform", "shelter": "yes"}}, {"type": "node", "id": 5968593361, "lat": 46.0327144, "lon": 10.8633372, "tags": {"bus": "yes", "highway": "bus_stop", "name": "Cares", "public_transport": "platform", "shelter": "yes"}}, {"type": "node", "id": 5968593362, "lat": 46.0329671, "lon": 10.8638842, "tags": {"bench": "no", "bus": "yes", "highway": "bus_stop", "name": "Cares", "public_transport": "platform", "shelter": "no"}}, {"type": "node", "id": 5986051118, "lat": 45.7223959, "lon": 10.7804799, "tags": {"bench": "no", "bin": "no", "bus": "yes", "highway": "bus_stop", "lit": "yes", "name": "Acqua Fresca", "network": "ATV", "network:wikidata": "Q3602277", "network:wikipedia": "it:ATV (Verona)", "operator": "ATV", "public_transport": "platform", "shelter": "no", "tactile_paving": "no"}}, {"type": "node", "id": 5986051119, "lat": 45.722287, "lon": 10.7801846, "tags": {"bench": "no", "bin": "no", "bus": "yes", "highway": "bus_stop", "name": "Acqua Fresca", "network": "ATV", "network:wikidata": "Q3602277", "network:wikipedia": "it:ATV (Verona)", "operator": "ATV", "public_transport": "platform", "shelter": "no", "tactile_paving": "no"}}, {"type": "node", "id": 5986051120, "lat": 45.7264673, "lon": 10.7810877, "tags": {"bench": "yes", "bin": "yes", "bus": "yes", "highway": "bus_stop", "name": "Assenza", "network": "ATV", "network:wikidata": "Q3602277", "network:wikipedia": "it:ATV (Verona)", "operator": "ATV", "public_transport": "platform", "shelter": "no", "tactile_paving": "no"}}, {"type": "node", "id": 5986051121, "lat": 45.7263208, "lon": 10.7809652, "tags": {"bench": "no", "bus": "yes", "highway": "bus_stop", "name": "Assenza", "network": "ATV", "network:wikidata": "Q3602277", "network:wikipedia": "it:ATV (Verona)", "operator": "ATV", "public_transport": "platform", "shelter": "no"}}, {"type": "node", "id": 5986051122, "lat": 45.7420879, "lon": 10.7969312, "tags": {"bench": "no", "bin": "no", "bus": "yes", "highway": "bus_stop", "lit": "yes", "name": "Hotel Lido", "network": "ATV", "network:wikidata": "Q3602277", "network:wikipedia": "it:ATV (Verona)", "operator": "ATV", "public_transport": "platform", "shelter": "no", "tactile_paving": "no"}}, {"type": "node", "id": 5986051123, "lat": 45.7421696, "lon": 10.7970982, "tags": {"bench": "no", "bin": "no", "bus": "yes", "highway": "bus_stop", "lit": "yes", "name": "Hotel Lido", "network": "ATV", "network:wikidata": "Q3602277", "network:wikipedia": "it:ATV (Verona)", "operator": "ATV", "public_transport": "platform", "shelter": "no", "tactile_paving": "no"}}, {"type": "node", "id": 5986051124, "lat": 45.7511376, "lon": 10.7985322, "tags": {"bench": "no", "bin": "no", "bus": "yes", "highway": "bus_stop", "name": "Val di Sogno", "network": "ATV", "network:wikidata": "Q3602277", "network:wikipedia": "it:ATV (Verona)", "operator": "ATV", "public_transport": "platform", "shelter": "yes"}}, {"type": "node", "id": 5986610585, "lat": 45.7726305, "lon": 10.8130577, "tags": {"bench": "no", "bin": "no", "bus": "yes", "highway": "bus_stop", "lit": "yes", "name": "Malcesine - Hotel Trevi", "network": "ATV", "network:wikidata": "Q3602277", "network:wikipedia": "it:ATV (Verona)", "operator": "ATV", "public_transport": "platform", "shelter": "no", "tactile_paving": "no"}}, {"type": "node", "id": 5986610586, "lat": 45.7726532, "lon": 10.8129967, "tags": {"bench": "no", "bin": "no", "bus": "yes", "highway": "bus_stop", "lit": "no", "name": "Malcesine - Hotel Trevi", "network": "ATV", "network:wikidata": "Q3602277", "network:wikipedia": "it:ATV (Verona)", "operator": "ATV", "public_transport": "platform", "shelter": "no", "tactile_paving": "no"}}, {"type": "node", "id": 5986610587, "lat": 45.7786053, "lon": 10.8163775, "tags": {"bench": "no", "bin": "no", "bus": "yes", "highway": "bus_stop", "lit": "no", "name": "Malcesine - Locanda Da Tino", "network": "ATV", "network:wikidata": "Q3602277", "network:wikipedia": "it:ATV (Verona)", "operator": "ATV", "public_transport": "platform", "shelter": "no", "tactile_paving": "no"}}, {"type": "node", "id": 5986610588, "lat": 45.7891228, "lon": 10.8245439, "tags": {"bench": "no", "bin": "no", "bus": "yes", "highway": "bus_stop", "lit": "no", "name": "Malcesine - Campagnola", "network": "ATV", "network:wikidata": "Q3602277", "network:wikipedia": "it:ATV (Verona)", "operator": "ATV", "passenger_information_display": "no", "public_transport": "platform", "shelter": "no", "tactile_paving": "no"}}, {"type": "node", "id": 5986610589, "lat": 45.7892589, "lon": 10.8245866, "tags": {"bench": "yes", "bin": "yes", "bus": "yes", "highway": "bus_stop", "lit": "no", "name": "Malcesine - Campagnola", "network": "ATV", "network:wikidata": "Q3602277", "network:wikipedia": "it:ATV (Verona)", "operator": "ATV", "passenger_information_display": "no", "public_transport": "platform", "shelter": "yes", "tactile_paving": "no"}}, {"type": "node", "id": 5986610590, "lat": 45.803977, "lon": 10.8428763, "tags": {"bench": "no", "bin": "no", "bus": "yes", "highway": "bus_stop", "lit": "yes", "name": "Hotel Sole", "network": "ATV", "network:wikidata": "Q3602277", "network:wikipedia": "it:ATV (Verona)", "operator": "ATV", "public_transport": "platform", "shelter": "no", "tactile_paving": "no"}}, {"type": "node", "id": 5986610591, "lat": 45.803833, "lon": 10.8424908, "tags": {"bench": "no", "bin": "no", "bus": "yes", "highway": "bus_stop", "lit": "no", "name": "Hotel Sole", "network": "ATV", "network:wikidata": "Q3602277", "network:wikipedia": "it:ATV (Verona)", "operator": "ATV", "public_transport": "platform", "shelter": "no", "tactile_paving": "no"}}, {"type": "node", "id": 5986610592, "lat": 45.8069271, "lon": 10.8473638, "tags": {"bus": "yes", "highway": "bus_stop", "name": "Terme di Navene", "network": "ATV", "network:wikidata": "Q3602277", "network:wikipedia": "it:ATV (Verona)", "operator": "ATV", "public_transport": "platform", "shelter": "no"}}, {"type": "node", "id": 5986610593, "lat": 45.8068601, "lon": 10.8471583, "tags": {"bus": "yes", "highway": "bus_stop", "name": "Terme di Navene", "network": "ATV", "network:wikidata": "Q3602277", "network:wikipedia": "it:ATV (Verona)", "operator": "ATV", "public_transport": "platform", "shelter": "no"}}, {"type": "node", "id": 5998586874, "lat": 45.8371254, "lon": 10.8597943, "tags": {"bench": "no", "bin": "no", "bus": "yes", "highway": "bus_stop", "lit": "no", "name": "Tempesta", "network": "ATV", "network:wikidata": "Q3602277", "network:wikipedia": "it:ATV (Verona)", "operator": "ATV", "public_transport": "platform", "shelter": "no", "tactile_paving": "no"}}, {"type": "node", "id": 5998586875, "lat": 45.8691142, "lon": 10.8761879, "tags": {"bench": "no", "bin": "yes", "bus": "yes", "highway": "bus_stop", "lit": "yes", "name": "Torbole - Porto", "network": "ATV", "network:wikidata": "Q3602277", "network:wikipedia": "it:ATV (Verona)", "operator": "ATV", "public_transport": "platform", "shelter": "no", "tactile_paving": "no"}}, {"type": "node", "id": 5998586876, "lat": 45.868877, "lon": 10.8764766, "tags": {"bench": "no", "bin": "no", "bus": "yes", "highway": "bus_stop", "lit": "yes", "name": "Torbole - Porto", "network": "ATV", "network:wikidata": "Q3602277", "network:wikipedia": "it:ATV (Verona)", "operator": "ATV", "public_transport": "platform", "shelter": "no", "tactile_paving": "no"}}, {"type": "node", "id": 5998586877, "lat": 45.875694, "lon": 10.8715821, "tags": {"bench": "no", "bin": "no", "bus": "yes", "highway": "bus_stop", "lit": "yes", "name": "Bivio Linfano", "network": "ATV", "network:wikidata": "Q3602277", "network:wikipedia": "it:ATV (Verona)", "operator": "ATV", "public_transport": "platform", "shelter": "no", "tactile_paving": "no"}}, {"type": "node", "id": 5998586878, "lat": 45.8755854, "lon": 10.8715055, "tags": {"bench": "no", "bin": "yes", "bus": "yes", "highway": "bus_stop", "lit": "yes", "name": "Bivio Linfano", "network": "ATV", "network:wikidata": "Q3602277", "network:wikipedia": "it:ATV (Verona)", "operator": "ATV", "public_transport": "platform", "shelter": "no", "tactile_paving": "no"}}, {"type": "node", "id": 5998586879, "lat": 45.8817634, "lon": 10.8544536, "tags": {"bench": "no", "bin": "yes", "bus": "yes", "highway": "bus_stop", "lit": "yes", "name": "Riva del Garda - Viale Rovereto Coop", "network": "ATV", "network:wikidata": "Q3602277", "network:wikipedia": "it:ATV (Verona)", "operator": "ATV", "operator2": "Trentino Trasporti S.p.A.", "public_transport": "platform", "shelter": "no", "tactile_paving": "no"}}, {"type": "node", "id": 5998587085, "lat": 45.8920336, "lon": 10.845536, "tags": {"bus": "yes", "check_date:shelter": "2025-10-09", "highway": "bus_stop", "lit": "yes", "name": "Riva del Garda - Autostazione", "public_transport": "platform", "shelter": "yes", "tactile_paving": "no"}}, {"type": "node", "id": 5998587086, "lat": 45.8919967, "lon": 10.845722, "tags": {"bus": "yes", "check_date:shelter": "2025-10-09", "highway": "bus_stop", "lit": "yes", "name": "Riva del Garda - Autostazione", "public_transport": "platform", "shelter": "yes", "tactile_paving": "no"}}, {"type": "node", "id": 5998587087, "lat": 45.8922127, "lon": 10.845428, "tags": {"bus": "yes", "check_date:shelter": "2025-10-09", "highway": "bus_stop", "lit": "yes", "name": "Riva del Garda - Autostazione", "public_transport": "platform", "shelter": "yes", "tactile_paving": "no"}}, {"type": "node", "id": 5998587088, "lat": 45.8919668, "lon": 10.8459026, "tags": {"bus": "yes", "highway": "bus_stop", "lit": "yes", "name": "Riva del Garda (tutti gli autobus)", "network": "ATV", "network:wikidata": "Q3602277", "network:wikipedia": "it:ATV (Verona)", "operator": "ATV", "public_transport": "platform", "shelter": "yes", "tactile_paving": "no"}}, {"type": "node", "id": 5998587091, "lat": 45.8920128, "lon": 10.8456197, "tags": {"bus": "yes", "check_date:shelter": "2025-10-09", "highway": "bus_stop", "lit": "yes", "name": "Riva del Garda - Autostazione", "public_transport": "platform", "shelter": "yes", "tactile_paving": "no"}}, {"type": "node", "id": 6201285010, "lat": 45.8900141, "lon": 10.6718945, "tags": {"bus": "yes", "highway": "bus_stop", "name": "Tiarno di Sopra", "operator": "Trentino trasporti S.p.A.", "public_transport": "platform"}}, {"type": "node", "id": 6486181298, "lat": 45.8076199, "lon": 10.7873011, "tags": {"bench": "no", "bus": "yes", "highway": "bus_stop", "name": "Limone bivio per Tremosine", "operator": "Trasporti Brescia Nord", "public_transport": "platform", "shelter": "no"}}, {"type": "node", "id": 6486389564, "lat": 45.9094204, "lon": 10.8705043, "tags": {"bus": "yes", "highway": "bus_stop", "name": "Arco S.Caterina Poli", "public_transport": "platform", "shelter": "yes"}}, {"type": "node", "id": 6504785192, "lat": 45.8707923, "lon": 10.7745631, "tags": {"bus": "yes", "highway": "bus_stop", "name": "Molina - Scuole", "operator": "Trentino Trasporti S.p.A.", "public_transport": "platform", "shelter": "no"}}, {"type": "node", "id": 6504785193, "lat": 45.8736374, "lon": 10.7665474, "tags": {"bench": "yes", "bin": "no", "bus": "yes", "departures_board": "timetable", "highway": "bus_stop", "lit": "yes", "name": "Molina Di Ledro-lago (Palafitte)", "operator": "Trentino trasporti S.p.A.", "public_transport": "platform", "shelter": "yes", "tactile_paving": "no"}}, {"type": "node", "id": 6504785194, "lat": 45.8739945, "lon": 10.7664974, "tags": {"bench": "no", "bin": "no", "bus": "yes", "highway": "bus_stop", "lit": "yes", "name": "Molina Di Ledro-lago (Palafitte)", "operator": "Trentino trasporti S.p.A.", "public_transport": "platform", "shelter": "no", "tactile_paving": "no"}}, {"type": "node", "id": 6504785195, "lat": 45.8709644, "lon": 10.781571, "tags": {"bench": "yes", "bin": "yes", "bus": "yes", "highway": "bus_stop", "name": "Barcesino", "operator": "Trentino trasporti S.p.A.", "public_transport": "platform", "shelter": "yes", "tactile_paving": "no"}}, {"type": "node", "id": 6504785196, "lat": 45.8710543, "lon": 10.7798489, "tags": {"bench": "yes", "bin": "no", "bus": "yes", "highway": "bus_stop", "lit": "no", "name": "Barcesino", "operator": "Trentino trasporti S.p.A.", "public_transport": "platform", "shelter": "no", "tactile_paving": "no"}}, {"type": "node", "id": 6504785197, "lat": 45.8650112, "lon": 10.8054335, "tags": {"bench": "yes", "bus": "yes", "highway": "bus_stop", "name": "Biacesa", "operator": "Trentino trasporti S.p.A.", "public_transport": "platform", "shelter": "no"}}, {"type": "node", "id": 6504785198, "lat": 45.8651213, "lon": 10.8054011, "tags": {"bench": "yes", "bus": "yes", "highway": "bus_stop", "name": "Biacesa", "operator": "Trentino trasporti S.p.A.", "public_transport": "platform", "shelter": "no"}}, {"type": "node", "id": 6504810985, "lat": 45.8645599, "lon": 10.813509, "tags": {"bench": "no", "bin": "no", "bus": "yes", "highway": "bus_stop", "lit": "no", "name": "Pregasina Bivio", "operator": "Trentino trasporti S.p.A.", "public_transport": "platform", "shelter": "no", "tactile_paving": "no"}}, {"type": "node", "id": 6555425122, "lat": 45.9003656, "lon": 10.7256661, "tags": {"bench": "yes", "bus": "yes", "highway": "bus_stop", "name": "Locca", "operator": "Trentino Trasporti S.p.A.", "public_transport": "platform", "shelter": "yes"}}, {"type": "node", "id": 6555425123, "lat": 45.9005196, "lon": 10.725588, "tags": {"bench": "no", "bus": "yes", "highway": "bus_stop", "name": "Locca", "operator": "Trentino Trasporti S.p.A.", "public_transport": "platform", "shelter": "no"}}, {"type": "node", "id": 6563209343, "lat": 45.8807538, "lon": 10.7508228, "tags": {"bench": "yes", "bus": "yes", "departures_board": "timetable", "highway": "bus_stop", "lit": "yes", "name": "Mezzolago", "operator": "Trentino trasporti S.p.A.", "public_transport": "platform", "shelter": "yes", "tactile_paving": "no"}}, {"type": "node", "id": 6563209344, "lat": 45.8810053, "lon": 10.7506929, "tags": {"bench": "yes", "bus": "yes", "departures_board": "timetable", "highway": "bus_stop", "lit": "yes", "name": "Mezzolago", "operator": "Trentino trasporti S.p.A.", "public_transport": "platform", "shelter": "yes", "tactile_paving": "no"}}, {"type": "node", "id": 6665739475, "lat": 45.8837113, "lon": 10.8388241, "tags": {"bench": "no", "bin": "no", "bus": "yes", "highway": "bus_stop", "lit": "yes", "name": "Rivetta - Piazza Catena", "public_transport": "platform", "shelter": "no", "tactile_paving": "no"}}, {"type": "node", "id": 6665810240, "lat": 45.89784, "lon": 10.8376208, "tags": {"bus": "yes", "highway": "bus_stop", "name": "Rivetta - Fiere", "public_transport": "platform", "shelter": "no"}}, {"type": "node", "id": 6665811460, "lat": 45.8861535, "lon": 10.8443176, "tags": {"bench": "no", "bin": "yes", "bus": "yes", "highway": "bus_stop", "lit": "yes", "name": "Riva del Garda - Viale Dante Alighieri", "public_transport": "platform", "shelter": "no", "tactile_paving": "no"}}, {"type": "node", "id": 6761570283, "lat": 45.7835495, "lon": 10.6183945, "tags": {"bus": "yes", "highway": "bus_stop", "name": "Magasa centro, bivio per Cima Rest", "public_transport": "platform"}}, {"type": "node", "id": 6984342630, "lat": 45.89383, "lon": 10.8611343, "tags": {"bus": "yes", "highway": "bus_stop", "name": "San Giorgo La Grotta", "public_transport": "platform"}}, {"type": "node", "id": 6988138839, "lat": 46.0077224, "lon": 10.8492523, "tags": {"bus": "yes", "highway": "bus_stop", "name": "Stumiaga", "public_transport": "platform"}}, {"type": "node", "id": 7146483534, "lat": 45.9656159, "lon": 10.8116298, "tags": {"bench": "yes", "bus": "yes", "highway": "bus_stop", "lit": "yes", "name": "Fiav\u00e9 - Ballino", "public_transport": "platform", "shelter": "yes", "tactile_paving": "no"}}, {"type": "node", "id": 7146483535, "lat": 45.9656636, "lon": 10.8115046, "tags": {"bench": "yes", "bus": "yes", "highway": "bus_stop", "lit": "yes", "name": "Fiav\u00e9 - Ballino", "public_transport": "platform", "shelter": "no", "tactile_paving": "no"}}, {"type": "node", "id": 7618595035, "lat": 45.9226288, "lon": 10.8179163, "tags": {"bus": "yes", "highway": "bus_stop", "name": "Pranzo", "public_transport": "platform", "shelter": "yes"}}, {"type": "node", "id": 7618595134, "lat": 45.9248562, "lon": 10.8171927, "tags": {"bus": "yes", "highway": "bus_stop", "name": "Pranzo Via dei Castagni", "public_transport": "platform"}}, {"type": "node", "id": 7620308949, "lat": 45.9244683, "lon": 10.8145819, "tags": {"bus": "yes", "highway": "bus_stop", "name": "Campi Bivio SP 37", "operator": "Trentino trasporti S.p.A.", "public_transport": "platform"}}, {"type": "node", "id": 7623511278, "lat": 45.9181657, "lon": 10.8326537, "tags": {"bus": "yes", "departures_board": "yes", "highway": "bus_stop", "name": "Tenno Rist. Alla Croce", "public_transport": "platform", "shelter": "yes"}}, {"type": "node", "id": 7623511279, "lat": 45.9181198, "lon": 10.8328531, "tags": {"bus": "yes", "departures_board": "yes", "highway": "bus_stop", "name": "Tenno Rist. Alla Croce", "public_transport": "platform", "shelter": "no"}}, {"type": "node", "id": 7832896965, "lat": 45.7800501, "lon": 10.7544125, "tags": {"bus": "yes", "highway": "bus_stop", "name": "Tremosine Priezzo", "public_transport": "platform", "shelter": "no"}}, {"type": "node", "id": 7832896966, "lat": 45.7799929, "lon": 10.7545121, "tags": {"bus": "yes", "highway": "bus_stop", "name": "Tremosine Priezzo", "public_transport": "platform"}}, {"type": "node", "id": 7846178687, "lat": 45.9021949, "lon": 10.8599537, "tags": {"bus": "yes", "highway": "bus_stop", "lit": "yes", "name": "Riva Del G. S. Tomaso-direc. Arco", "public_transport": "platform"}}, {"type": "node", "id": 7908954897, "lat": 45.8920563, "lon": 10.8454302, "tags": {"bus": "yes", "check_date:shelter": "2025-10-09", "highway": "bus_stop", "lit": "yes", "name": "Riva del Garda - Autostazione", "public_transport": "platform", "shelter": "yes", "tactile_paving": "no"}}, {"type": "node", "id": 7908954898, "lat": 45.8920722, "lon": 10.8453309, "tags": {"bus": "yes", "check_date:shelter": "2025-10-09", "highway": "bus_stop", "lit": "yes", "name": "Riva del Garda - Autostazione", "public_transport": "platform", "shelter": "yes", "tactile_paving": "no"}}, {"type": "node", "id": 7908954899, "lat": 45.8919761, "lon": 10.8458097, "tags": {"bus": "yes", "highway": "bus_stop", "lit": "yes", "name": "Riva del Garda - Autostazione", "public_transport": "platform", "shelter": "yes", "tactile_paving": "no"}}, {"type": "node", "id": 7908954900, "lat": 45.8921702, "lon": 10.8456193, "tags": {"bench": "yes", "bin": "yes", "bus": "yes", "highway": "bus_stop", "lit": "yes", "name": "Riva del Garda - Autostazione", "public_transport": "platform", "shelter": "yes", "tactile_paving": "no"}}, {"type": "node", "id": 7908954901, "lat": 45.8920862, "lon": 10.8458178, "tags": {"bus": "yes", "highway": "bus_stop", "lit": "yes", "name": "Riva del Garda - Autostazione", "public_transport": "platform", "shelter": "yes", "tactile_paving": "no"}}, {"type": "node", "id": 7936248532, "lat": 45.8948379, "lon": 10.8425997, "tags": {"bench": "no", "bin": "no", "bus": "yes", "highway": "bus_stop", "lit": "no", "name": "Riva del Garda Bivio Val di Ledro", "operator": "Trentino trasporti S.p.A.", "public_transport": "platform", "shelter": "no", "tactile_paving": "no"}}, {"type": "node", "id": 7938847438, "lat": 45.8903774, "lon": 10.8430194, "tags": {"bench": "no", "bin": "no", "bus": "yes", "departures_board": "yes", "highway": "bus_stop", "leaf_type": "broadleaved", "lit": "yes", "name": "Riva del Garda - Viale dei Tigli 8", "natural": "tree", "operator": "Trentino Trasporti S.p.A.", "public_transport": "platform", "shelter": "no", "tactile_paving": "no"}}, {"type": "node", "id": 7942634585, "lat": 45.8886281, "lon": 10.8405408, "tags": {"bench": "no", "bin": "no", "bus": "yes", "check_date:shelter": "2024-07-27", "highway": "bus_stop", "lit": "yes", "name": "Riva Viale Canella", "public_transport": "platform", "shelter": "no", "tactile_paving": "no"}}, {"type": "node", "id": 7960974215, "lat": 45.9348903, "lon": 10.8121795, "tags": {"bench": "no", "bin": "no", "highway": "bus_stop", "name": "Lago di Tenno", "public_transport": "platform", "shelter": "no", "tactile_paving": "no"}}, {"type": "node", "id": 7968021285, "lat": 45.9304449, "lon": 10.824141, "tags": {"bench": "yes", "bus": "yes", "highway": "bus_stop", "name": "Villa S. Antonio", "public_transport": "platform", "shelter": "yes"}}, {"type": "node", "id": 7978916152, "lat": 45.9265191, "lon": 10.8311171, "tags": {"bench": "yes", "bus": "yes", "highway": "bus_stop", "public_transport": "platform", "shelter": "no"}}, {"type": "node", "id": 7981252861, "lat": 45.9275745, "lon": 10.8255887, "tags": {"bus": "yes", "highway": "bus_stop", "name": "Velle Del Monte I", "public_transport": "platform"}}, {"type": "node", "id": 7982551975, "lat": 45.9133098, "lon": 10.816232, "tags": {"bin": "no", "bus": "yes", "highway": "bus_stop", "name": "Campi loc. Zumiani", "operator": "Trentino trasporti S.p.A.", "public_transport": "platform", "tactile_paving": "no"}}, {"type": "node", "id": 7986396209, "lat": 45.9110869, "lon": 10.8115804, "tags": {"bus": "yes", "highway": "bus_stop", "name": "Campi", "operator": "Trentino trasporti S.p.A.", "public_transport": "platform", "shelter": "yes"}}, {"type": "node", "id": 8023660872, "lat": 45.9173154, "lon": 10.8776368, "tags": {"bench": "no", "bin": "no", "bus": "yes", "highway": "bus_stop", "lit": "yes", "name:signed": "no", "public_transport": "platform", "shelter": "no", "tactile_paving": "no"}}, {"type": "node", "id": 8026231111, "lat": 45.9122029, "lon": 10.874969, "tags": {"bus": "yes", "highway": "bus_stop", "lit": "yes", "name": "Arco Via S. Caterina", "public_transport": "platform", "shelter": "yes"}}, {"type": "node", "id": 8026231116, "lat": 45.9122199, "lon": 10.8752328, "tags": {"bus": "yes", "highway": "bus_stop", "lit": "yes", "name": "Arco Via S. Caterina", "public_transport": "platform", "shelter": "yes"}}, {"type": "node", "id": 8039230902, "lat": 45.9194849, "lon": 10.8659226, "tags": {"bus": "yes", "highway": "bus_stop", "name": "Vigne", "public_transport": "platform"}}, {"type": "node", "id": 8059817400, "lat": 45.9194027, "lon": 10.8630516, "tags": {"bus": "yes", "highway": "bus_stop", "lit": "yes", "name": "Vigne cimitero", "public_transport": "platform"}}, {"type": "node", "id": 8071785641, "lat": 45.9139916, "lon": 10.841603, "tags": {"bus": "yes", "highway": "bus_stop", "name": "Cologna Belvedere", "public_transport": "platform"}}, {"type": "node", "id": 8071785646, "lat": 45.9138554, "lon": 10.841603, "tags": {"bus": "yes", "highway": "bus_stop", "name": "Cologna Belvedere", "public_transport": "platform", "shelter": "no"}}, {"type": "node", "id": 8071819377, "lat": 45.9148951, "lon": 10.8424625, "tags": {"bus": "yes", "highway": "bus_stop", "name": "Cologna", "public_transport": "platform", "shelter": "no"}}, {"type": "node", "id": 8071858958, "lat": 45.9146969, "lon": 10.8423982, "tags": {"bus": "yes", "highway": "bus_stop", "name": "Cologna", "public_transport": "platform", "shelter": "no"}}, {"type": "node", "id": 8074030296, "lat": 45.8010169, "lon": 10.8412647, "tags": {"bench": "yes", "bus": "yes", "highway": "bus_stop", "network": "School bus only", "public_transport": "platform", "shelter": "yes"}}, {"type": "node", "id": 8814339545, "lat": 45.7638834, "lon": 10.8234226, "tags": {"bench": "yes", "bus": "yes", "departures_board": "yes", "highway": "bus_stop", "name": "Passo Campiano", "network": "ATV", "network:wikidata": "Q3602277", "operator": "ATV", "public_transport": "platform", "shelter": "yes"}}, {"type": "node", "id": 8835866858, "lat": 45.8892454, "lon": 10.731008, "tags": {"bench": "yes", "bin": "no", "bus": "yes", "departures_board": "timetable", "highway": "bus_stop", "lit": "yes", "name": "Pieve di Ledro", "operator": "Trentino trasporti S.p.A.", "public_transport": "platform", "shelter": "yes", "tactile_paving": "no"}}, {"type": "node", "id": 8835866860, "lat": 45.8893635, "lon": 10.7307855, "tags": {"bench": "yes", "bin": "no", "bus": "yes", "departures_board": "yes", "highway": "bus_stop", "lit": "yes", "name": "Pieve di Ledro", "operator": "Trentino trasporti S.p.A.", "public_transport": "platform", "shelter": "no", "tactile_paving": "no"}}, {"type": "node", "id": 8837767152, "lat": 45.8892327, "lon": 10.7296765, "tags": {"bus": "yes", "highway": "bus_stop", "name": "Pieve - Via Nuova", "operator": "Trentino trasporti S.p.A.", "public_transport": "platform", "shelter": "no"}}, {"type": "node", "id": 8837767155, "lat": 45.8893647, "lon": 10.729717, "tags": {"bus": "yes", "highway": "bus_stop", "name": "Pieve - Via Nuova", "operator": "Trentino trasporti S.p.A.", "public_transport": "platform", "shelter": "no"}}, {"type": "node", "id": 8839620888, "lat": 45.890578, "lon": 10.7275257, "tags": {"bench": "no", "bus": "yes", "highway": "bus_stop", "lit": "yes", "name": "Pieve Via Nuova", "operator": "Trentino trasporti S.p.A.", "public_transport": "platform", "shelter": "no", "tactile_paving": "no"}}, {"type": "node", "id": 8840976407, "lat": 45.8947654, "lon": 10.7201805, "tags": {"bench": "yes", "bus": "yes", "highway": "bus_stop", "name": "Bezzecca Scuole", "operator": "Trentino trasporti S.p.A.", "public_transport": "platform", "shelter": "yes"}}, {"type": "node", "id": 8841258224, "lat": 45.8975358, "lon": 10.7202745, "tags": {"bus": "yes", "highway": "bus_stop", "name": "Bezzecca Via Lamarmora", "operator": "Trentino Trasporti S.p.A.", "public_transport": "platform"}}, {"type": "node", "id": 8845757389, "lat": 45.8907728, "lon": 10.7273746, "tags": {"bus": "yes", "highway": "bus_stop", "name": "Pieve Via Nuova", "operator": "Trentino trasporti S.p.A.", "public_transport": "platform"}}, {"type": "node", "id": 8850306343, "lat": 45.895235, "lon": 10.7150429, "tags": {"bus": "yes", "highway": "bus_stop", "public_transport": "platform"}}, {"type": "node", "id": 8851211577, "lat": 45.895333, "lon": 10.7151189, "tags": {"bus": "yes", "highway": "bus_stop", "public_transport": "platform"}}, {"type": "node", "id": 8862041719, "lat": 45.8968012, "lon": 10.7196305, "tags": {"bus": "yes", "highway": "bus_stop", "name": "Bezzecca", "operator": "Trentino Trasporti S.p.A.", "public_transport": "platform"}}, {"type": "node", "id": 8874152311, "lat": 46.0011818, "lon": 10.8409385, "tags": {"bus": "yes", "highway": "bus_stop", "name": "Fiav\u00e9 Bar Aurora", "public_transport": "platform"}}, {"type": "node", "id": 8874156700, "lat": 46.0011278, "lon": 10.8410452, "tags": {"bench": "no", "bin": "no", "bus": "yes", "highway": "bus_stop", "name": "Fiav\u00e9 Bar Aurora", "public_transport": "platform", "shelter": "no", "tactile_paving": "no"}}, {"type": "node", "id": 8874664059, "lat": 45.9096915, "lon": 10.72678, "tags": {"bus": "yes", "highway": "bus_stop", "name": "Lenzumo Via U d`Italia", "operator": "Trentino trasporti S.p.A.", "public_transport": "platform"}}, {"type": "node", "id": 8874990656, "lat": 45.9060306, "lon": 10.7288875, "tags": {"bus": "yes", "highway": "bus_stop", "lit": "yes", "name": "Enguiso", "operator": "Trentino trasporti S.p.A.", "public_transport": "platform"}}, {"type": "node", "id": 8901958596, "lat": 45.8717862, "lon": 10.7724188, "tags": {"bench": "yes", "bus": "yes", "highway": "bus_stop", "name": "Molina di Ledro", "public_transport": "platform", "shelter": "yes"}}, {"type": "node", "id": 8911356917, "lat": 45.8930959, "lon": 10.7056731, "tags": {"bus": "yes", "highway": "bus_stop", "name": "Tiarno di Sotto bivio", "operator": "Trentino trasporti S.p.A.", "public_transport": "platform"}}, {"type": "node", "id": 8911356918, "lat": 45.89301, "lon": 10.7056661, "tags": {"bus": "yes", "highway": "bus_stop", "name": "Tiarno di Sotto bivio", "operator": "Trentino trasporti S.p.A.", "public_transport": "platform"}}, {"type": "node", "id": 9121823206, "lat": 45.8789876, "lon": 10.8738914, "tags": {"bench": "yes", "bin": "no", "bus": "yes", "highway": "bus_stop", "lit": "yes", "public_transport": "platform", "shelter": "yes", "tactile_paving": "no"}}, {"type": "node", "id": 9175018193, "lat": 45.791734, "lon": 10.7393958, "tags": {"fixme": "I think this bus stop is not in use on can delete it", "highway": "bus_stop", "public_transport": "platform"}}, {"type": "node", "id": 9558798749, "lat": 46.0365242, "lon": 10.7284182, "tags": {"bus": "yes", "highway": "bus_stop", "name": "Tione-Via Circonvallazione 65", "public_transport": "platform", "shelter": "no"}}, {"type": "node", "id": 9558798750, "lat": 46.0364012, "lon": 10.7281602, "tags": {"bus": "yes", "highway": "bus_stop", "name": "Tione-Via Circonvallazione 65", "public_transport": "platform", "shelter": "no"}}, {"type": "node", "id": 9629518958, "lat": 45.8857531, "lon": 10.8465243, "tags": {"bench": "no", "bin": "no", "bus": "yes", "highway": "bus_stop", "lit": "yes", "name": "Riva del Garda - Viale Carducci Hotel Liberty", "public_transport": "platform", "shelter": "no", "tactile_paving": "no"}}, {"type": "node", "id": 9629518959, "lat": 45.8849333, "lon": 10.849217, "tags": {"bench": "no", "bin": "no", "bus": "yes", "highway": "bus_stop", "lit": "yes", "name": "Riva del Garda - Viale Rovereto/Pascoli 3", "public_transport": "platform", "shelter": "no", "tactile_paving": "no"}}, {"type": "node", "id": 9629518960, "lat": 45.8849043, "lon": 10.8491377, "tags": {"bench": "no", "bin": "no", "bus": "yes", "highway": "bus_stop", "lit": "yes", "name": "Riva del Garda - Viale Rovereto/Pascoli 3", "public_transport": "platform", "shelter": "no", "tactile_paving": "no"}}, {"type": "node", "id": 9751960080, "lat": 46.0119288, "lon": 10.8603542, "tags": {"bus": "yes", "highway": "bus_stop", "name": "Dasindo", "public_transport": "platform"}}, {"type": "node", "id": 9752018231, "lat": 46.0119179, "lon": 10.8602592, "tags": {"bus": "yes", "highway": "bus_stop", "name": "Dasindo", "public_transport": "platform"}}, {"type": "node", "id": 9823101120, "lat": 45.9048923, "lon": 10.8641801, "tags": {"bench": "no", "bin": "no", "bus": "yes", "highway": "bus_stop", "lit": "yes", "name": "Arco S. Caterina Eurospar", "public_transport": "platform", "shelter": "no", "tactile_paving": "no"}}, {"type": "node", "id": 9846202206, "lat": 45.9047592, "lon": 10.8747954, "tags": {"bus": "yes", "highway": "bus_stop", "name": "San Giorgo zona Artigionale", "public_transport": "platform"}}, {"type": "node", "id": 9855089859, "lat": 45.9007243, "lon": 10.8703965, "tags": {"bus": "yes", "highway": "bus_stop", "name": "San Giorgo Inc. Via Sabbioni", "public_transport": "platform", "shelter": "no"}}, {"type": "node", "id": 9855089860, "lat": 45.9006872, "lon": 10.8704745, "tags": {"bus": "yes", "highway": "bus_stop", "name": "San Giorgo Inc. Via Sabbioni", "public_transport": "platform", "shelter": "no"}}, {"type": "node", "id": 9855089904, "lat": 45.8983736, "lon": 10.8671979, "tags": {"bus": "yes", "highway": "bus_stop", "name": "San Giorgo", "public_transport": "platform"}}, {"type": "node", "id": 9855089905, "lat": 45.8988131, "lon": 10.8676721, "tags": {"bench": "no", "bus": "yes", "highway": "bus_stop", "name": "San Giorgo", "public_transport": "platform", "shelter": "yes"}}, {"type": "node", "id": 9863710147, "lat": 45.8936796, "lon": 10.8606797, "tags": {"bus": "yes", "highway": "bus_stop", "name": "San Giorgo La Grotta", "public_transport": "platform"}}, {"type": "node", "id": 9865901778, "lat": 45.884596, "lon": 10.8630343, "tags": {"bench": "no", "bin": "no", "bus": "yes", "highway": "bus_stop", "public_transport": "platform", "shelter": "no", "tactile_paving": "no"}}, {"type": "node", "id": 9867509861, "lat": 45.8815838, "lon": 10.8618626, "tags": {"bench": "no", "bin": "no", "bus": "yes", "highway": "bus_stop", "lit": "yes", "name": "Brione Campeggio", "public_transport": "platform", "shelter": "no", "tactile_paving": "no"}}, {"type": "node", "id": 9867509862, "lat": 45.8815412, "lon": 10.8619146, "tags": {"bench": "no", "bin": "no", "bus": "yes", "highway": "bus_stop", "lit": "yes", "name": "Brione Campeggio", "public_transport": "platform", "shelter": "no", "tactile_paving": "no"}}, {"type": "node", "id": 9871658654, "lat": 45.8794122, "lon": 10.8590096, "tags": {"bench": "yes", "bus": "yes", "highway": "bus_stop", "name": "Brione Case Itea", "public_transport": "platform", "shelter": "yes"}}, {"type": "node", "id": 9871789609, "lat": 45.8799431, "lon": 10.859433, "tags": {"bus": "yes", "highway": "bus_stop", "public_transport": "platform", "shelter": "no"}}, {"type": "node", "id": 9880484181, "lat": 45.893874, "lon": 10.8526049, "tags": {"bench": "no", "bin": "no", "bus": "yes", "highway": "bus_stop", "public_transport": "platform", "shelter": "no", "tactile_paving": "no"}}, {"type": "node", "id": 9884649300, "lat": 45.9029721, "lon": 10.8610273, "tags": {"bus": "yes", "highway": "bus_stop", "name": "Riva del G. S. Tomaso direz. Riva", "public_transport": "platform", "shelter": "yes"}}, {"type": "node", "id": 9894439099, "lat": 45.9093649, "lon": 10.8551115, "tags": {"bus": "yes", "highway": "bus_stop", "public_transport": "platform", "shelter": "no"}}, {"type": "node", "id": 9894497466, "lat": 45.9098806, "lon": 10.8557429, "tags": {"bench": "no", "bus": "yes", "highway": "bus_stop", "name": "Ceole cementificio", "public_transport": "platform", "shelter": "no"}}, {"type": "node", "id": 9895428871, "lat": 46.0240459, "lon": 10.86565, "tags": {"bench": "yes", "bus": "yes", "highway": "bus_stop", "name": "Campo Lomaso", "public_transport": "platform", "shelter": "yes"}}, {"type": "node", "id": 9895428872, "lat": 46.0239906, "lon": 10.8655584, "tags": {"bench": "no", "bin": "no", "bus": "yes", "highway": "bus_stop", "lit": "yes", "name": "Campo Lomaso", "public_transport": "platform", "shelter": "no", "tactile_paving": "no"}}, {"type": "node", "id": 9895543859, "lat": 46.0220688, "lon": 10.8667351, "tags": {"bus": "yes", "highway": "bus_stop", "name": "Camp Lomaso li", "public_transport": "platform"}}, {"type": "node", "id": 9895543860, "lat": 46.0218395, "lon": 10.866665, "tags": {"bus": "yes", "highway": "bus_stop", "name": "Campo Lomaso li", "public_transport": "platform"}}, {"type": "node", "id": 9906917791, "lat": 45.9845497, "lon": 10.6722954, "tags": {"bus": "yes", "highway": "bus_stop", "name": "Roncone", "public_transport": "platform"}}, {"type": "node", "id": 9993102054, "lat": 45.9164573, "lon": 10.6026671, "tags": {"bench": "yes", "bus": "yes", "highway": "bus_stop", "name": "Castel Condino", "public_transport": "platform", "shelter": "yes"}}, {"type": "node", "id": 10000676415, "lat": 45.7824887, "lon": 10.7494272, "tags": {"bench": "no", "bin": "no", "bus": "yes", "departures_board": "timetable", "highway": "bus_stop", "public_transport": "platform", "shelter": "no", "tactile_paving": "no"}}, {"type": "node", "id": 10007461074, "lat": 45.7797512, "lon": 10.7594309, "tags": {"bench": "no", "bin": "no", "bus": "yes", "departures_board": "timetable", "highway": "bus_stop", "name": "Tremosine-rist. la brasa", "network": "Arriva", "network:wikidata": "Q680991", "operator": "Arriva", "public_transport": "platform", "shelter": "no", "tactile_paving": "no"}}, {"type": "node", "id": 10007461075, "lat": 45.7796022, "lon": 10.7594058, "tags": {"bench": "no", "bin": "no", "bus": "yes", "departures_board": "timetable", "highway": "bus_stop", "name": "Tremosine-rist. la brasa", "network": "Arriva", "network:wikidata": "Q680991", "operator": "Arriva", "public_transport": "platform", "ref": "427B19", "shelter": "no", "tactile_paving": "no"}}, {"type": "node", "id": 10008909040, "lat": 45.8643993, "lon": 10.8126953, "tags": {"bench": "no", "bin": "no", "bus": "yes", "highway": "bus_stop", "lit": "no", "name": "Pregasina Bivio", "operator": "Trentino trasporti S.p.A.", "public_transport": "platform", "shelter": "no", "tactile_paving": "no"}}, {"type": "node", "id": 10579367737, "lat": 45.9694303, "lon": 10.6610611, "tags": {"bench": "yes", "bus": "yes", "highway": "bus_stop", "name": "Lardaro", "public_transport": "platform", "shelter": "yes"}}, {"type": "node", "id": 10993978906, "lat": 45.9188093, "lon": 10.8759918, "tags": {"highway": "bus_stop", "name": "Arco Ospedale", "public_transport": "platform"}}, {"type": "node", "id": 10993979205, "lat": 45.9027695, "lon": 10.8436415, "tags": {"bus": "yes", "highway": "bus_stop", "name": "Varone scuole Alberghiera", "public_transport": "platform"}}, {"type": "node", "id": 11204766091, "lat": 45.8954735, "lon": 10.8503071, "tags": {"bench": "yes", "bin": "yes", "bus": "yes", "highway": "bus_stop", "public_transport": "platform", "shelter": "yes", "tactile_paving": "no"}}, {"type": "node", "id": 11360219868, "lat": 45.8913612, "lon": 10.6750252, "tags": {"bench": "no", "bin": "no", "bus": "yes", "highway": "bus_stop", "name": "Tiarno di Sopra Cooperativa", "operator": "Trentino trasporti S.p.A.", "public_transport": "platform", "shelter": "no", "tactile_paving": "no"}}, {"type": "node", "id": 11360219869, "lat": 45.8912057, "lon": 10.6748326, "tags": {"bench": "no", "bin": "no", "bus": "yes", "highway": "bus_stop", "name": "Tiarno di Sopra Cooperativa", "operator": "Trentino trasporti S.p.A.", "public_transport": "platform", "shelter": "no", "tactile_paving": "no"}}, {"type": "node", "id": 11360319478, "lat": 45.8899165, "lon": 10.6719246, "tags": {"bus": "yes", "highway": "bus_stop", "name": "Tiarno di sopra", "operator": "Trentino trasporti S.p.A.", "public_transport": "platform", "shelter": "no"}}, {"type": "node", "id": 11360381568, "lat": 45.8929482, "lon": 10.6809779, "tags": {"bus": "yes", "highway": "bus_stop", "name": "Tiarno di Sotto Garage", "operator": "Trentino trasporti S.p.A.", "public_transport": "platform"}}, {"type": "node", "id": 11360401569, "lat": 45.8929697, "lon": 10.6807559, "tags": {"bus": "yes", "highway": "bus_stop", "name": "Tiarno di Sotto Garage", "operator": "Trentino trasporti S.p.A.", "public_transport": "platform"}}, {"type": "node", "id": 11398723478, "lat": 45.8756683, "lon": 10.6582429, "tags": {"bench": "no", "bin": "no", "bus": "yes", "highway": "bus_stop", "name": "Ampola Agritur", "operator": "Trentino trasporti S.p.A.", "public_transport": "platform", "shelter": "no"}}, {"type": "node", "id": 11398723479, "lat": 45.8757533, "lon": 10.6582952, "tags": {"bench": "no", "bin": "no", "bus": "yes", "highway": "bus_stop", "name": "Ampola Agritur", "operator": "Trentino trasporti S.p.A.", "public_transport": "platform", "shelter": "no", "tactile_paving": "no"}}, {"type": "node", "id": 11494071888, "lat": 45.8716755, "lon": 10.772331, "tags": {"bench": "yes", "bus": "yes", "highway": "bus_stop", "name": "Molina di Ledro", "public_transport": "platform", "shelter": "yes"}}, {"type": "node", "id": 11496584528, "lat": 45.8928861, "lon": 10.6909022, "tags": {"bench": "no", "bin": "no", "bus": "yes", "highway": "bus_stop", "name": "Tiarno di Sotto Loc. Degara", "operator": "Trentino trasporti S.p.A.", "public_transport": "platform", "shelter": "no", "tactile_paving": "no"}}, {"type": "node", "id": 11496678384, "lat": 45.8930978, "lon": 10.689965, "tags": {"bus": "yes", "highway": "bus_stop", "name": "Tiarno di Sotto Loc. Degara", "operator": "Trentino trasporti S.p.A.", "public_transport": "platform"}}, {"type": "node", "id": 11496850979, "lat": 45.8933551, "lon": 10.6867384, "tags": {"bus": "yes", "highway": "bus_stop", "name": "Tiarno di sotto Loc. Degara", "operator": "Trentino trasporti S.p.A.", "public_transport": "platform", "shelter": "yes"}}, {"type": "node", "id": 11497450534, "lat": 45.8935446, "lon": 10.6866024, "tags": {"bus": "yes", "highway": "bus_stop", "name": "Tiarno di Sotto", "operator": "Trentino trasporti S.p.A.", "public_transport": "platform", "shelter": "no"}}, {"type": "node", "id": 11501798031, "lat": 45.8927599, "lon": 10.7025917, "tags": {"bus": "yes", "highway": "bus_stop", "name": "Tiarno Di Sotto S.Lucia", "operator": "Trentino trasporti S.p.A.", "public_transport": "platform"}}, {"type": "node", "id": 11501798032, "lat": 45.8927632, "lon": 10.7014882, "tags": {"bus": "yes", "highway": "bus_stop", "name": "Tiarno Di Sotto S.Lucia", "operator": "Trentino trasporti S.p.A.", "public_transport": "platform"}}, {"type": "node", "id": 11501867594, "lat": 45.864544, "lon": 10.6456706, "tags": {"bus": "yes", "highway": "bus_stop", "name": "Tremalzo Bivio", "public_transport": "platform", "shelter": "no"}}, {"type": "node", "id": 11501867596, "lat": 45.8638604, "lon": 10.6446638, "tags": {"bus": "yes", "highway": "bus_stop", "name": "Tremalzo Bivio", "public_transport": "platform", "shelter": "no"}}, {"type": "node", "id": 11501867600, "lat": 45.8565841, "lon": 10.8297501, "tags": {"bus": "yes", "highway": "bus_stop", "name": "Pregasina Regina Mundi", "operator": "Trentino trasporti S.p.A.", "public_transport": "platform", "shelter": "no"}}, {"type": "node", "id": 11501867601, "lat": 45.8509955, "lon": 10.8244725, "tags": {"bus": "yes", "highway": "bus_stop", "name": "Pregasina", "operator": "Trentino trasporti S.p.A.", "public_transport": "platform"}}, {"type": "node", "id": 11505365808, "lat": 45.95476, "lon": 10.6502084, "tags": {"bus": "yes", "highway": "bus_stop", "name": "Agrone", "public_transport": "platform"}}, {"type": "node", "id": 11505365809, "lat": 45.9553135, "lon": 10.6506602, "tags": {"bus": "yes", "highway": "bus_stop", "name": "Agrone", "public_transport": "platform"}}, {"type": "node", "id": 11522206286, "lat": 45.8934017, "lon": 10.7236459, "tags": {"bus": "yes", "highway": "bus_stop", "operator": "Trentino trasporti S.p.A.", "public_transport": "platform", "shelter": "no"}}, {"type": "node", "id": 11527306938, "lat": 45.9059463, "lon": 10.7291055, "tags": {"bus": "yes", "highway": "bus_stop", "name": "Enguiso", "operator": "Trentino trasporti S.p.A.", "public_transport": "platform"}}, {"type": "node", "id": 11530191627, "lat": 45.8946816, "lon": 10.8427801, "tags": {"bench": "no", "bin": "no", "bus": "yes", "highway": "bus_stop", "lit": "no", "name": "Riva del Garda Bivio Val di Ledro", "operator": "Trentino trasporti S.p.A.", "public_transport": "platform", "shelter": "no", "tactile_paving": "no"}}, {"type": "node", "id": 11530225815, "lat": 45.9132296, "lon": 10.7286234, "tags": {"bus": "yes", "highway": "bus_stop", "name": "Lenzumo Bar Taverna", "operator": "Trentino trasporti S.p.A.", "public_transport": "platform"}}, {"type": "node", "id": 11530228656, "lat": 45.8664524, "lon": 10.7881013, "tags": {"bench": "yes", "bus": "yes", "departures_board": "timetable", "highway": "bus_stop", "name": "Pr\u00e8", "operator": "Trentino trasporti S.p.A.", "public_transport": "platform", "shelter": "yes"}}, {"type": "node", "id": 11530257381, "lat": 45.8825697, "lon": 10.6660367, "tags": {"bus": "yes", "highway": "bus_stop", "name": "Tiarno di Sopra Mariani", "operator": "Trentino trasporti S.p.A.", "public_transport": "platform"}}, {"type": "node", "id": 11530257382, "lat": 45.8826828, "lon": 10.6662493, "tags": {"bus": "yes", "highway": "bus_stop", "name": "Tiarno di Sopra Mariani", "operator": "Trentino trasporti S.p.A.", "public_transport": "platform"}}, {"type": "node", "id": 11530301189, "lat": 45.8431191, "lon": 10.6206729, "tags": {"bench": "no", "bin": "no", "bus": "yes", "departures_board": "yes", "highway": "bus_stop", "name": "Ampola Forte", "operator": "Trentino trasporti S.p.A.", "public_transport": "platform", "shelter": "no", "tactile_paving": "no"}}, {"type": "node", "id": 11530301190, "lat": 45.8434781, "lon": 10.6198603, "tags": {"bench": "no", "bin": "no", "bus": "yes", "departures_board": "yes", "highway": "bus_stop", "lit": "no", "name": "Forte Ampola", "operator": "Trentino trasporti S.p.A.", "public_transport": "platform", "shelter": "no", "tactile_paving": "no"}}, {"type": "node", "id": 11530302310, "lat": 45.8904389, "lon": 10.8429354, "tags": {"bench": "no", "bin": "no", "bus": "yes", "departures_board": "yes", "highway": "bus_stop", "lit": "yes", "name": "Riva del Garda - Viale dei Tigli 8 (11)", "operator": "Trentino Trasporti S.p.A.", "public_transport": "platform", "shelter": "no", "tactile_paving": "no"}}, {"type": "node", "id": 11530302311, "lat": 45.8921552, "lon": 10.8429063, "tags": {"bench": "yes", "bin": "yes", "bus": "yes", "departures_board": "timetable", "highway": "bus_stop", "lit": "yes", "name": "Riva del Garda - Viale dei Tigli 21", "operator": "Trentino Trasporti S.p.A.", "public_transport": "platform", "shelter": "no", "tactile_paving": "no"}}, {"type": "node", "id": 11531169512, "lat": 45.9112436, "lon": 10.8111006, "tags": {"bus": "yes", "highway": "bus_stop", "name": "Campi", "operator": "Trentino trasporti S.p.A.", "public_transport": "platform"}}, {"type": "node", "id": 11531225296, "lat": 45.9131788, "lon": 10.8160842, "tags": {"bench": "no", "bin": "no", "bus": "yes", "highway": "bus_stop", "name": "Campi loc. Zumiani", "operator": "Trentino trasporti S.p.A.", "public_transport": "platform", "shelter": "no", "tactile_paving": "no"}}, {"type": "node", "id": 11531225299, "lat": 45.9255395, "lon": 10.8152174, "tags": {"bus": "yes", "highway": "bus_stop", "name": "Campi Bivio SP 37", "operator": "Trentino trasporti S.p.A.", "public_transport": "platform"}}, {"type": "node", "id": 11532932473, "lat": 45.9124442, "lon": 10.7263062, "tags": {"bus": "yes", "highway": "bus_stop", "name": "Lenzumo", "public_transport": "platform", "shelter": "yes"}}, {"type": "node", "id": 11542643683, "lat": 45.909555, "lon": 10.729019, "tags": {"bus": "yes", "departures_board": "no", "highway": "bus_stop", "name": "Enguisio Via del Bo`", "operator": "Trentino trasporti S.p.A.", "public_transport": "platform", "shelter": "no"}}, {"type": "node", "id": 11778790217, "lat": 45.9063535, "lon": 10.8661655, "tags": {"bus": "yes", "highway": "bus_stop", "name": "Arco Bivio SP36 Grazie", "public_transport": "platform"}}, {"type": "node", "id": 11822014441, "lat": 45.9225719, "lon": 10.8182369, "tags": {"bus": "yes", "highway": "bus_stop", "name": "Pranzo", "public_transport": "platform", "shelter": "yes"}}, {"type": "node", "id": 11822014442, "lat": 45.9214291, "lon": 10.8202485, "tags": {"bus": "yes", "highway": "bus_stop", "name": "Pranzo Via Pernici", "public_transport": "platform"}}, {"type": "node", "id": 11822014456, "lat": 45.9085186, "lon": 10.833673, "tags": {"bench": "yes", "bus": "yes", "highway": "bus_stop", "lit": "yes", "name": "Deva", "public_transport": "platform", "shelter": "no", "tactile_paving": "no"}}, {"type": "node", "id": 11822115009, "lat": 45.900181, "lon": 10.8337096, "tags": {"bus": "yes", "highway": "bus_stop", "name": "Riva del Garda Loc. Dom", "public_transport": "platform"}}, {"type": "node", "id": 12411475922, "lat": 45.9014628, "lon": 10.8443967, "tags": {"bus": "yes", "highway": "bus_stop", "name": "Varone, Viale Oleandri", "public_transport": "platform"}}, {"type": "node", "id": 12709576834, "lat": 45.8217135, "lon": 10.8015043, "tags": {"bus": "yes", "highway": "bus_stop", "name": "Limone Supino", "public_transport": "platform", "shelter": "no"}}, {"type": "node", "id": 12736834180, "lat": 45.8448289, "lon": 10.8285078, "tags": {"bus": "yes", "highway": "bus_stop", "name": "Riva Surf Hotel Pier", "public_transport": "platform", "shelter": "no", "tactile_paving": "no"}}, {"type": "node", "id": 12737524712, "lat": 45.8246094, "lon": 10.8122362, "tags": {"bus": "yes", "highway": "bus_stop", "name": "Limone - Loc. Reamol, ciclopista panoramica", "public_transport": "platform", "shelter": "no"}}, {"type": "node", "id": 12842416048, "lat": 45.91629, "lon": 10.8768618, "tags": {"bench": "no", "bin": "no", "highway": "bus_stop", "lit": "yes", "name": "Arco Via Frumento", "public_transport": "platform", "shelter": "no", "tactile_paving": "no"}}, {"type": "node", "id": 12844678528, "lat": 45.9940958, "lon": 10.8383024, "tags": {"bus": "yes", "highway": "bus_stop", "name": "Dos", "public_transport": "platform"}}, {"type": "node", "id": 12844678529, "lat": 45.9925081, "lon": 10.8379054, "tags": {"bus": "yes", "highway": "bus_stop", "name": "Torbiera", "public_transport": "platform"}}, {"type": "node", "id": 12844678530, "lat": 46.0133043, "lon": 10.8691478, "tags": {"bus": "yes", "highway": "bus_stop", "name": "Vigo Lomaso", "public_transport": "platform", "shelter": "no", "tactile_paving": "no"}}, {"type": "node", "id": 12844678531, "lat": 46.0044759, "lon": 10.8422667, "tags": {"bus": "yes", "highway": "bus_stop", "name": "Fiav\u00e9", "public_transport": "platform", "tactile_paving": "no"}}, {"type": "node", "id": 12844678532, "lat": 45.9264459, "lon": 10.8317967, "tags": {"bus": "yes", "highway": "bus_stop", "name": "Calvola", "public_transport": "platform"}}, {"type": "node", "id": 12844678533, "lat": 45.9124589, "lon": 10.8408773, "tags": {"bench": "no", "bus": "yes", "highway": "bus_stop", "name": "Gavazzo", "public_transport": "platform", "tactile_paving": "no"}}, {"type": "node", "id": 12844678534, "lat": 46.0353253, "lon": 10.8739114, "tags": {"bench": "yes", "bin": "yes", "bus": "yes", "highway": "bus_stop", "name": "Ponte Arche Autostazione (Tutti gli autobus)", "public_transport": "platform", "shelter": "yes"}}, {"type": "node", "id": 12850285864, "lat": 45.9390059, "lon": 10.6385603, "tags": {"bus": "yes", "highway": "bus_stop", "name": "Pieve di Bono", "public_transport": "platform"}}, {"type": "node", "id": 12850285865, "lat": 45.8068101, "lon": 10.5382946, "tags": {"bus": "yes", "highway": "bus_stop", "name": "Baitoni", "public_transport": "platform"}}, {"type": "node", "id": 12852108071, "lat": 45.7765519, "lon": 10.760455, "tags": {"bench": "no", "bin": "no", "bus": "yes", "highway": "bus_stop", "public_transport": "platform", "shelter": "no", "tactile_paving": "no"}}, {"type": "node", "id": 12852373564, "lat": 45.8548239, "lon": 10.5669116, "tags": {"bus": "yes", "highway": "bus_stop", "name": "Ca`Rossa Bar Ristoro", "public_transport": "platform", "shelter": "yes"}}, {"type": "node", "id": 12852373565, "lat": 45.8470431, "lon": 10.5818725, "tags": {"bus": "yes", "highway": "bus_stop", "name": "Storo Strada V.di Ledro Civ 5", "public_transport": "platform"}}, {"type": "node", "id": 12852373566, "lat": 45.8486894, "lon": 10.5784036, "tags": {"bus": "yes", "highway": "bus_stop", "name": "Storo", "public_transport": "platform"}}, {"type": "node", "id": 12852688829, "lat": 45.8293132, "lon": 10.5355293, "tags": {"bus": "yes", "highway": "bus_stop", "name": "Lodrone", "public_transport": "platform"}}, {"type": "node", "id": 12852688830, "lat": 45.8411472, "lon": 10.5496899, "tags": {"bus": "yes", "highway": "bus_stop", "name": "Darzo", "public_transport": "platform"}}, {"type": "node", "id": 12852688831, "lat": 45.8424051, "lon": 10.5506227, "tags": {"bus": "yes", "highway": "bus_stop", "name": "Darzo", "public_transport": "platform"}}, {"type": "node", "id": 12852688832, "lat": 45.8849937, "lon": 10.5965276, "tags": {"bus": "yes", "highway": "bus_stop", "name": "Condino Casa Itea", "public_transport": "platform"}}, {"type": "node", "id": 12852688833, "lat": 45.8889604, "lon": 10.5995638, "tags": {"bus": "yes", "highway": "bus_stop", "name": "Condino Albergo Corona", "public_transport": "platform"}}, {"type": "node", "id": 12852688834, "lat": 45.8912208, "lon": 10.6013995, "tags": {"bus": "yes", "highway": "bus_stop", "name": "Condino Albergo Condino", "public_transport": "platform"}}, {"type": "node", "id": 12852688835, "lat": 45.9118918, "lon": 10.6140051, "tags": {"bus": "yes", "highway": "bus_stop", "name": "Cimego", "public_transport": "platform"}}, {"type": "node", "id": 12852688836, "lat": 45.9313264, "lon": 10.6376926, "tags": {"bus": "yes", "highway": "bus_stop", "name": "Cologna di P.Bono", "public_transport": "platform"}}, {"type": "node", "id": 12852848805, "lat": 45.880677, "lon": 10.5930248, "tags": {"bus": "yes", "highway": "bus_stop", "name": "Condino Cartiera", "public_transport": "platform"}}, {"type": "node", "id": 12852848806, "lat": 45.8745667, "lon": 10.5883929, "tags": {"bus": "yes", "highway": "bus_stop", "name": "Condino Carpenteria", "public_transport": "platform"}}, {"type": "node", "id": 12852848807, "lat": 45.8651801, "lon": 10.5775165, "tags": {"bus": "yes", "highway": "bus_stop", "name": "Condino Loc Mon", "public_transport": "platform"}}, {"type": "node", "id": 12852848808, "lat": 45.8506433, "lon": 10.5749041, "tags": {"bus": "yes", "highway": "bus_stop", "name": "Storo Hotel al Melograno", "public_transport": "platform"}}, {"type": "node", "id": 12853543577, "lat": 45.8491356, "lon": 10.5593285, "tags": {"bus": "yes", "highway": "bus_stop", "name": "Darzo Stork Club", "public_transport": "platform"}}, {"type": "node", "id": 12853543578, "lat": 45.8397784, "lon": 10.5488974, "tags": {"bus": "yes", "highway": "bus_stop", "name": "Darzo Via ten. C.Marini", "public_transport": "platform"}}, {"type": "node", "id": 12853543579, "lat": 45.8341583, "lon": 10.5427724, "tags": {"bus": "yes", "highway": "bus_stop", "name": "Darzo Zone Ind. le", "public_transport": "platform"}}, {"type": "node", "id": 12853543580, "lat": 45.8310657, "lon": 10.5399436, "tags": {"bus": "yes", "highway": "bus_stop", "name": "Lodrone Hotel Castel Lodrone", "public_transport": "platform"}}, {"type": "node", "id": 12853543581, "lat": 45.8161131, "lon": 10.5478872, "tags": {"bus": "yes", "highway": "bus_stop", "name": "Baitoni Civico 122", "public_transport": "platform"}}, {"type": "node", "id": 12853543582, "lat": 45.814023, "lon": 10.5474651, "tags": {"bus": "yes", "highway": "bus_stop", "name": "Baitoni Via Aldo Sette Civ.1", "public_transport": "platform"}}, {"type": "node", "id": 12853543583, "lat": 45.8103307, "lon": 10.5433854, "tags": {"bus": "yes", "highway": "bus_stop", "name": "Baitoni Via Lago", "public_transport": "platform", "shelter": "no"}}, {"type": "node", "id": 12853742343, "lat": 46.0020026, "lon": 10.8461921, "tags": {"bus": "yes", "highway": "bus_stop", "name": "Fav\u00e9 Caseificio", "public_transport": "platform"}}, {"type": "node", "id": 12853742344, "lat": 45.9881735, "lon": 10.8330667, "tags": {"bus": "yes", "highway": "bus_stop", "name": "Fiav\u00e9 Pinetta", "public_transport": "platform", "shelter": "yes"}}, {"type": "node", "id": 12853742345, "lat": 45.9707422, "lon": 10.8155304, "tags": {"bus": "yes", "highway": "bus_stop", "name": "Ballino SS421", "public_transport": "platform", "shelter": "yes"}}, {"type": "node", "id": 12853742346, "lat": 45.8959362, "lon": 10.8440678, "tags": {"bench": "yes", "bus": "yes", "highway": "bus_stop", "name": "Albola Condomino 23", "public_transport": "platform", "shelter": "yes"}}, {"type": "node", "id": 12855454516, "lat": 46.0186614, "lon": 10.8777308, "tags": {"bus": "yes", "highway": "bus_stop", "name": "Maso Maserac", "public_transport": "platform"}}, {"type": "node", "id": 12855454517, "lat": 46.0333291, "lon": 10.8701951, "tags": {"bus": "yes", "highway": "bus_stop", "name": "Ponte Arche Via Prati 8", "public_transport": "platform"}}, {"type": "node", "id": 12855454520, "lat": 46.0287435, "lon": 10.8830617, "tags": {"bus": "yes", "highway": "bus_stop", "name": "Godanzo", "public_transport": "platform"}}, {"type": "node", "id": 12855454521, "lat": 46.0287035, "lon": 10.8801555, "tags": {"bus": "yes", "highway": "bus_stop", "name": "Pola", "public_transport": "platform"}}, {"type": "node", "id": 12856126655, "lat": 46.0226732, "lon": 10.8298212, "tags": {"bench": "no", "bin": "no", "bus": "yes", "highway": "bus_stop", "name": "Madice Loc. Maton Civ.1", "public_transport": "platform", "shelter": "no", "tactile_paving": "no"}}, {"type": "node", "id": 12856126656, "lat": 46.0191704, "lon": 10.82365, "tags": {"bench": "no", "bin": "no", "bus": "yes", "highway": "bus_stop", "name": "Marc\u00e8 bivio", "public_transport": "platform", "shelter": "no", "tactile_paving": "no"}}, {"type": "node", "id": 12856126657, "lat": 46.0154855, "lon": 10.8205113, "tags": {"bus": "yes", "highway": "bus_stop", "name": "Cavrasto", "public_transport": "platform"}}, {"type": "node", "id": 12856126658, "lat": 46.0190003, "lon": 10.8189663, "tags": {"bus": "yes", "highway": "bus_stop", "name": "Cavrasto Itea", "public_transport": "platform"}}, {"type": "node", "id": 12856126659, "lat": 46.0157482, "lon": 10.8158093, "tags": {"bus": "yes", "highway": "bus_stop", "name": "Balbido scuole", "public_transport": "platform"}}, {"type": "node", "id": 12856225238, "lat": 46.0055695, "lon": 10.8318758, "tags": {"bus": "yes", "highway": "bus_stop", "name": "Fiav\u00e9 bivio Cornelle", "public_transport": "platform", "tactile_paving": "no"}}, {"type": "node", "id": 12856225239, "lat": 46.0197752, "lon": 10.8219623, "tags": {"bus": "yes", "highway": "bus_stop", "name": "March\u00e8", "public_transport": "platform"}}, {"type": "node", "id": 12856471287, "lat": 45.7692931, "lon": 10.7578711, "tags": {"bus": "yes", "highway": "bus_stop", "name": "Tremosine Pieve,scuole", "public_transport": "platform"}}, {"type": "node", "id": 12856471297, "lat": 45.7691234, "lon": 10.7576063, "tags": {"bus": "yes", "highway": "bus_stop", "name": "Tremosine Pieve,scuole", "public_transport": "platform"}}, {"type": "node", "id": 12864783226, "lat": 45.8524662, "lon": 10.5660555, "tags": {"bus": "yes", "highway": "bus_stop", "name": "Ca' Rossa", "public_transport": "platform"}}, {"type": "node", "id": 12864852437, "lat": 45.8487242, "lon": 10.5586366, "tags": {"bus": "yes", "highway": "bus_stop", "name": "Darzo Stork Club", "public_transport": "platform"}}, {"type": "node", "id": 12865775523, "lat": 45.8544746, "lon": 10.5673191, "tags": {"bench": "no", "bus": "yes", "highway": "bus_stop", "name": "Ca`Rossa Bar Ristoro", "public_transport": "platform", "shelter": "no"}}, {"type": "node", "id": 12881437481, "lat": 46.0345023, "lon": 10.7328379, "tags": {"bus": "yes", "highway": "bus_stop", "name": "Tione Bar Arno", "public_transport": "platform"}}, {"type": "node", "id": 12881437482, "lat": 46.0348896, "lon": 10.7286268, "tags": {"bus": "yes", "highway": "bus_stop", "name": "Tione istituto", "public_transport": "platform"}}, {"type": "node", "id": 12881437483, "lat": 46.0341541, "lon": 10.7473433, "tags": {"bus": "yes", "highway": "bus_stop", "name": "Zuclo", "public_transport": "platform"}}, {"type": "node", "id": 12881437484, "lat": 46.032791, "lon": 10.7375157, "tags": {"bus": "yes", "highway": "bus_stop", "name": "Bolbeno", "public_transport": "platform"}}, {"type": "node", "id": 12881437485, "lat": 46.0330815, "lon": 10.7263657, "tags": {"bus": "yes", "highway": "bus_stop", "name": "Tione Autostazione", "public_transport": "platform"}}, {"type": "node", "id": 12882816356, "lat": 45.8464291, "lon": 10.582494, "tags": {"bus": "yes", "highway": "bus_stop", "public_transport": "platform"}}, {"type": "node", "id": 12882816357, "lat": 45.8462051, "lon": 10.5824762, "tags": {"bus": "yes", "highway": "bus_stop", "public_transport": "platform"}}, {"type": "node", "id": 12882857305, "lat": 45.8251163, "lon": 10.5311009, "tags": {"bench": "no", "bus": "yes", "highway": "bus_stop", "name": "Ponte Caffaro bivio", "public_transport": "platform", "shelter": "no"}}, {"type": "node", "id": 12882857306, "lat": 45.8958886, "lon": 10.6065059, "tags": {"bench": "no", "bus": "yes", "highway": "bus_stop", "name": "Condino SP123 Stab. Illen", "public_transport": "platform", "shelter": "no"}}, {"type": "node", "id": 12882857307, "lat": 45.9105184, "lon": 10.6118835, "tags": {"bus": "yes", "highway": "bus_stop", "name": "Cimego Quartinago", "public_transport": "platform"}}, {"type": "node", "id": 12882857308, "lat": 45.9245895, "lon": 10.6326923, "tags": {"bus": "yes", "highway": "bus_stop", "name": "Cimego Centrale Enel", "public_transport": "platform"}}, {"type": "node", "id": 12882857309, "lat": 46.0108333, "lon": 10.7013254, "tags": {"bus": "yes", "highway": "bus_stop", "name": "Breguzzo Loc. Fass Civ. 210", "public_transport": "platform", "shelter": "no"}}, {"type": "node", "id": 12882857310, "lat": 46.0154098, "lon": 10.7076095, "tags": {"bench": "no", "bin": "no", "bus": "yes", "highway": "bus_stop", "name": "Breguzzo Cor\u00e8", "public_transport": "platform", "shelter": "no", "tactile_paving": "no"}}, {"type": "node", "id": 12882857311, "lat": 46.0188434, "lon": 10.7113061, "tags": {"bench": "no", "bin": "no", "bus": "yes", "highway": "bus_stop", "name": "Breguzzo Loc. Pet\u00f2", "public_transport": "platform", "shelter": "no", "tactile_paving": "no"}}, {"type": "node", "id": 12882857312, "lat": 46.0292287, "lon": 10.7237667, "tags": {"bus": "yes", "highway": "bus_stop", "name": "Tione Hotel Milano", "note": ".", "public_transport": "platform"}}, {"type": "node", "id": 12882857313, "lat": 45.9357986, "lon": 10.6392155, "tags": {"bus": "yes", "highway": "bus_stop", "name": "Pieve di Bono Tratt. Borel", "public_transport": "platform"}}, {"type": "node", "id": 12882857314, "lat": 45.9443668, "lon": 10.6429947, "tags": {"bus": "yes", "highway": "bus_stop", "name": "Strada", "public_transport": "platform"}}, {"type": "node", "id": 12882857315, "lat": 45.9629903, "lon": 10.6585783, "tags": {"bus": "yes", "highway": "bus_stop", "name": "Forti di Lardaro", "public_transport": "platform"}}, {"type": "node", "id": 12882857316, "lat": 45.9630566, "lon": 10.6583611, "tags": {"bench": "no", "bus": "yes", "highway": "bus_stop", "name": "Forti di Lardaro", "public_transport": "platform", "shelter": "no"}}, {"type": "node", "id": 12882857317, "lat": 46.0097504, "lon": 10.7001091, "tags": {"bus": "yes", "highway": "bus_stop", "name": "Breguzzo", "public_transport": "platform"}}, {"type": "node", "id": 12884449781, "lat": 45.8484705, "lon": 10.5743918, "tags": {"bus": "yes", "highway": "bus_stop", "name": "Storo Via Sette Civ.8", "public_transport": "platform"}}, {"type": "node", "id": 12884572303, "lat": 46.0290713, "lon": 10.7238471, "tags": {"bus": "yes", "highway": "bus_stop", "name": "Tione Rist. Pellegrini", "public_transport": "platform"}}, {"type": "node", "id": 12886290841, "lat": 45.9404742, "lon": 10.6396848, "tags": {"bus": "yes", "highway": "bus_stop", "name": "Pieve di Bono scuole", "public_transport": "platform"}}, {"type": "node", "id": 12886290842, "lat": 45.9541334, "lon": 10.6419325, "tags": {"bus": "yes", "highway": "bus_stop", "name": "Praso Loc. Sevror", "public_transport": "platform"}}, {"type": "node", "id": 12886290843, "lat": 45.9473695, "lon": 10.6210481, "tags": {"bus": "yes", "highway": "bus_stop", "name": "Daone", "public_transport": "platform"}}, {"type": "node", "id": 12886290844, "lat": 45.9439975, "lon": 10.6335868, "tags": {"bus": "yes", "highway": "bus_stop", "name": "Bersone", "public_transport": "platform"}}, {"type": "node", "id": 12886290846, "lat": 45.9463866, "lon": 10.6325287, "tags": {"bus": "yes", "highway": "bus_stop", "name": "Bersone Capolinea", "public_transport": "platform"}}, {"type": "node", "id": 12888100755, "lat": 45.8494468, "lon": 10.5748595, "tags": {"bus": "yes", "highway": "bus_stop", "public_transport": "platform"}}, {"type": "node", "id": 12890372325, "lat": 45.7927051, "lon": 10.7427916, "tags": {"bus": "yes", "highway": "bus_stop", "name": "Tremosine p.za. V.Veneto", "public_transport": "platform", "route_ref": "12"}}, {"type": "node", "id": 12890372326, "lat": 45.786608, "lon": 10.7359761, "tags": {"bus": "yes", "highway": "bus_stop", "name": "Tremosine Voiandes", "public_transport": "platform", "route_ref": "12"}}, {"type": "node", "id": 12890372327, "lat": 45.7825491, "lon": 10.7255745, "tags": {"bus": "yes", "highway": "bus_stop", "name": "Tremosine Bolzone", "public_transport": "platform", "route_ref": "12"}}, {"type": "node", "id": 12890372328, "lat": 45.7751563, "lon": 10.7228601, "tags": {"bus": "yes", "highway": "bus_stop", "name": "Tremosine Sermerio", "public_transport": "platform", "route_ref": "12"}}, {"type": "node", "id": 12890372329, "lat": 45.7645779, "lon": 10.737682, "tags": {"bus": "yes", "highway": "bus_stop", "name": "Tremosine bivio per Cadignano", "public_transport": "platform", "route_ref": "12"}}, {"type": "node", "id": 12890372330, "lat": 45.7608205, "lon": 10.7423437, "tags": {"bus": "yes", "highway": "bus_stop", "name": "Tremosine via XXV Aprile, Pregasio", "public_transport": "platform", "route_ref": "12"}}, {"type": "node", "id": 12890372331, "lat": 45.7661403, "lon": 10.7512137, "tags": {"bus": "yes", "highway": "bus_stop", "name": "Tremosine Arias", "public_transport": "platform", "route_ref": "12"}}, {"type": "node", "id": 12890372332, "lat": 45.7896117, "lon": 10.7446074, "tags": {"bus": "yes", "highway": "bus_stop", "name": "Villa di Vesio bivio Limone", "public_transport": "platform"}}, {"type": "node", "id": 12890372333, "lat": 45.8077852, "lon": 10.7882054, "tags": {"bus": "yes", "highway": "bus_stop", "name": "Limone centro, ufficio turistico", "public_transport": "platform"}}, {"type": "node", "id": 12890372334, "lat": 45.8078319, "lon": 10.7880472, "tags": {"bus": "yes", "highway": "bus_stop", "name": "Limone centro, ufficio turistico", "public_transport": "platform"}},