{"version": 0.6, "generator": "Overpass API 0.7.62.10 2d4cfc48", "osm3s": {"timestamp_osm_base": "2026-02-08T13:18:58Z", "copyright": "The data included in this document is from www.openstreetmap.org. The data is made available under ODbL."}, "elements": [{"type": "node", "id": 270964602, "lat": 46.4064707, "lon": 11.6032302, "tags": {"amenity": "pub"}}, {"type": "node", "id": 305506283, "lat": 46.4202107, "lon": 11.6737469, "tags": {"amenity": "bar", "name": "Bar Ladin"}}, {"type": "node", "id": 305506310, "lat": 46.4202886, "lon": 11.6756878, "tags": {"amenity": "bar", "name": "Bar Mirella"}}, {"type": "node", "id": 471632924, "lat": 46.7189891, "lon": 11.656198, "tags": {"addr:housenumber": "35a", "addr:street": "Altenmarktgasse - Via Mercato Vecchio", "amenity": "bar", "check_date:opening_hours": "2023-01-02", "contact:facebook": "barthaler", "indoor_seating": "yes", "name": "bar thaler", "opening_hours": "Mo-Th 08:00-22:00; Fr-Sa 08:00-00:00", "opening_hours:signed": "no", "outdoor_seating": "yes", "phone": "+39 329 195 9504", "website": "https://bar-thaler.business.site/", "wheelchair": "yes"}}, {"type": "node", "id": 486339668, "lat": 46.537486, "lon": 11.4554923, "tags": {"amenity": "bar"}}, {"type": "node", "id": 486339670, "lat": 46.5382472, "lon": 11.4546838, "tags": {"amenity": "bar", "indoor_seating": "yes", "outdoor_seating": "yes"}}, {"type": "node", "id": 496080624, "lat": 46.7162301, "lon": 11.6561406, "tags": {"addr:city": "Brixen - Bressanone", "addr:housenumber": "3", "addr:postcode": "39042", "addr:street": "B\u00e4ckergasse", "amenity": "bar", "internet_access": "wlan", "name": "3fiori", "opening_hours": "Mo-Sa 09:30-24:00", "website": "https://www.3fiori.com/"}}, {"type": "node", "id": 520696099, "lat": 46.5520195, "lon": 11.7630138}, {"type": "node", "id": 520696101, "lat": 46.5518943, "lon": 11.7630949}, {"type": "node", "id": 520696103, "lat": 46.5519615, "lon": 11.7628433}, {"type": "node", "id": 520696105, "lat": 46.55184, "lon": 11.7629261}, {"type": "node", "id": 614388392, "lat": 46.7174794, "lon": 11.6550951, "tags": {"amenity": "bar", "changing_table": "yes", "name": "Krone", "wheelchair": "yes"}}, {"type": "node", "id": 621156832, "lat": 46.7199285, "lon": 11.6528586, "tags": {"amenity": "bar", "name": "Weingalerie", "shop": "wine"}}, {"type": "node", "id": 621451540, "lat": 46.7171122, "lon": 11.657172, "tags": {"amenity": "bar", "indoor_seating": "yes", "name": "Platzl", "outdoor_seating": "yes", "wheelchair": "yes"}}, {"type": "node", "id": 621451551, "lat": 46.7175001, "lon": 11.6573883, "tags": {"amenity": "bar", "contact:website": "http://www.vinothekvinus.it/", "indoor_seating": "yes", "name": "Vinus", "opening_hours": "Tu 10:00-13:00,16:00-21:00; We-Fr 10:00-13:00,16:00-23:00; Sa 10:00-18:00; Su,Mo off", "outdoor_seating": "no", "shop": "wine", "wheelchair": "yes"}}, {"type": "node", "id": 621830116, "lat": 46.7209403, "lon": 11.6563062}, {"type": "node", "id": 621830117, "lat": 46.7209648, "lon": 11.6565168}, {"type": "node", "id": 621830119, "lat": 46.7208523, "lon": 11.656328}, {"type": "node", "id": 621830120, "lat": 46.7208768, "lon": 11.6565386}, {"type": "node", "id": 623258553, "lat": 46.6980472, "lon": 11.6824135}, {"type": "node", "id": 623258599, "lat": 46.6981081, "lon": 11.6822818}, {"type": "node", "id": 623258602, "lat": 46.6981899, "lon": 11.682359}, {"type": "node", "id": 623258606, "lat": 46.6981788, "lon": 11.6825708}, {"type": "node", "id": 721447956, "lat": 46.4263705, "lon": 11.6866698}, {"type": "node", "id": 721447964, "lat": 46.4264122, "lon": 11.6865117}, {"type": "node", "id": 721447971, "lat": 46.4261779, "lon": 11.6865627}, {"type": "node", "id": 721447988, "lat": 46.4262196, "lon": 11.6864047}, {"type": "node", "id": 722987884, "lat": 46.4300927, "lon": 11.686136, "tags": {"addr:city": "Pozza di Fassa", "addr:country": "IT", "addr:housenumber": "9", "addr:postcode": "38036", "addr:street": "Piaza de Comun", "amenity": "bar", "indoor_seating": "yes", "name": "Bar Gelateria Leon d'Oro", "opening_hours": "Mo-Su 08:00-24:00", "outdoor_seating": "yes", "smoking": "outside", "toilets": "yes", "toilets:wheelchair": "yes", "wheelchair": "limited"}}, {"type": "node", "id": 724349525, "lat": 46.430621, "lon": 11.6877508, "tags": {"addr:city": "Pozza di Fassa", "addr:country": "IT", "addr:postcode": "38036", "addr:street": "Piaza del Malgher", "amenity": "pub", "name": "Pub Mir\u00f2"}}, {"type": "node", "id": 724391083, "lat": 46.4299006, "lon": 11.6892088, "tags": {"addr:city": "Pozza di Fassa", "addr:country": "IT", "addr:housenumber": "44", "addr:postcode": "38036", "addr:street": "Strada de Meida", "amenity": "bar", "name": "Bar Anny"}}, {"type": "node", "id": 726297491, "lat": 46.435908, "lon": 11.6950299}, {"type": "node", "id": 726297503, "lat": 46.4359461, "lon": 11.6950714}, {"type": "node", "id": 726297538, "lat": 46.4359127, "lon": 11.695136}, {"type": "node", "id": 726297562, "lat": 46.4358746, "lon": 11.6950945}, {"type": "node", "id": 726738800, "lat": 46.4707914, "lon": 11.7295151}, {"type": "node", "id": 726738804, "lat": 46.4706456, "lon": 11.729333}, {"type": "node", "id": 726738805, "lat": 46.4705858, "lon": 11.729434}, {"type": "node", "id": 726738815, "lat": 46.4707316, "lon": 11.7296161}, {"type": "node", "id": 734964383, "lat": 46.4756886, "lon": 11.7736704}, {"type": "node", "id": 734964384, "lat": 46.475777, "lon": 11.7737883}, {"type": "node", "id": 734964403, "lat": 46.4757263, "lon": 11.773611}, {"type": "node", "id": 734964483, "lat": 46.4758146, "lon": 11.7737289}, {"type": "node", "id": 735311886, "lat": 46.4660576, "lon": 11.7773035}, {"type": "node", "id": 735311943, "lat": 46.4658891, "lon": 11.7772433}, {"type": "node", "id": 735312016, "lat": 46.4659266, "lon": 11.7773796}, {"type": "node", "id": 735312107, "lat": 46.4660201, "lon": 11.7771673}, {"type": "node", "id": 736750203, "lat": 46.430471, "lon": 11.6863624, "tags": {"addr:city": "Pozza di Fassa", "addr:country": "IT", "addr:housenumber": "1", "addr:postcode": "38036", "addr:street": "Piaza de Comun", "amenity": "bar", "indoor_seating": "yes", "name": "Bar Al Ponte", "outdoor_seating": "yes"}}, {"type": "node", "id": 850636739, "lat": 46.6089524, "lon": 11.5649305, "tags": {"amenity": "pub", "name": "Zur Sonne"}}, {"type": "node", "id": 866739470, "lat": 46.3951587, "lon": 11.6663271, "tags": {"amenity": "bar", "name": "Caffe' Gelateria Dolomiti"}}, {"type": "node", "id": 866739494, "lat": 46.3956323, "lon": 11.6674253, "tags": {"amenity": "bar", "name": "Bar Gelateria George's"}}, {"type": "node", "id": 923030253, "lat": 46.7033311, "lon": 11.6546905}, {"type": "node", "id": 923030284, "lat": 46.7031957, "lon": 11.6543261}, {"type": "node", "id": 923030345, "lat": 46.7031216, "lon": 11.6544938}, {"type": "node", "id": 923030444, "lat": 46.7034051, "lon": 11.6545228}, {"type": "node", "id": 925339584, "lat": 46.7073386, "lon": 11.6560449, "tags": {"amenity": "bar"}}, {"type": "node", "id": 946581603, "lat": 46.4277494, "lon": 11.6828293, "tags": {"amenity": "bar", "name": "Bar El Zirm"}}, {"type": "node", "id": 1105304605, "lat": 46.490785, "lon": 11.7824679}, {"type": "node", "id": 1105304638, "lat": 46.490925, "lon": 11.78259}, {"type": "node", "id": 1105304708, "lat": 46.4906742, "lon": 11.782736}, {"type": "node", "id": 1105304795, "lat": 46.4908143, "lon": 11.7828581}, {"type": "node", "id": 1109027758, "lat": 46.5082134, "lon": 11.7678157}, {"type": "node", "id": 1109028110, "lat": 46.508228, "lon": 11.7675249}, {"type": "node", "id": 1109028318, "lat": 46.5080723, "lon": 11.7678301}, {"type": "node", "id": 1109028492, "lat": 46.508059, "lon": 11.767555}, {"type": "node", "id": 1140423771, "lat": 46.5227663, "lon": 11.6408796}, {"type": "node", "id": 1140423773, "lat": 46.5226867, "lon": 11.6408789}, {"type": "node", "id": 1140423777, "lat": 46.5226867, "lon": 11.6407516}, {"type": "node", "id": 1140423778, "lat": 46.5227663, "lon": 11.6407516}, {"type": "node", "id": 1224415785, "lat": 46.4284886, "lon": 11.6841192, "tags": {"addr:city": "Pozza di Fassa", "addr:country": "IT", "addr:housenumber": "105", "addr:postcode": "38036", "addr:street": "Strada Dolomites", "amenity": "bar", "name": "Bar Re Laurino", "opening_hours": "Mo-Sa 07:30-20:00", "operator": "Anna Maria Czaplicka", "ref:vatin": "IT02146120221"}}, {"type": "node", "id": 1230713773, "lat": 46.4297885, "lon": 11.6922296, "tags": {"addr:city": "Pozza di Fassa", "addr:country": "IT", "addr:housenumber": "112", "addr:postcode": "38036", "addr:street": "Strada de Meida", "amenity": "bar", "internet_access": "no", "name": "Bar Jodler", "smoking": "no"}}, {"type": "node", "id": 1230713777, "lat": 46.4292795, "lon": 11.6944569, "tags": {"addr:city": "Pozza di Fassa", "addr:country": "IT", "addr:housenumber": "16", "addr:postcode": "38036", "addr:street": "Strada de Meida", "amenity": "bar", "name": "Bar Meeting", "opening_hours": "Mo-Sa 08:00-24:00"}}, {"type": "node", "id": 1579603027, "lat": 46.5187626, "lon": 11.5040617, "tags": {"amenity": "bar", "indoor_seating": "yes", "name": "Paul's", "outdoor_seating": "yes", "smoking": "outside", "wheelchair": "yes"}}, {"type": "node", "id": 1636849145, "lat": 46.5745647, "lon": 11.6584494, "tags": {"amenity": "pub", "name": "181"}}, {"type": "node", "id": 1636849149, "lat": 46.5733477, "lon": 11.6736307, "tags": {"addr:city": "Urtij\u00ebi - St.Ulrich - Ortisei", "addr:housenumber": "116", "addr:place": "Plaza Sant'Antone", "addr:postcode": "39046", "amenity": "bar", "email": "info@cafehaiti.it", "mobile": "+39 339 6918778", "name": "Haiti", "phone": "+39 0471 796290", "website": "https://www.valgardena.it/en/addresses/detail/base/company/ortisei-val-gardena/haiti/939D44E8A50147CDA500C65DC57ACD97/", "wheelchair": "yes"}}, {"type": "node", "id": 1817273242, "lat": 46.4300563, "lon": 11.6895202, "tags": {"addr:city": "Pozza di Fassa", "addr:country": "IT", "addr:housenumber": "0", "addr:postcode": "38036", "addr:street": "Strada de Meida", "amenity": "bar"}}, {"type": "node", "id": 1929450154, "lat": 46.7313143, "lon": 11.6509834, "tags": {"amenity": "bar", "name": "Villa Resi"}}, {"type": "node", "id": 1940010441, "lat": 46.7426923, "lon": 11.6484859, "tags": {"amenity": "pub", "indoor_seating": "yes", "name": "Stiftskeller - Mescita dell'Abbazia", "name:de": "Stiftskeller", "name:it": "Mescita dell'Abbazia", "opening_hours": "PH,Mo-Sa 10:00-19:00", "outdoor_seating": "yes", "website": "https://www.kloster-neustift.it/de/besuchen-erleben/essen-trinken/", "wheelchair": "limited"}}, {"type": "node", "id": 1944808186, "lat": 46.7138799, "lon": 11.6544885, "tags": {"amenity": "bar", "name": "Kolping"}}, {"type": "node", "id": 1948870933, "lat": 46.5530646, "lon": 11.7630052, "tags": {"amenity": "pub", "name": "Apres-Ski Luislkeller"}}, {"type": "node", "id": 2022775119, "lat": 46.7392185, "lon": 11.6507665, "tags": {"amenity": "bar", "name": "Bistro Frischluft"}}, {"type": "node", "id": 2131722789, "lat": 46.631844, "lon": 11.5398771, "tags": {"amenity": "bar", "name": "Gasthof Bar Pizzeria Schwarzer Adler", "wifi": "no"}}, {"type": "node", "id": 2154206955, "lat": 46.6973744, "lon": 11.9318507}, {"type": "node", "id": 2154206968, "lat": 46.6974353, "lon": 11.931913}, {"type": "node", "id": 2154206976, "lat": 46.6974608, "lon": 11.931671}, {"type": "node", "id": 2154206987, "lat": 46.6975217, "lon": 11.9317333}, {"type": "node", "id": 2184044796, "lat": 46.7006048, "lon": 11.6395685, "tags": {"amenity": "bar", "name": "Sportbar", "wheelchair": "yes"}}, {"type": "node", "id": 2194668228, "lat": 46.732933, "lon": 11.6428706, "tags": {"amenity": "bar", "name": "Sportwirt"}}, {"type": "node", "id": 2204578520, "lat": 46.4044869, "lon": 11.6089231, "tags": {"amenity": "bar"}}, {"type": "node", "id": 2212053907, "lat": 46.4082156, "lon": 11.5915712, "tags": {"amenity": "bar", "name": "Golflift"}}, {"type": "node", "id": 2329501496, "lat": 46.6558594, "lon": 11.5715965, "tags": {"amenity": "bar", "name": "Bar Gosser", "opening_hours": "Mo-Sa 07:30-12:00,14:30-21:00"}}, {"type": "node", "id": 2370878516, "lat": 46.4635854, "lon": 11.7850214}, {"type": "node", "id": 2370878517, "lat": 46.4636087, "lon": 11.7851363}, {"type": "node", "id": 2370878519, "lat": 46.4636437, "lon": 11.7849417}, {"type": "node", "id": 2370878520, "lat": 46.4636496, "lon": 11.7849923}, {"type": "node", "id": 2370878521, "lat": 46.4637235, "lon": 11.7849164}, {"type": "node", "id": 2370878522, "lat": 46.4637586, "lon": 11.7850934}, {"type": "node", "id": 2398730135, "lat": 46.7109692, "lon": 11.655997, "tags": {"addr:postcode": "39042", "addr:street": "Kassianstra\u00dfe", "amenity": "bar", "name": "Villa Berta", "source": "local_knowledge"}}, {"type": "node", "id": 2398784191, "lat": 46.7125438, "lon": 11.6519173, "tags": {"amenity": "bar", "name": "Bar Centrale"}}, {"type": "node", "id": 2405088378, "lat": 46.4205012, "lon": 11.673846, "tags": {"amenity": "bar", "name": "Picol Bar", "opening_hours": "Th-Tu 07:00-24:00"}}, {"type": "node", "id": 2415866784, "lat": 46.5080767, "lon": 11.7675402}, {"type": "node", "id": 2415866793, "lat": 46.5080738, "lon": 11.7674356}, {"type": "node", "id": 2415866796, "lat": 46.5080848, "lon": 11.7674115}, {"type": "node", "id": 2415866863, "lat": 46.5081032, "lon": 11.7674042}, {"type": "node", "id": 2415866872, "lat": 46.5081033, "lon": 11.7673793}, {"type": "node", "id": 2415866896, "lat": 46.5082233, "lon": 11.7673686}, {"type": "node", "id": 2419148499, "lat": 46.6408936, "lon": 11.6914796, "tags": {"amenity": "bar", "name": "Sportbar"}}, {"type": "node", "id": 2420087843, "lat": 46.6874827, "lon": 11.6388039, "tags": {"amenity": "bar", "name": "Gepa Bar"}}, {"type": "node", "id": 2423383042, "lat": 46.7162782, "lon": 11.6564899, "tags": {"amenity": "bar", "name": "Amadeus", "outdoor_seating": "yes", "wheelchair": "yes"}}, {"type": "node", "id": 2423992651, "lat": 46.64072, "lon": 11.6845803, "tags": {"amenity": "bar", "indoor_seating": "yes", "name": "Lamm", "outdoor_seating": "yes", "payment:credit_cards": "yes", "payment:debit_cards": "yes"}}, {"type": "node", "id": 2429349900, "lat": 46.6977026, "lon": 11.645488, "tags": {"amenity": "bar", "name": "Waage", "website": "https://www.pubwaage.it/"}}, {"type": "node", "id": 2429657285, "lat": 46.7155026, "lon": 11.6544479, "tags": {"amenity": "bar", "name": "Bar Atrium"}}, {"type": "node", "id": 2430612161, "lat": 46.7243147, "lon": 11.6495506}, {"type": "node", "id": 2430612163, "lat": 46.7243069, "lon": 11.6495082}, {"type": "node", "id": 2430612165, "lat": 46.7242856, "lon": 11.6494771}, {"type": "node", "id": 2430612167, "lat": 46.7242565, "lon": 11.6494657}, {"type": "node", "id": 2430612169, "lat": 46.7242274, "lon": 11.6494771}, {"type": "node", "id": 2430612171, "lat": 46.7242061, "lon": 11.6495082}, {"type": "node", "id": 2430612173, "lat": 46.7241983, "lon": 11.6495506}, {"type": "node", "id": 2430612175, "lat": 46.7242061, "lon": 11.6495931}, {"type": "node", "id": 2430612177, "lat": 46.7242274, "lon": 11.6496241}, {"type": "node", "id": 2430612179, "lat": 46.7242565, "lon": 11.6496355}, {"type": "node", "id": 2430612181, "lat": 46.7242856, "lon": 11.6496241}, {"type": "node", "id": 2430612183, "lat": 46.7243069, "lon": 11.6495931}, {"type": "node", "id": 2430772664, "lat": 46.7176525, "lon": 11.6568584, "tags": {"amenity": "bar", "indoor_seating": "yes", "name": "Caf\u00e9 Marilyn", "outdoor_seating": "yes"}}, {"type": "node", "id": 2430895007, "lat": 46.7213043, "lon": 11.6504373, "tags": {"amenity": "bar", "name": "Bar Frieda"}}, {"type": "node", "id": 2431398443, "lat": 46.7098767, "lon": 11.6500015, "tags": {"addr:city": "Brixen - Bressanone", "addr:city:de": "Brixen", "addr:housenumber": "21", "addr:postcode": "39042", "addr:street": "Bahnhofplatz - Piazzale della Stazione", "addr:street:de": "Bahnhofplatz", "amenity": "bar", "indoor_seating": "yes", "name": "Bahnhofsbar", "name:de": "Bahnhofsbar", "name:it": "Stazione", "opening_hours": "Mo-Sa 06:00-21:00; Su 06:00-13:00", "outdoor_seating": "no", "wheelchair": "limited"}}, {"type": "node", "id": 2431427598, "lat": 46.705744, "lon": 11.6598787, "tags": {"amenity": "bar"}}, {"type": "node", "id": 2432448090, "lat": 46.5489095, "lon": 11.8737455}, {"type": "node", "id": 2432448108, "lat": 46.5489551, "lon": 11.8739755}, {"type": "node", "id": 2432448118, "lat": 46.5488195, "lon": 11.8740323}, {"type": "node", "id": 2432448129, "lat": 46.5487739, "lon": 11.8738023}, {"type": "node", "id": 2432670241, "lat": 46.7190725, "lon": 11.654395, "tags": {"amenity": "bar", "name": "La Cantinota", "shop": "wine"}}, {"type": "node", "id": 2432692615, "lat": 46.7167886, "lon": 11.6541328, "tags": {"amenity": "bar", "name": "Sole"}}, {"type": "node", "id": 2432699280, "lat": 46.7166219, "lon": 11.6561868, "tags": {"amenity": "bar", "indoor_seating": "yes", "name": "La Habana", "outdoor_seating": "yes", "wheelchair": "limited"}}, {"type": "node", "id": 2435215842, "lat": 46.7098184, "lon": 11.6509952, "tags": {"amenity": "bar", "indoor_seating": "yes", "outdoor_seating": "no"}}, {"type": "node", "id": 2451931997, "lat": 46.7204189, "lon": 11.6555328, "tags": {"amenity": "bar", "name": "Eni"}}, {"type": "node", "id": 2453439856, "lat": 46.709263, "lon": 11.6519277, "tags": {"amenity": "bar", "name": "Olympia"}}, {"type": "node", "id": 2453439857, "lat": 46.7102096, "lon": 11.651693, "tags": {"amenity": "bar", "name": "Eden"}}, {"type": "node", "id": 2457252403, "lat": 46.5085934, "lon": 11.7575165}, {"type": "node", "id": 2457252405, "lat": 46.5086206, "lon": 11.757455}, {"type": "node", "id": 2457252408, "lat": 46.5086642, "lon": 11.7575827}, {"type": "node", "id": 2471816478, "lat": 46.7331266, "lon": 11.649728, "tags": {"amenity": "bar"}}, {"type": "node", "id": 2495184686, "lat": 46.6982162, "lon": 11.682488}, {"type": "node", "id": 2495184759, "lat": 46.7059829, "lon": 11.6835012, "tags": {"amenity": "bar"}}, {"type": "node", "id": 2502201940, "lat": 46.7202043, "lon": 11.6568052, "tags": {"amenity": "bar", "level": "1", "name": "Horizontale"}}, {"type": "node", "id": 2519017823, "lat": 46.5909305, "lon": 11.524759}, {"type": "node", "id": 2519017824, "lat": 46.5908772, "lon": 11.5249617}, {"type": "node", "id": 2519017825, "lat": 46.5909509, "lon": 11.5250001}, {"type": "node", "id": 2519017826, "lat": 46.5909598, "lon": 11.5249848}, {"type": "node", "id": 2519017827, "lat": 46.5910638, "lon": 11.525082}, {"type": "node", "id": 2519017829, "lat": 46.5911285, "lon": 11.5249204}, {"type": "node", "id": 2542403646, "lat": 46.6435963, "lon": 11.5704729, "tags": {"amenity": "pub", "name": "Aquarium"}}, {"type": "node", "id": 2587982806, "lat": 46.550685, "lon": 11.8740078, "tags": {"amenity": "bar", "check_date": "2023-09-21", "name": "Glam's", "source": "survey"}}, {"type": "node", "id": 2604526564, "lat": 46.3788427, "lon": 11.7955489}, {"type": "node", "id": 2604526565, "lat": 46.3788705, "lon": 11.795448}, {"type": "node", "id": 2604526566, "lat": 46.3788637, "lon": 11.7955972}, {"type": "node", "id": 2604526568, "lat": 46.3789087, "lon": 11.795434}, {"type": "node", "id": 2604526569, "lat": 46.3789003, "lon": 11.7956185}, {"type": "node", "id": 2604526573, "lat": 46.3789385, "lon": 11.7956045}, {"type": "node", "id": 2604526575, "lat": 46.3789453, "lon": 11.7954552}, {"type": "node", "id": 2604526576, "lat": 46.3789637, "lon": 11.7955606}, {"type": "node", "id": 2604526577, "lat": 46.3789663, "lon": 11.7955036}, {"type": "node", "id": 2610564663, "lat": 46.5469836, "lon": 11.8749343, "tags": {"addr:country": "IT", "addr:housenumber": "92", "addr:postcode": "39033", "addr:street": "Strada Col Alt", "amenity": "bar", "name": "L'Got"}}, {"type": "node", "id": 2646086887, "lat": 46.6410856, "lon": 11.7140151}, {"type": "node", "id": 2646086889, "lat": 46.6411291, "lon": 11.7139477}, {"type": "node", "id": 2646086891, "lat": 46.6411844, "lon": 11.7140213}, {"type": "node", "id": 2646086892, "lat": 46.6411419, "lon": 11.7140881}, {"type": "node", "id": 2663609026, "lat": 46.4093453, "lon": 11.4351419, "tags": {"addr:city": "Deutschnofen - Nova Ponente", "addr:city:de": "Deutschnofen", "addr:city:it": "Nova Ponente", "addr:hamlet": "Deutschnofen - Nova Ponente", "addr:hamlet:de": "Deutschnofen", "addr:hamlet:it": "Nova Ponente", "addr:housename": "Hotel Regglbergerhof", "addr:housenumber": "5", "addr:postcode": "39050", "addr:street": "Altes Kreuz - Croce Vecchia", "addr:street:de": "Altes Kreuz", "addr:street:it": "Croce Vecchia", "amenity": "bar", "name": "Wine Bar Hotel Regglbergerhof", "website": "https://www.regglbergerhof.com/", "wifi": "free"}}, {"type": "node", "id": 2717928127, "lat": 46.5665699, "lon": 11.5603318, "tags": {"amenity": "pub", "indoor_seating": "yes", "name": "Zur Dorfschenke", "outdoor_seating": "yes", "wheelchair": "yes"}}, {"type": "node", "id": 2749629878, "lat": 46.7164137, "lon": 11.6581128, "tags": {"addr:city": "Brixen - Bressanone", "addr:city:de": "Brixen", "addr:city:it": "Bressanone", "addr:housenumber": "1b", "addr:postcode": "39042", "addr:street": "Albuingasse - Via S. Albuino", "addr:street:de": "Albuingasse", "addr:street:it": "Via S. Albuino", "amenity": "bar", "indoor_seating": "yes", "name": "Absolut", "outdoor_seating": "yes", "wheelchair": "limited"}}, {"type": "node", "id": 2749682797, "lat": 46.4133, "lon": 11.429418, "tags": {"addr:city": "Deutschnofen - Nova Ponente", "addr:city:de": "Deutschnofen", "addr:city:it": "Nova Ponente", "addr:hamlet": "Deutschnofen - Nova Ponente", "addr:hamlet:de": "Deutschnofen", "addr:hamlet:it": "Nova Ponente", "addr:housenumber": "13a", "addr:postcode": "39050", "addr:street": "Hauptstra\u00dfe - Via Principale", "addr:street:de": "Hauptstra\u00dfe", "addr:street:it": "Via Principale", "amenity": "pub", "name": "Flex Pub", "opening_hours": "Tu-Sa 09:00-23:00; Su,PH 09:00-22:00"}}, {"type": "node", "id": 2750465704, "lat": 46.5550671, "lon": 11.491208, "tags": {"amenity": "bar", "name": "Hotel Bar Lengsteinerhof"}}, {"type": "node", "id": 2750465708, "lat": 46.5549336, "lon": 11.4927393, "tags": {"addr:city": "Lengstein", "amenity": "bar", "name": "Bar Pension Kircher"}}, {"type": "node", "id": 2755694070, "lat": 46.5749206, "lon": 11.6451649, "tags": {"addr:city": "Kastelruth - Castelrotto", "addr:city:de": "Kastelruth", "addr:city:it": "Castelrotto", "addr:hamlet": "Runcadic - Runggaditsch - Roncadizza", "addr:hamlet:de": "Runggaditsch", "addr:hamlet:it": "Roncadizza", "addr:hamlet:lld": "Runcadic", "addr:housenumber": "2", "addr:postcode": "39046", "addr:street": "Str. Arnaria", "addr:street:de": "Arnariastra\u00dfe", "addr:street:it": "Via Arnaria", "amenity": "bar", "name": "La Bar", "website": "https://www.la-bar.it/"}}, {"type": "node", "id": 2755778695, "lat": 46.7403127, "lon": 11.7795266, "tags": {"addr:city": "L\u00fcsen - Luson", "addr:city:de": "L\u00fcsen", "addr:city:it": "Luson", "addr:housenumber": "5", "addr:postcode": "39040", "addr:street": "Flittner Strasse - Via Flitt", "addr:street:de": "Flittner Stasse", "addr:street:it": "Via Flitt", "amenity": "bar", "name": "Joasenhof"}}, {"type": "node", "id": 2755978092, "lat": 46.5571391, "lon": 11.7300754, "tags": {"addr:city": "S\u00eblva - Wolkenstein in Gr\u00f6den - Selva di Val Gardena", "addr:city:de": "Wolkenstein in Gr\u00f6den", "addr:city:it": "Selva di Val Gardena", "addr:city:lld": "S\u00eblva", "addr:housenumber": "26", "addr:postcode": "39048", "addr:street": "Streda Ruacia", "addr:street:de": "Stra\u00dfe Ruacia", "addr:street:it": "Strada Ruacia", "addr:street:lld": "Streda Ruacia", "amenity": "pub", "contact:instagram": "apresskisnowbar", "email": "a.snowbar@gmail.com", "name": "Apreski Snowbar", "opening_hours": "Mo-Su 08:00-22:00", "website": "https://www.apresvalgardena.it/"}}, {"type": "node", "id": 2756046760, "lat": 46.5742149, "lon": 11.6715957, "tags": {"addr:city": "Urtij\u00ebi - St.Ulrich - Ortisei", "addr:city:de": "St.Ulrich", "addr:city:it": "Ortisei", "addr:city:lld": "Urtij\u00ebi", "addr:housenumber": "30", "addr:postcode": "39046", "addr:street": "Streda Rezia", "addr:street:de": "Rezia-Stra\u00dfe", "addr:street:it": "Via Rezia", "addr:street:lld": "Streda Rezia", "amenity": "bar", "email": "lacercia@hotmail.com", "name": "La C\u00ebrcia Vinotheque", "phone": "+39 333 1522847", "website": "https://www.valgardena.it/en/addresses/detail/base/company/ortisei-val-gardena/la-ceercia-vinotheque/40E80169826C9F57100D4117A2764A61/"}}, {"type": "node", "id": 2756051369, "lat": 46.5742158, "lon": 11.6735484, "tags": {"addr:city": "Urtij\u00ebi - St.Ulrich - Ortisei", "addr:city:de": "St.Ulrich", "addr:city:it": "Ortisei", "addr:city:lld": "Urtij\u00ebi", "addr:housenumber": "73/c", "addr:postcode": "39046", "addr:street": "Streda Rezia", "addr:street:de": "Rezia-Stra\u00dfe", "addr:street:it": "Via Rezia", "addr:street:lld": "Streda Rezia", "amenity": "bar", "email": "lottenogler@hotmail.com", "mobile": "+39 335 8410246", "name": "Soviso", "phone": "+39 0471 786139", "website": "https://www.valgardena.it/en/addresses/detail/base/company/ortisei-val-gardena/soviso/22158AE719C30C2B7AE3D3F9F746E8C2/"}}, {"type": "node", "id": 2756057242, "lat": 46.7402866, "lon": 11.6361896, "tags": {"addr:city": "Vahrn - Varna", "addr:city:de": "Vahrn", "addr:city:it": "Varna", "addr:housenumber": "5", "addr:postcode": "39040", "addr:street": "Voitsbergstra\u00dfe - Via Voitsberg", "addr:street:de": "Voitsbergstra\u00dfe", "addr:street:it": "Via Voitsberg", "amenity": "bar", "name": "Voitsberg", "opening_hours": "Mo-Th 07:30-01:00; Fr-Sa 07:30-02:00; Su 08:00-18:00", "outdoor_seating": "yes", "website": "https://www.voitsberg.it"}}, {"type": "node", "id": 3132017307, "lat": 46.5546791, "lon": 11.7582896, "tags": {"amenity": "pub", "name": "Green\u2018s"}}, {"type": "node", "id": 3379312691, "lat": 46.5737493, "lon": 11.671348}, {"type": "node", "id": 3379312692, "lat": 46.5737558, "lon": 11.6712965}, {"type": "node", "id": 3379324293, "lat": 46.5737698, "lon": 11.6713911}, {"type": "node", "id": 3379324294, "lat": 46.5737854, "lon": 11.6712667}, {"type": "node", "id": 3379324295, "lat": 46.5738052, "lon": 11.6714005}, {"type": "node", "id": 3379324296, "lat": 46.5738208, "lon": 11.6712761}, {"type": "node", "id": 3379324297, "lat": 46.5738348, "lon": 11.6713707}, {"type": "node", "id": 3379324298, "lat": 46.5738413, "lon": 11.6713192}, {"type": "node", "id": 3416645862, "lat": 46.5532527, "lon": 11.5412921}, {"type": "node", "id": 3416645863, "lat": 46.5533797, "lon": 11.541286}, {"type": "node", "id": 3416645871, "lat": 46.5532578, "lon": 11.5415174}, {"type": "node", "id": 3416645877, "lat": 46.5533848, "lon": 11.5415113}, {"type": "node", "id": 3455355837, "lat": 46.4002575, "lon": 11.6711459, "tags": {"amenity": "bar", "name": "Bar da Molin"}}, {"type": "node", "id": 3686647065, "lat": 46.6805161, "lon": 11.8927718, "tags": {"amenity": "bar"}}, {"type": "node", "id": 3700612007, "lat": 46.5082338, "lon": 11.7676471}, {"type": "node", "id": 3700612008, "lat": 46.5082203, "lon": 11.7676484}, {"type": "node", "id": 3700612009, "lat": 46.5082229, "lon": 11.7677015}, {"type": "node", "id": 3700612010, "lat": 46.5082079, "lon": 11.767703}, {"type": "node", "id": 3815860080, "lat": 46.5570566, "lon": 11.5518209, "tags": {"amenity": "bar", "indoor_seating": "yes", "name": "Unterlanzin", "outdoor_seating": "yes"}}, {"type": "node", "id": 4079618489, "lat": 46.571691, "lon": 11.931861, "tags": {"amenity": "bar", "food": "yes", "name": "My dream", "outdoor_seating": "yes", "smoking": "outside"}}, {"type": "node", "id": 4243220840, "lat": 46.5718513, "lon": 11.6768936, "tags": {"amenity": "bar", "name": "Loungebar Fever"}}, {"type": "node", "id": 4264501836, "lat": 46.5086378, "lon": 11.7574711}, {"type": "node", "id": 4264501840, "lat": 46.5086861, "lon": 11.7574855}, {"type": "node", "id": 4264501841, "lat": 46.508692, "lon": 11.75752}, {"type": "node", "id": 4264501842, "lat": 46.5086771, "lon": 11.757506}, {"type": "node", "id": 4264501843, "lat": 46.5086474, "lon": 11.7574494}, {"type": "node", "id": 4292784076, "lat": 46.5676249, "lon": 11.5592569, "tags": {"amenity": "bar", "name": "Postkeller"}}, {"type": "node", "id": 4434947751, "lat": 46.58581, "lon": 11.9042038, "tags": {"amenity": "pub", "check_date": "2024-01-30", "name": "Durni's Pub", "phone": "+39 0471 847062", "website": "https://durnis-pub.business.site/"}}, {"type": "node", "id": 4439524362, "lat": 46.5708737, "lon": 11.9320659, "tags": {"amenity": "bar", "name": "Caf\u00e9 Ploner"}}, {"type": "node", "id": 4630464827, "lat": 46.5479639, "lon": 11.8714676}, {"type": "node", "id": 4630464828, "lat": 46.5479479, "lon": 11.8714768}, {"type": "node", "id": 4630464829, "lat": 46.5479307, "lon": 11.8714781}, {"type": "node", "id": 4630464830, "lat": 46.5479141, "lon": 11.8714716}, {"type": "node", "id": 4630464831, "lat": 46.5478997, "lon": 11.8714578}, {"type": "node", "id": 4630464832, "lat": 46.5479183, "lon": 11.8713259}, {"type": "node", "id": 4630464833, "lat": 46.5479365, "lon": 11.8713214}, {"type": "node", "id": 4630464834, "lat": 46.5479546, "lon": 11.871326}, {"type": "node", "id": 4630464835, "lat": 46.5479707, "lon": 11.8713392}, {"type": "node", "id": 5039958028, "lat": 46.4279544, "lon": 11.9117225, "tags": {"amenity": "bar", "name": "Pineta"}}, {"type": "node", "id": 5514680331, "lat": 46.641069, "lon": 11.5670354, "tags": {"amenity": "pub", "indoor_seating": "yes", "name": "Divino", "opening_hours": "Mo-Fr 08:00-12:30, Mo 15:00-19:00, Tu-Sa 15:00-23:00, Sa 08:00-13:00", "outdoor_seating": "yes", "wheelchair": "yes"}}, {"type": "node", "id": 5777669353, "lat": 46.5608781, "lon": 11.7348692, "tags": {"amenity": "bar", "name": "Koffy"}}, {"type": "node", "id": 5787238853, "lat": 46.420179, "lon": 11.671272, "tags": {"amenity": "bar", "name": "Alpen sport", "outdoor_seating": "yes"}}, {"type": "node", "id": 5787239153, "lat": 46.4769801, "lon": 11.7415532, "tags": {"amenity": "pub", "cuisine": "pizza;pasta;hamburger", "level": "0", "name": "Pub Evita", "outdoor_seating": "yes"}}, {"type": "node", "id": 5787239253, "lat": 46.4769131, "lon": 11.7415953, "tags": {"amenity": "bar", "level": "0", "name": "Tirol", "outdoor_seating": "yes"}}, {"type": "node", "id": 5802080455, "lat": 46.5449981, "lon": 11.5595728, "tags": {"amenity": "pub", "indoor_seating": "yes", "name": "Folta Pub", "outdoor_seating": "yes", "wheelchair": "no"}}, {"type": "node", "id": 5809065649, "lat": 46.5534499, "lon": 11.7623563, "tags": {"amenity": "bar", "email": "info@pensioneuropa.it", "name": "Bar Europa", "old_name": "Bar Costa"}}, {"type": "node", "id": 6028639983, "lat": 46.5533294, "lon": 11.7636554, "tags": {"addr:city": "S\u00eblva - Wolkenstein in Gr\u00f6den - Selva di Val Gardena", "addr:housenumber": "4", "addr:postcode": "39048", "addr:street": "Streda Danterc\u00ebpies", "amenity": "bar", "name": "Apr\u00e8s Ski Bar Saltos", "phone": "+39 335 6849031", "website": "https://www.valgardena.it/en/addresses/detail/base/company/selva-val-gardena/apres-ski-bar-saltos/D5AE018CE93711D3A09D006097A8F6AC/?RequestKey=170792103765ccce8d53243"}}, {"type": "node", "id": 6351808062, "lat": 46.5530141, "lon": 11.7631331, "tags": {"addr:city": "S\u00eblva - Wolkenstein in Gr\u00f6den - Selva di Val Gardena", "addr:housenumber": "266", "addr:postcode": "39048", "addr:street": "Streda M\u00ebisules", "amenity": "pub", "cuisine": "sandwich;regional", "email": "moritz59@tin.it", "name": "Kronestube", "phone": "+39 338 9379002", "website": "https://www.valgardena.it/en/addresses/detail/base/company/selva-val-gardena/kronestube/D5AE0168E93711D3A09D006097A8F6AC/?RequestKey=170792149165ccd053cce5a"}}, {"type": "node", "id": 6370504291, "lat": 46.5342008, "lon": 11.7723388}, {"type": "node", "id": 6370504292, "lat": 46.5341979, "lon": 11.7723583}, {"type": "node", "id": 6370504293, "lat": 46.5341908, "lon": 11.7723755}, {"type": "node", "id": 6370504294, "lat": 46.5341172, "lon": 11.7723438}, {"type": "node", "id": 6370504295, "lat": 46.5341177, "lon": 11.7723236}, {"type": "node", "id": 6370504296, "lat": 46.5341227, "lon": 11.7723048}, {"type": "node", "id": 6370504297, "lat": 46.5341316, "lon": 11.7722894}, {"type": "node", "id": 6370504298, "lat": 46.5341803, "lon": 11.7723884}, {"type": "node", "id": 6370504299, "lat": 46.5341674, "lon": 11.7723956}, {"type": "node", "id": 6370504300, "lat": 46.5341537, "lon": 11.7723965}, {"type": "node", "id": 6370504301, "lat": 46.5341405, "lon": 11.7723908}, {"type": "node", "id": 6370504302, "lat": 46.5341292, "lon": 11.7723792}, {"type": "node", "id": 6370504303, "lat": 46.5341212, "lon": 11.7723629}, {"type": "node", "id": 6370504304, "lat": 46.5341435, "lon": 11.772279}, {"type": "node", "id": 6370504305, "lat": 46.5341571, "lon": 11.7722748}, {"type": "node", "id": 6370504306, "lat": 46.5341709, "lon": 11.7722774}, {"type": "node", "id": 6370504307, "lat": 46.5341833, "lon": 11.7722863}, {"type": "node", "id": 6370504308, "lat": 46.5341931, "lon": 11.7723006}, {"type": "node", "id": 6370504309, "lat": 46.5341992, "lon": 11.7723187}, {"type": "node", "id": 6383638520, "lat": 46.6948894, "lon": 11.9320297, "tags": {"amenity": "bar", "brewery": "yes", "name": "Aqua Bad Cortina", "smoking": "outside", "wheelchair": "yes"}}, {"type": "node", "id": 6525121934, "lat": 46.5536462, "lon": 11.7615965, "tags": {"amenity": "bar", "name": "Bar Aaritz"}}, {"type": "node", "id": 6528035266, "lat": 46.5562234, "lon": 11.7551366, "tags": {"amenity": "pub", "name": "La G\u00ebrva"}}, {"type": "node", "id": 7165112567, "lat": 46.4036159, "lon": 11.6084209, "tags": {"amenity": "bar", "name": "Schirmbar Antermont", "website": "https://www.antermont.it/"}}, {"type": "node", "id": 7165119521, "lat": 46.4036895, "lon": 11.6093863, "tags": {"amenity": "bar", "name": "Birdie's Apr\u00e8s Ski - Bar"}}, {"type": "node", "id": 7770054585, "lat": 46.4763337, "lon": 11.7739489, "tags": {"amenity": "pub", "name": "Bar Centrale"}}, {"type": "node", "id": 7799282485, "lat": 46.4975078, "lon": 11.4504463, "tags": {"amenity": "bar", "name": "Singer"}}, {"type": "node", "id": 7874071861, "lat": 46.662793, "lon": 11.598575, "tags": {"amenity": "bar"}}, {"type": "node", "id": 7874929785, "lat": 46.4949131, "lon": 11.4477683, "tags": {"amenity": "bar", "name": "Karo"}}, {"type": "node", "id": 7876527587, "lat": 46.6455781, "lon": 11.5764558, "tags": {"amenity": "bar"}}, {"type": "node", "id": 8266806845, "lat": 46.658069, "lon": 11.9236827, "tags": {"amenity": "bar", "name": "Pider"}}, {"type": "node", "id": 8266806846, "lat": 46.6575217, "lon": 11.9238691, "tags": {"amenity": "bar", "name": "Alpenrose"}}, {"type": "node", "id": 8729413389, "lat": 46.7172846, "lon": 11.6563091, "tags": {"amenity": "bar", "name": "Raiffeisen Lounge", "name:de": "Raiffeisen Lounge", "opening_hours": "Mo,Tu,Fr 08:15-16:15; We 08:15-14:00; Th 08:15-18:30", "wheelchair": "yes"}}, {"type": "node", "id": 8770314223, "lat": 46.688024, "lon": 11.6481749, "tags": {"amenity": "bar", "name": "Bar Cafe Sarns", "name:de": "Bar Cafe Sarns"}}, {"type": "node", "id": 8982740210, "lat": 46.3964935, "lon": 11.6695689, "tags": {"amenity": "bar", "name": "Bar Imbis al Parco"}}, {"type": "node", "id": 9140041708, "lat": 46.4769325, "lon": 11.7408488, "tags": {"amenity": "bar", "level": "0", "name": "Bar Agnello", "outdoor_seating": "yes"}}, {"type": "node", "id": 9152026334, "lat": 46.5724486, "lon": 11.6757963, "tags": {"addr:city": "Urtij\u00ebi - St.Ulrich - Ortisei", "addr:housenumber": "208", "addr:postcode": "39046", "addr:street": "Streda Rezia", "amenity": "bar", "email": "barbaraprinoth@hotmail.com", "mobile": "+39 329 0506630", "name": "Pitla Stua", "phone": "+39 0471 796187", "website": "https://www.valgardena.it/en/addresses/detail/base/company/ortisei-val-gardena/pitla-stua/1EFBAC9B41E102AE00CA2125A9E921DA/"}}, {"type": "node", "id": 9307287663, "lat": 46.4980084, "lon": 11.8731481, "tags": {"addr:city": "Arabba", "addr:housenumber": "27", "addr:postcode": "32020", "addr:street": "Via Bo\u00e8-Arabba", "amenity": "pub", "name": "Birreria Music Pub La Stube"}}, {"type": "node", "id": 9383867384, "lat": 46.4984514, "lon": 11.876106, "tags": {"amenity": "bar", "name": "Bar Heidi"}}, {"type": "node", "id": 9483777951, "lat": 46.5909344, "lon": 11.5249914, "tags": {"hiking": "yes", "information": "guidepost", "route_ref": "Zum Keschtnweg;8", "tourism": "information"}}, {"type": "node", "id": 9484092269, "lat": 46.5908969, "lon": 11.5248852}, {"type": "node", "id": 9809543343, "lat": 46.458382, "lon": 11.7976923, "tags": {"amenity": "bar", "name": "Bar Penia"}}, {"type": "node", "id": 9897823394, "lat": 46.5787577, "lon": 11.683885, "tags": {"amenity": "bar"}}, {"type": "node", "id": 9903370616, "lat": 46.7104155, "lon": 11.6504839, "tags": {"amenity": "bar", "indoor_seating": "yes", "name": "Hotel Jarolim", "outdoor_seating": "yes"}}, {"type": "node", "id": 9925290434, "lat": 46.4726437, "lon": 11.77154}, {"type": "node", "id": 9925290435, "lat": 46.4726974, "lon": 11.7715265}, {"type": "node", "id": 9925290436, "lat": 46.4726377, "lon": 11.7715885}, {"type": "node", "id": 9925290437, "lat": 46.4726883, "lon": 11.7714491}, {"type": "node", "id": 9925290438, "lat": 46.4725735, "lon": 11.7714635}, {"type": "node", "id": 9925290439, "lat": 46.4725662, "lon": 11.7715775}, {"type": "node", "id": 9930452710, "lat": 46.4585984, "lon": 11.786741, "tags": {"amenity": "bar", "name": "Speckstube"}}, {"type": "node", "id": 11281711312, "lat": 46.7174424, "lon": 11.6549885, "tags": {"amenity": "bar", "name": "Agora 21", "opening_hours": "Mo-Sa 16:00-23:00; Su 12:00-14:30,18:00-23:00", "wheelchair": "yes"}}, {"type": "node", "id": 11432439989, "lat": 46.5540812, "lon": 11.7607545, "tags": {"addr:city": "S\u00eblva - Wolkenstein in Gr\u00f6den - Selva di Val Gardena", "addr:housenumber": "36", "addr:postcode": "39048", "addr:street": "Streda Nives", "amenity": "bar", "name": "Luis Bar"}}, {"type": "node", "id": 11487060107, "lat": 46.4807711, "lon": 11.7893854, "tags": {"amenity": "bar", "name": "Bar Pecol Gran Bar"}}, {"type": "node", "id": 11585119351, "lat": 46.5479022, "lon": 11.871339}, {"type": "node", "id": 11585119352, "lat": 46.5478901, "lon": 11.8713593}, {"type": "node", "id": 11585119353, "lat": 46.5478834, "lon": 11.8713842}, {"type": "node", "id": 11585119354, "lat": 46.5478828, "lon": 11.871411}, {"type": "node", "id": 11585119355, "lat": 46.5478885, "lon": 11.8714365}, {"type": "node", "id": 11585119356, "lat": 46.5479771, "lon": 11.8714516}, {"type": "node", "id": 11585119357, "lat": 46.5479862, "lon": 11.8714303}, {"type": "node", "id": 11585119358, "lat": 46.5479902, "lon": 11.871406}, {"type": "node", "id": 11585119359, "lat": 46.5479888, "lon": 11.871381}, {"type": "node", "id": 11585119360, "lat": 46.547982, "lon": 11.871358}, {"type": "node", "id": 11622882698, "lat": 46.555796, "lon": 11.7676026, "tags": {"addr:city": "S\u00eblva - Wolkenstein in Gr\u00f6den - Selva di Val Gardena", "addr:housenumber": "42", "addr:postcode": "39048", "addr:street": "Streda Danterc\u00ebpies", "amenity": "bar", "email": "dantereat.gestione@gmail.com", "name": "Danter Eat", "phone": "+39 338 3172650", "website": "https://www.valgardena.it/en/addresses/detail/base/company/selva-val-gardena/danter-eat/605D9B74D37CC48A5C598240BC1280F7/?RequestKey=170792129965cccf9318711"}}, {"type": "node", "id": 11622939099, "lat": 46.56089, "lon": 11.7336521, "tags": {"addr:city": "S\u00eblva - Wolkenstein in Gr\u00f6den - Selva di Val Gardena", "addr:housenumber": "65", "addr:postcode": "39048", "addr:street": "Streda Plan da Tieja", "amenity": "bar", "name": "Okay", "opening_hours": "Mo-Su,PH 07:30-18:00", "phone": "+39 339 5825845", "website": "https://www.valgardena.it/en/addresses/detail/base/company/selva-val-gardena/bar-okay/336CEFE80A0A84538332F0BF9C07BE5A/?RequestKey=170792201765ccd2613175a"}}, {"type": "node", "id": 11622977288, "lat": 46.5091535, "lon": 11.7569727, "tags": {"addr:city": "S\u00eblva - Wolkenstein in Gr\u00f6den - Selva di Val Gardena", "addr:housenumber": "2", "addr:postcode": "39048", "addr:street": "Ortschaft Sellajoch - Localit\u00e0 Passo Sella", "amenity": "bar", "name:de": "Sellajoch Mountain Resort", "name:en": "Passo Sella Mountain Resort", "name:it": "Passo Sella Mountain Resort", "phone": "+39 0471 795136", "website": "https://www.valgardena.it/en/addresses/detail/base/company/selva-val-gardena/hotel-passo-sella-dolomiti-mountain-resort/C0DF977E76D911D18F2900A02427D15E/?RequestKey=170792257165ccd48b8eb06"}}, {"type": "node", "id": 11630490136, "lat": 46.5751792, "lon": 11.6712186, "tags": {"addr:city": "Urtij\u00ebi - St.Ulrich - Ortisei", "addr:housenumber": "4", "addr:postcode": "39046", "addr:street": "Plaza San Durich", "amenity": "bar", "name": "Bar Four", "website": "https://www.valgardena.it/en/addresses/detail/base/company/ortisei-val-gardena/four/2B3E44633FE6D70B540FD9F4876FA177/"}}, {"type": "node", "id": 11676681713, "lat": 46.5566392, "lon": 11.7582508, "tags": {"addr:city": "S\u00eblva - Wolkenstein - Selva di Val Gardena", "addr:housenumber": "11", "addr:postcode": "39048", "addr:street": "Streda Nives", "amenity": "bar", "email": "info@hotelgranbaita.com", "name": "Granbaita Lounge Bar", "phone": "+39 0471 795210", "website": "https://www.valgardena.it/en/addresses/detail/base/poi/selva-val-gardena/granbaita-lounge-bar/0A0FDD93BCAF87E539740CE97EB04548/"}}, {"type": "node", "id": 11801472767, "lat": 46.574513, "lon": 11.6713105, "tags": {"addr:city": "Urtij\u00ebi - St.Ulrich - Ortisei", "addr:housenumber": "5", "addr:postcode": "39046", "addr:street": "Streda Rezia", "amenity": "bar", "email": "bebe.ploner@gmail.com", "name": "Cafe Adler", "phone": "+39 335 5420182", "website": "https://www.valgardena.it/en/addresses/detail/base/company/ortisei-val-gardena/adler/9B5635E948F94C33B6CBE13411831ABA/"}}, {"type": "node", "id": 11873963167, "lat": 46.7193347, "lon": 11.6563861, "tags": {"amenity": "bar", "indoor_seating": "yes", "name": "Soley", "outdoor_seating": "yes"}}, {"type": "node", "id": 11952338554, "lat": 46.5261047, "lon": 11.7628907, "tags": {"amenity": "pub", "name": "Piz Seteur"}}, {"type": "node", "id": 11967416828, "lat": 46.7168152, "lon": 11.6578898, "tags": {"addr:city": "Brixen - Bressanone", "addr:housenumber": "4", "addr:postcode": "39042", "addr:street": "Wei\u00dfenturmgasse - Via Torre Bianca", "amenity": "bar", "brewery": "viertel_bier", "indoor_seating": "yes", "internet_access": "wlan", "name": "Viertel Bar", "name:de": "Viertel Bar", "opening_hours": "Mo-Su 10:00-23:00", "operator": "Viertel Group GmbH", "outdoor_seating": "yes", "website": "https://badhaus.it/menus/barkarte_de.pdf"}}, {"type": "node", "id": 11979047861, "lat": 46.3788453, "lon": 11.7954919}, {"type": "node", "id": 12598735398, "lat": 46.5647221, "lon": 11.9057076, "tags": {"amenity": "bar", "name": "Ice Bar"}}, {"type": "node", "id": 12628455177, "lat": 46.5537459, "lon": 11.8528925, "tags": {"amenity": "bar", "name": "Bar Sadla"}}, {"type": "node", "id": 12818807087, "lat": 46.420627, "lon": 11.6736887, "tags": {"amenity": "bar", "name": "Sot e Sora Wine & Food"}}, {"type": "node", "id": 12909849616, "lat": 46.6981394, "lon": 11.6825055}, {"type": "node", "id": 12909849617, "lat": 46.6981306, "lon": 11.6825244}, {"type": "node", "id": 12990562503, "lat": 46.4679677, "lon": 11.7174219, "tags": {"amenity": "bar", "name": "Baita Barcia Veia"}}, {"type": "node", "id": 13096495691, "lat": 46.4769608, "lon": 11.7697987, "tags": {"amenity": "pub", "name": "Kaiserkeller"}}, {"type": "node", "id": 13484051116, "lat": 46.6759257, "lon": 11.7130591, "tags": {"amenity": "bar", "name": "Vallazza Apreskibar"}}, {"type": "way", "id": 41994635, "nodes": [520696099, 520696103, 520696105, 520696101, 520696099], "tags": {"addr:city": "S\u00eblva - Wolkenstein in Gr\u00f6den - Selva di Val Gardena", "addr:housenumber": "4", "addr:postcode": "39048", "addr:street": "Streda Fr\u00ebina", "air_conditioning": "no", "amenity": "pub", "brewery": "Stiegl;Unertl;Guinness", "building": "yes", "check_date": "2024-09-14", "email": "info@la-stua.com", "indoor_seating": "yes", "internet_access": "wlan", "internet_access:fee": "customers", "microbrewery": "no", "name": "La Stua", "opening_hours": "Mo-Su,PH 15:30-23:00", "outdoor_seating": "terrace", "real_fire": "no", "smoking": "outside", "toilets": "yes", "website": "https://www.la-stua.com/"}}, {"type": "way", "id": 48994377, "nodes": [621830117, 621830120, 621830119, 621830116, 621830117], "tags": {"amenity": "bar", "building": "yes", "name": "Tennisbar"}}, {"type": "way", "id": 49139224, "nodes": [623258602, 2495184686, 623258606, 12909849617, 12909849616, 623258553, 623258599, 623258602], "tags": {"addr:city": "Brixen - Bressanone", "addr:postcode": "39042", "amenity": "pub", "building": "yes", "name": "P3", "outdoor_seating": "yes"}}, {"type": "way", "id": 58150225, "nodes": [721447964, 721447956, 721447971, 721447988, 721447964], "tags": {"amenity": "bar", "building": "yes", "indoor_seating": "yes", "name:signed": "no", "opening_hours": "We-Mo,PH 07:00-22:00", "outdoor_seating": "yes"}}, {"type": "way", "id": 58610604, "nodes": [726297503, 726297538, 726297562, 726297491, 726297503], "tags": {"amenity": "bar", "building": "yes", "name": "Bar Fraine"}}, {"type": "way", "id": 58654852, "nodes": [726738800, 726738815, 726738805, 726738804, 726738800], "tags": {"amenity": "bar", "building": "yes", "check_date": "2023-10-15", "name": "Lo Scoiattolo", "opening_hours": "Mo-Su 06:30-23:00", "wheelchair": "yes"}}, {"type": "way", "id": 59273945, "nodes": [734964483, 734964384, 734964383, 734964403, 734964483], "tags": {"amenity": "bar", "building": "yes", "name": "Apr\u00e8s Ski Paradis"}}, {"type": "way", "id": 59298536, "nodes": [735312107, 735311886, 735312016, 735311943, 735312107], "tags": {"amenity": "bar", "building": "yes", "name": "Guglielmi Roberto"}}, {"type": "way", "id": 78766565, "nodes": [923030444, 923030284, 923030345, 923030253, 923030444], "tags": {"amenity": "bar", "building": "yes", "name": "ASV Milland", "opening_hours": "\"nur bei Veranstaltungen \""}}, {"type": "way", "id": 95282963, "nodes": [1105304605, 1105304638, 1105304795, 1105304708, 1105304605], "tags": {"addr:housenumber": "8", "addr:street": "Str\u00e8da de Pordoi", "amenity": "pub", "building": "yes", "name": "Pian de Frataces", "opening_hours": "Mo-Su 08:00-17:00", "phone": "+390462600209", "website": "https://snackbarpiandefrataces.fassa.com"}}, {"type": "way", "id": 95648920, "nodes": [2415866896, 1109028110, 3700612007, 3700612008, 3700612009, 3700612010, 1109027758, 1109028318, 1109028492, 2415866784, 2415866793, 2415866796, 2415866863, 2415866872, 2415866896], "tags": {"addr:city": "Canazei", "addr:housenumber": "18", "addr:postcode": "38032", "addr:street": "Strada de Sella", "amenity": "bar", "building": "yes", "name": "Hotel Maria Flora", "stars": "3", "tourism": "hotel"}}, {"type": "way", "id": 98575546, "nodes": [1140423771, 1140423778, 1140423777, 1140423773, 1140423771], "tags": {"amenity": "bar", "building": "yes", "name": "Edelwei\u00df H\u00fctte"}}, {"type": "way", "id": 205446644, "nodes": [2154206987, 2154206968, 2154206955, 2154206976, 2154206987], "tags": {"addr:city": "San Vigilio di Marebbe", "addr:housenumber": "4", "addr:postcode": "39030", "addr:street": "stada Fanes", "amenity": "bar", "brewery": "yes;various", "building": "yes", "indoor_seating": "yes", "min_age": "non", "name": "Caff\u00e8 Conditoria", "opening_hours": "closed", "outdoor_seating": "yes"}}, {"type": "way", "id": 228406316, "nodes": [2370878521, 2370878519, 2370878520, 2370878516, 2370878517, 2370878522, 2370878521], "tags": {"amenity": "bar", "building": "yes", "name": "Tobi\u00e0 de Z\u00e9li"}}, {"type": "way", "id": 234943317, "nodes": [2430612179, 2430612181, 2430612183, 2430612161, 2430612163, 2430612165, 2430612167, 2430612169, 2430612171, 2430612173, 2430612175, 2430612177, 2430612179], "tags": {"amenity": "bar", "building": "yes", "name": "Bar Lintau"}}, {"type": "way", "id": 235162228, "nodes": [2432448090, 2432448108, 2432448118, 2432448129, 2432448090], "tags": {"amenity": "bar", "building": "yes", "name": "Ciasa Verena", "tourism": "guest_house"}}, {"type": "way", "id": 237861722, "nodes": [2457252405, 4264501836, 4264501843, 4264501840, 4264501842, 4264501841, 2457252408, 2457252403, 2457252405], "tags": {"addr:city": "S\u00eblva - Wolkenstein in Gr\u00f6den - Selva di Val Gardena", "addr:city:de": "Wolkenstein in Gr\u00f6den", "addr:city:it": "Selva di Val Gardena", "addr:city:lld": "S\u00eblva", "addr:housenumber": "1", "addr:postcode": "39048", "addr:street": "Passo Sella", "addr:street:de": "Sella Joch", "addr:street:it": "Passo Sella", "addr:street:lld": "Passo Sella", "air_conditioning": "no", "amenity": "bar", "building": "yes", "indoor_seating": "yes", "name": "In Sella", "outdoor_seating": "yes", "smoking": "outside"}}, {"type": "way", "id": 244602865, "nodes": [2519017823, 9484092269, 2519017824, 9483777951, 2519017825, 2519017826, 2519017827, 2519017829, 2519017823], "tags": {"addr:city": "Barbian - Barbiano", "addr:housenumber": "9", "addr:postcode": "39040", "addr:street": "Am Kuntersweg", "amenity": "pub", "building": "yes", "name": "Bierstube Oberweger"}}, {"type": "way", "id": 254644935, "nodes": [2604526564, 11979047861, 2604526565, 2604526568, 2604526575, 2604526577, 2604526576, 2604526573, 2604526569, 2604526566, 2604526564], "tags": {"amenity": "bar", "building": "yes"}}, {"type": "way", "id": 259255294, "nodes": [2646086891, 2646086889, 2646086887, 2646086892, 2646086891], "tags": {"amenity": "bar", "building": "yes", "name": "Filler Tenne", "payment:credit_cards": "yes", "payment:debit_cards": "yes"}}, {"type": "way", "id": 330895400, "nodes": [3379324296, 3379324298, 3379324297, 3379324295, 3379324293, 3379312691, 3379312692, 3379324294, 3379324296], "tags": {"amenity": "bar", "building": "yes", "name": "Siglu", "wheelchair": "no"}}, {"type": "way", "id": 334600725, "nodes": [3416645863, 3416645862, 3416645871, 3416645877, 3416645863], "tags": {"amenity": "bar", "building": "yes", "name": "Sportbar Laranz"}}, {"type": "way", "id": 468512608, "nodes": [11585119356, 11585119357, 11585119358, 11585119359, 11585119360, 4630464835, 4630464834, 4630464833, 4630464832, 11585119351, 11585119352, 11585119353, 11585119354, 11585119355, 4630464831, 4630464830, 4630464829, 4630464828, 4630464827, 11585119356], "tags": {"addr:country": "IT", "addr:postcode": "39033", "amenity": "bar", "building": "yes", "name": "Ciamin", "phone": "+39 0471836231"}}, {"type": "way", "id": 680367879, "nodes": [6370504304, 6370504305, 6370504306, 6370504307, 6370504308, 6370504309, 6370504291, 6370504292, 6370504293, 6370504298, 6370504299, 6370504300, 6370504301, 6370504302, 6370504303, 6370504294, 6370504295, 6370504296, 6370504297, 6370504304], "tags": {"amenity": "bar", "building": "yes", "name": "Iglo", "seasonal": "winter"}}, {"type": "way", "id": 1083007749, "nodes": [9925290439, 9925290438, 9925290437, 9925290435, 9925290434, 9925290436, 9925290439], "tags": {"amenity": "bar", "building": "yes", "name": "Bait De Ca'"}}]}