{"version": 0.6, "generator": "Overpass API 0.7.62.10 2d4cfc48", "osm3s": {"timestamp_osm_base": "2026-02-08T12:55:30Z", "copyright": "The data included in this document is from www.openstreetmap.org. The data is made available under ODbL."}, "elements": [{"type": "node", "id": 302392417, "lat": 46.652708, "lon": 11.6201911, "tags": {"email": "info@mineralienmuseum-teis.it", "fax": "+39 0472 844544", "fee": "yes", "name": "Mineralien Museum - Museo Mineralogico", "name:de": "Mineralien Museum", "name:it": "Museo Mineralogico", "phone": "+39 0472 844522", "tourism": "museum", "website": "https://www.mineralienmuseum-teis.it/", "wikidata": "Q1280995"}}, {"type": "node", "id": 531727566, "lat": 46.6808528, "lon": 11.8931132}, {"type": "node", "id": 531727568, "lat": 46.6808354, "lon": 11.8932463}, {"type": "node", "id": 531727573, "lat": 46.6806231, "lon": 11.8932183}, {"type": "node", "id": 531727578, "lat": 46.6806132, "lon": 11.8934008}, {"type": "node", "id": 1217285860, "lat": 46.6388996, "lon": 11.5632691}, {"type": "node", "id": 1217285880, "lat": 46.638885, "lon": 11.5634884}, {"type": "node", "id": 1217285913, "lat": 46.638758, "lon": 11.5634139}, {"type": "node", "id": 1217285920, "lat": 46.6390053, "lon": 11.5635564}, {"type": "node", "id": 1217285922, "lat": 46.6388358, "lon": 11.5633539}, {"type": "node", "id": 1217285925, "lat": 46.6388068, "lon": 11.5635464}, {"type": "node", "id": 1217285964, "lat": 46.6387718, "lon": 11.5637319}, {"type": "node", "id": 1217285983, "lat": 46.6389488, "lon": 11.5632309}, {"type": "node", "id": 1217286035, "lat": 46.6386216, "lon": 11.5633264}, {"type": "node", "id": 1217286077, "lat": 46.6388912, "lon": 11.563079}, {"type": "node", "id": 1232238332, "lat": 46.4583671, "lon": 11.8634217}, {"type": "node", "id": 1232238341, "lat": 46.4584921, "lon": 11.8634532}, {"type": "node", "id": 1232238363, "lat": 46.4584691, "lon": 11.8636929}, {"type": "node", "id": 1232238380, "lat": 46.4584524, "lon": 11.8635233}, {"type": "node", "id": 1232238390, "lat": 46.4583165, "lon": 11.8635112}, {"type": "node", "id": 1232238398, "lat": 46.4585593, "lon": 11.8635333}, {"type": "node", "id": 1399956834, "lat": 46.5248889, "lon": 11.4276436}, {"type": "node", "id": 1399956837, "lat": 46.5248915, "lon": 11.4278439}, {"type": "node", "id": 1399956862, "lat": 46.5250568, "lon": 11.4276392}, {"type": "node", "id": 1399956864, "lat": 46.5250593, "lon": 11.4278394}, {"type": "node", "id": 1678011491, "lat": 46.4797956, "lon": 11.5627533}, {"type": "node", "id": 1678011492, "lat": 46.4797999, "lon": 11.5629216}, {"type": "node", "id": 1678011494, "lat": 46.479866, "lon": 11.5627496}, {"type": "node", "id": 1678011496, "lat": 46.4798703, "lon": 11.5629178}, {"type": "node", "id": 1802051052, "lat": 46.5782563, "lon": 11.514296, "tags": {"name": "Tiermuseum", "tourism": "museum"}}, {"type": "node", "id": 1832241233, "lat": 46.6422328, "lon": 11.7109362}, {"type": "node", "id": 1832241241, "lat": 46.6423237, "lon": 11.7110913}, {"type": "node", "id": 1832241243, "lat": 46.6423934, "lon": 11.710736}, {"type": "node", "id": 1832241255, "lat": 46.6424858, "lon": 11.710892}, {"type": "node", "id": 2249028751, "lat": 46.74374, "lon": 11.6491306}, {"type": "node", "id": 2249028847, "lat": 46.7438641, "lon": 11.6489895}, {"type": "node", "id": 2249028911, "lat": 46.7439244, "lon": 11.6491027}, {"type": "node", "id": 2363309438, "lat": 46.6540774, "lon": 11.5435376, "tags": {"ele": "1300", "fee": "yes", "name": "Bergwerk Villanders - Miniera Villandro", "name:de": "Bergwerk Villanders", "name:it": "Miniera Villandro", "opening_hours": "Open from Easter until the end of October; Tu,Th 10:00-10:29,14:00-14:29; Su 10:00-10:29", "operator": "Kultur- und Museumsverein Villanders", "phone": "+39 345 3115661", "tourism": "museum", "website": "https://www.bergwerk.it/", "wikidata": "Q22691332", "wikipedia": "de:Bergwerk Villanders"}}, {"type": "node", "id": 2388163533, "lat": 46.7166139, "lon": 11.6582709, "tags": {"addr:city": "Brixen - Bressanone", "addr:city:de": "Brixen", "addr:city:it": "Bressanone", "addr:housenumber": "4", "addr:postcode": "39042", "addr:street": "Adlerbr\u00fcckengasse - Via Ponte Aquila", "email": "contact@pharmaziemuseum.it", "fax": "+39 0472 832777", "fee": "yes", "name": "Pharmaziemuseum - Museo della Farmacia", "name:de": "Pharmaziemuseum", "name:en": "Pharmacy Museum", "name:it": "Museo della Farmacia", "opening_hours": "Tu,We 14:00-18:00; Sa 11:00-18:00; Jul-Aug: Mo-Fr 11:00-18:00; Sa 11:00-16:00", "phone": "+39 0472 209112", "tourism": "museum", "website:de": "www.pharmaziemuseum.it", "website:it": "www.museofarmacia.it", "wikidata": "Q2085142", "wikipedia": "it:Museo della farmacia di Bressanone"}}, {"type": "node", "id": 2402110330, "lat": 46.6315756, "lon": 11.5408316}, {"type": "node", "id": 2402205058, "lat": 46.6317081, "lon": 11.5406529}, {"type": "node", "id": 2402205059, "lat": 46.6318727, "lon": 11.5409117}, {"type": "node", "id": 2402205060, "lat": 46.6317928, "lon": 11.5410194}, {"type": "node", "id": 2402205061, "lat": 46.631757, "lon": 11.5409631}, {"type": "node", "id": 2402205062, "lat": 46.6317044, "lon": 11.5410341}, {"type": "node", "id": 2453992857, "lat": 46.570741, "lon": 11.9322734, "tags": {"fee": "yes", "name": "Museum Ladin Ursus ladinicus", "opening_hours": "Tu-Su 10:00-18:00", "tourism": "museum", "wikidata": "Q105085144"}}, {"type": "node", "id": 2547874826, "lat": 46.6386323, "lon": 11.5633168}, {"type": "node", "id": 2547874829, "lat": 46.6387093, "lon": 11.5632223}, {"type": "node", "id": 2547874831, "lat": 46.6387171, "lon": 11.563241}, {"type": "node", "id": 2547874832, "lat": 46.638721, "lon": 11.5632128}, {"type": "node", "id": 2560951233, "lat": 46.7147023, "lon": 11.6556498, "tags": {"addr:city": "Brixen - Bressanone", "addr:housenumber": "2", "addr:postcode": "39042", "addr:street": "Hofburgplatz - P.zza Vescovado", "check_date": "2023-08-03", "email": "info@hofburg.it", "fax": "+39 0472 208 282", "fee": "yes", "name": "Di\u00f6zesanmuseum - Museo Diocesano", "name:de": "Di\u00f6zesanmuseum Hofburg Brixen", "name:it": "Museo Diocesano Palazzo Vescovile", "opening_hours": "Oct-May 10:00-17:00; Jun-Sep 10:00-18:30", "phone": "+39 0472 830 505", "tourism": "museum", "website": "https://www.hofburg.it/", "wikidata": "Q1383080", "wikipedia": "it:Museo diocesano (Bressanone)"}}, {"type": "node", "id": 2584236673, "lat": 46.4859601, "lon": 11.4554414, "tags": {"name": "Heimat Museeum Steinegg - Museo di Collepietra", "name:de": "Heimat Museeum Steinegg", "name:it": "Museo di Collepietra", "source": "http://www.musei-altoadige.it/it/musei.asp?muspo_id=613", "tourism": "museum"}}, {"type": "node", "id": 2636971069, "lat": 46.6483066, "lon": 11.6019098, "tags": {"contact:mobile": "+39 348 774 7339", "email": "info@dorfmuseum-gufidaun.it", "fee": "yes", "name": "Dorfmuseum Gufidaun - Museo locale di Gudon", "name:de": "Dorfmuseum Gufidaun", "name:it": "Museo locale di Gudon", "phone": "+39 0472 847 399", "tourism": "museum", "website": "https://www.dorfmuseum-gufidaun.it/"}}, {"type": "node", "id": 2666703655, "lat": 46.5558303, "lon": 11.521405}, {"type": "node", "id": 2666703656, "lat": 46.5558893, "lon": 11.5210465}, {"type": "node", "id": 2666703657, "lat": 46.5560116, "lon": 11.5214681}, {"type": "node", "id": 2666703658, "lat": 46.5560396, "lon": 11.521298}, {"type": "node", "id": 2666703659, "lat": 46.5560578, "lon": 11.5213043}, {"type": "node", "id": 2666703661, "lat": 46.5560888, "lon": 11.5211159}, {"type": "node", "id": 2755707447, "lat": 46.6388819, "lon": 11.5636502, "tags": {"addr:city": "Klausen - Chiusa", "addr:city:de": "Klausen", "addr:city:it": "Chiusa", "addr:housenumber": "1", "addr:postcode": "39043", "addr:street": "Frag - Fraghes", "addr:street:de": "Frag", "addr:street:it": "Fraghes", "entrance": "main"}}, {"type": "node", "id": 2958704084, "lat": 46.6042877, "lon": 11.9083011}, {"type": "node", "id": 2958704085, "lat": 46.6041571, "lon": 11.9082282}, {"type": "node", "id": 2958704086, "lat": 46.6041457, "lon": 11.9082714}, {"type": "node", "id": 2958704087, "lat": 46.6041333, "lon": 11.9082646}, {"type": "node", "id": 2958704088, "lat": 46.6041157, "lon": 11.9083314}, {"type": "node", "id": 2958704089, "lat": 46.6041339, "lon": 11.9083416}, {"type": "node", "id": 2958704090, "lat": 46.6041194, "lon": 11.9083964}, {"type": "node", "id": 2958704091, "lat": 46.6042442, "lon": 11.908466}, {"type": "node", "id": 3686621824, "lat": 46.6806028, "lon": 11.8927975}, {"type": "node", "id": 3686635068, "lat": 46.6804937, "lon": 11.8929282, "tags": {"addr:city": "San Martin de Tor - St. Martin in Thurn - San Martino in Badia", "addr:housenumber": "65", "addr:postcode": "39030", "addr:street": "Strada Tor", "email": "info@museumladin.it", "fax": "+39 0474 524 263", "fee": "yes", "name": "Museum Ladin \u0106iastel de Tor", "name:de": "Museum Ladin \u0106iastel de Tor", "name:it": "Museum Ladin \u0106iastel de Tor", "name:lld": "Museum Ladin \u0106iastel de Tor", "opening_hours": "Mo-Sa 10:00-18:00; Su 14:00-18:00", "phone": "+39 0474 524 020", "tourism": "museum", "website": "https://www.museumladin.it/it/default.asp", "wikidata": "Q14592607", "wikipedia": "de:Museum Ladin"}}, {"type": "node", "id": 3686645125, "lat": 46.6804738, "lon": 11.8930334}, {"type": "node", "id": 3686645126, "lat": 46.680399, "lon": 11.8929465}, {"type": "node", "id": 3686645127, "lat": 46.680528, "lon": 11.8927106}, {"type": "node", "id": 3801814214, "lat": 46.593362, "lon": 11.5545956}, {"type": "node", "id": 3801814225, "lat": 46.593212, "lon": 11.554616}, {"type": "node", "id": 3801814240, "lat": 46.5932895, "lon": 11.5547416}, {"type": "node", "id": 3801814241, "lat": 46.5932578, "lon": 11.5547083}, {"type": "node", "id": 3801814246, "lat": 46.5932701, "lon": 11.554499}, {"type": "node", "id": 3801814249, "lat": 46.5932722, "lon": 11.5546793}, {"type": "node", "id": 4408535598, "lat": 46.5175913, "lon": 11.5029119, "tags": {"fee": "no", "name": "Pfarrmuseum und Archeologiemuseum V\u00f6ls - Museo parrocchiale e Museo archeologico di Fi\u00e8", "name:de": "Pfarrmuseum und Archeologiemuseum V\u00f6ls", "name:it": "Museo parrocchiale e Museo archeologico di Fi\u00e8", "opening_hours": "Mo 18:00-18:30,18:30-19:00; Th 09:00-10:00,10:00-11:00,11:30-12:00", "phone": "+39 0471 725 087", "tourism": "museum"}}, {"type": "node", "id": 5602488231, "lat": 46.4376588, "lon": 11.8793706, "tags": {"fee": "no", "name": "Museo Marmolada Grande Guerra", "opening_hours": "Mo-Su 09:00-16:00", "tourism": "museum"}}, {"type": "node", "id": 6383644378, "lat": 46.6945763, "lon": 11.9359512, "tags": {"name": "Fanes-Sennes-Braies UNESCO Museum", "tourism": "museum"}}, {"type": "node", "id": 6443443856, "lat": 46.6806193, "lon": 11.8929747}, {"type": "node", "id": 6443443858, "lat": 46.6806109, "lon": 11.8928689}, {"type": "node", "id": 6443443859, "lat": 46.6806817, "lon": 11.8929642}, {"type": "node", "id": 6443443861, "lat": 46.6806733, "lon": 11.8928584}, {"type": "node", "id": 7357401240, "lat": 46.7438031, "lon": 11.6492123}, {"type": "node", "id": 7505760985, "lat": 46.6358925, "lon": 11.7655749, "tags": {"name": "Dolomites UNESCO Info Point Zans", "tourism": "museum"}}, {"type": "node", "id": 8265459984, "lat": 46.6806815, "lon": 11.8932183}, {"type": "node", "id": 8265459986, "lat": 46.6807551, "lon": 11.8932672}, {"type": "node", "id": 8265459988, "lat": 46.6807066, "lon": 11.8931573}, {"type": "node", "id": 8265459989, "lat": 46.6807104, "lon": 11.8930799}, {"type": "node", "id": 8265459990, "lat": 46.6808056, "lon": 11.8930835}, {"type": "node", "id": 8265459991, "lat": 46.680813, "lon": 11.8930742}, {"type": "node", "id": 8265459992, "lat": 46.6808207, "lon": 11.8930681}, {"type": "node", "id": 8265459993, "lat": 46.6808305, "lon": 11.8930665}, {"type": "node", "id": 8265459994, "lat": 46.6808395, "lon": 11.8930715}, {"type": "node", "id": 8265459995, "lat": 46.6808455, "lon": 11.8930785}, {"type": "node", "id": 8265459996, "lat": 46.68085, "lon": 11.8930889}, {"type": "node", "id": 8265459997, "lat": 46.6808529, "lon": 11.8931017}, {"type": "node", "id": 8265459998, "lat": 46.6808499, "lon": 11.8931226}, {"type": "node", "id": 8265459999, "lat": 46.6808471, "lon": 11.89313}, {"type": "node", "id": 8265460000, "lat": 46.6808428, "lon": 11.893135}, {"type": "node", "id": 8265460001, "lat": 46.6808386, "lon": 11.8931372}, {"type": "node", "id": 8265460002, "lat": 46.6806538, "lon": 11.8930761}, {"type": "node", "id": 8265460003, "lat": 46.6806521, "lon": 11.8930679}, {"type": "node", "id": 8265460004, "lat": 46.6806482, "lon": 11.8930613}, {"type": "node", "id": 8265460005, "lat": 46.680642, "lon": 11.8930557}, {"type": "node", "id": 8265460006, "lat": 46.6806339, "lon": 11.8930542}, {"type": "node", "id": 8265460007, "lat": 46.6806245, "lon": 11.8930572}, {"type": "node", "id": 8265460008, "lat": 46.6806175, "lon": 11.8930644}, {"type": "node", "id": 8265460009, "lat": 46.6806148, "lon": 11.893073}, {"type": "node", "id": 8265460010, "lat": 46.6806127, "lon": 11.8930857}, {"type": "node", "id": 8265460011, "lat": 46.6806141, "lon": 11.8930979}, {"type": "node", "id": 8265460012, "lat": 46.6806162, "lon": 11.8931076}, {"type": "node", "id": 8265460013, "lat": 46.6806231, "lon": 11.8931147}, {"type": "node", "id": 8265460014, "lat": 46.6806304, "lon": 11.8931198}, {"type": "node", "id": 8265460015, "lat": 46.6806395, "lon": 11.8931198}, {"type": "node", "id": 8265460016, "lat": 46.6806437, "lon": 11.8931142}, {"type": "node", "id": 8265466317, "lat": 46.6806503, "lon": 11.893106}, {"type": "node", "id": 8265466318, "lat": 46.6807092, "lon": 11.8931099}, {"type": "node", "id": 8265466319, "lat": 46.6806851, "lon": 11.8931547}, {"type": "node", "id": 8265466320, "lat": 46.6806572, "lon": 11.8932183}, {"type": "node", "id": 8265466321, "lat": 46.6806589, "lon": 11.8931886}, {"type": "node", "id": 8265466322, "lat": 46.6806255, "lon": 11.893186}, {"type": "node", "id": 8265466323, "lat": 46.6807713, "lon": 11.8933968}, {"type": "node", "id": 8265466324, "lat": 46.6806343, "lon": 11.8931867}, {"type": "node", "id": 8265466325, "lat": 46.6806475, "lon": 11.8931091}, {"type": "node", "id": 8265466326, "lat": 46.6805049, "lon": 11.8929766}, {"type": "node", "id": 8265466341, "lat": 46.6804896, "lon": 11.8927809}, {"type": "node", "id": 8265466350, "lat": 46.6806289, "lon": 11.8931401}, {"type": "node", "id": 8265466351, "lat": 46.6806379, "lon": 11.8931403}, {"type": "node", "id": 8266822206, "lat": 46.6806185, "lon": 11.8933027}, {"type": "node", "id": 8891086186, "lat": 46.5738835, "lon": 11.6745514, "tags": {"addr:city": "Urtij\u00ebi - St. Ulrich in Gr\u00f6den - Ortisei", "addr:housenumber": "83", "addr:postcode": "39046", "addr:street": "Streda Rezia", "email": "info@museumgherdeina.it", "fax": "+39 0471 789798", "fee": "yes", "museum": "history", "name": "Museum Gherd\u00ebina", "name:de": "Museum Gr\u00f6den", "phone": "+39 0471 797554", "tourism": "museum", "website": "https://www.museumgherdeina.it/", "wikidata": "Q823048", "wikimedia_commons": "Category:Museum Gherd\u00ebina", "wikipedia": "en:Museum Gherd\u00ebina"}}, {"type": "node", "id": 8929467921, "lat": 46.4231294, "lon": 11.6796956, "tags": {"addr:housenumber": "9", "addr:state": "32", "addr:street": "Strada de Sen Jan", "air_conditioning": "yes", "contact:email": "museo@istladin.net", "contact:phone": "+39 0462 760182", "kids_area": "yes", "museum": "person;history", "museum_type": "regional", "name": "Museo Ladin de Fascia  - Museo ladino di Fassa", "name:it": "Museo ladino di Fassa", "name:lld": "Museo Ladin de Fascia", "opening_hours": "Dec 01-Apr 01 Mo-Fr,Su 15:00-19:00; Sep 11-Oct 11 Mo-Fr,Su 15:00-19:00; Jun 10-Sep 10 We 10:00-12:00,15:00-19:00; Sa closed; Oct 12-Nov 30 Mo-Fr,Su closed; Apr 02-Jun 09 Mo-Fr,Su closed; PH closed", "ref:vatin": "IT00379240229", "toilets": "yes", "toilets:access": "customers", "toilets:wheelchair": "yes", "tourism": "museum", "website": "https://www.istladin.net", "wheelchair": "yes"}}, {"type": "node", "id": 9139926683, "lat": 46.4757784, "lon": 11.7433934}, {"type": "node", "id": 9139926684, "lat": 46.4758652, "lon": 11.7434109}, {"type": "node", "id": 9139926685, "lat": 46.4758148, "lon": 11.7433393}, {"type": "node", "id": 9139926686, "lat": 46.4758287, "lon": 11.743465}, {"type": "node", "id": 9186244259, "lat": 46.7438823, "lon": 11.6491217}, {"type": "node", "id": 9186244260, "lat": 46.7438918, "lon": 11.6491399}, {"type": "node", "id": 9186244261, "lat": 46.743778, "lon": 11.6492099}, {"type": "node", "id": 9186244262, "lat": 46.7437447, "lon": 11.6491567}, {"type": "node", "id": 12157826464, "lat": 46.6522384, "lon": 11.8493128}, {"type": "node", "id": 12157826465, "lat": 46.6517377, "lon": 11.8476069}, {"type": "node", "id": 12157826466, "lat": 46.6516677, "lon": 11.8473306}, {"type": "node", "id": 12157826467, "lat": 46.6517561, "lon": 11.8472904}, {"type": "node", "id": 12157826468, "lat": 46.6518352, "lon": 11.8474594}, {"type": "node", "id": 12157826469, "lat": 46.6514913, "lon": 11.8477315}, {"type": "node", "id": 12157826470, "lat": 46.6520418, "lon": 11.8473805}, {"type": "node", "id": 12157826471, "lat": 46.6521045, "lon": 11.8475471}, {"type": "node", "id": 12157826472, "lat": 46.6516936, "lon": 11.8479338}, {"type": "node", "id": 12157826473, "lat": 46.6513567, "lon": 11.8480311}, {"type": "node", "id": 12157826474, "lat": 46.6512858, "lon": 11.8478029}, {"type": "node", "id": 12157826475, "lat": 46.6523968, "lon": 11.8499128}, {"type": "node", "id": 12157826476, "lat": 46.6523295, "lon": 11.8488551}, {"type": "node", "id": 12157826477, "lat": 46.6522604, "lon": 11.8484624}, {"type": "node", "id": 12157826478, "lat": 46.6523675, "lon": 11.8480496}, {"type": "node", "id": 12157826479, "lat": 46.6526025, "lon": 11.8480093}, {"type": "node", "id": 12157826480, "lat": 46.652841, "lon": 11.8486135}, {"type": "node", "id": 12157826481, "lat": 46.6528652, "lon": 11.8488501}, {"type": "node", "id": 12157826482, "lat": 46.652644, "lon": 11.8490616}, {"type": "node", "id": 12157826483, "lat": 46.652547, "lon": 11.849786}, {"type": "way", "id": 105699488, "nodes": [1217285922, 1217285913, 1217285925, 1217285880, 1217285922]}, {"type": "way", "id": 105699499, "nodes": [1217285920, 2755707447, 1217285964, 1217286035, 2547874826, 2547874831, 2547874829, 2547874832, 1217286077, 1217285983, 1217285860, 1217285920]}, {"type": "way", "id": 107176077, "nodes": [1232238332, 1232238390, 1232238363, 1232238398, 1232238341, 1232238380, 1232238332], "tags": {"building": "yes", "name": "Museo della Grande Guerra 1914-1918", "tourism": "museum"}}, {"type": "way", "id": 126234167, "nodes": [1399956862, 1399956864, 1399956837, 1399956834, 1399956862], "tags": {"building": "yes", "email": "info.plattner@gramm-spa.it", "fax": "+39 0471 345 350", "fee": "yes", "name": "Imkereimuseum Plattner Bienenhof - Museo dell'apicoltura Maso Plattner", "name:de": "Imkereimuseum Plattner Bienenhof", "name:it": "Museo dell'apicoltura Maso Plattner", "phone": "+39 0471 345 350", "tourism": "museum", "website": "https://www.museo-plattner.com/", "wheelchair": "no", "wikidata": "Q2098818"}}, {"type": "way", "id": 155402628, "nodes": [1678011494, 1678011496, 1678011492, 1678011491, 1678011494], "tags": {"building": "yes", "fee": "no", "name": "Naturparkhaus Schlern-Rosengarten - Centro visite Parco Naturale Sciliar-Catinaccio", "name:de": "Naturparkhaus Schlern-Rosengarten", "name:it": "Centro visite Parco Naturale Sciliar-Catinaccio", "opening_hours": "Jun 16-Sep 15 Tu 14:00-17:30; Th 09:30-17:30; PH off", "phone": "+39 0471 642196", "tourism": "museum"}}, {"type": "way", "id": 172307802, "nodes": [1832241243, 1832241233, 1832241241, 1832241255, 1832241243], "tags": {"building": "yes", "email": "nfo.pg@provinz.bz.it", "fax": "+39 0472 842677", "fee": "no", "name": "Naturparkhaus Puez-Geisler - Centro visite Parco Naturale Puez-Odle", "name:de": "Naturparkhaus Puez-Geisler", "name:it": "Centro visite Parco Naturale Puez-Odle", "phone": "+39 0472 842523", "tourism": "museum"}}, {"type": "way", "id": 231895303, "nodes": [2402205058, 2402205059, 2402205060, 2402205061, 2402205062, 2402110330, 2402205058], "tags": {"building": "yes", "check_date": "2024-02-24", "name": "Archeoparc", "tourism": "museum"}}, {"type": "way", "id": 261053764, "nodes": [2666703661, 2666703659, 2666703658, 2666703657, 2666703655, 2666703656, 2666703661], "tags": {"addr:city": "Kastelruth - Castelrotto", "addr:housenumber": "19", "addr:postcode": "39040", "addr:street": "Sant'Osvaldo", "building": "yes", "museum": "living_history", "name": "Museo Contadino", "opening_hours": "Mar-Oct: Tu, Th 08:00-22:00", "phone": "+39 0471 706013", "tourism": "museum", "website": "https://www.museum-kastelruth.com/it/museo-contadino/"}}, {"type": "way", "id": 292317685, "nodes": [2958704084, 2958704085, 2958704086, 2958704087, 2958704088, 2958704089, 2958704090, 2958704091, 2958704084], "tags": {"building": "yes", "description:it": "Casa natale di San Giuseppe Freinademetz", "tourism": "museum"}}, {"type": "way", "id": 364626874, "nodes": [3686621824, 8265466326, 3686645125, 3686645126, 8265466341, 3686645127, 3686621824]}, {"type": "way", "id": 376794156, "nodes": [3801814246, 3801814214, 3801814240, 3801814241, 3801814249, 3801814225, 3801814246], "tags": {"abandoned:amenity": "school", "building": "school", "building:use": "museum", "fee": "no", "mobile": "+39 334 7423915", "museum": "local", "name": "Schulmuseum Tagusens - Museo della Scuola Tagusa", "name:de": "Schulmuseum Tagusens", "name:it": "Museo della Scuola Tagusa", "opening_hours": "We, Fr 14:00-18:00;Su 10:00-18:00", "tourism": "museum", "website": "https://www.museum-kastelruth.com/schulmuseum/"}}, {"type": "way", "id": 687399815, "nodes": [6443443861, 6443443858, 6443443856, 6443443859, 6443443861]}, {"type": "way", "id": 786997449, "nodes": [2249028847, 2249028751, 9186244262, 9186244261, 7357401240, 9186244259, 9186244260, 2249028911, 2249028847], "tags": {"building": "yes", "fee": "yes", "name": "Museum - Museo", "name:de": "Museum", "name:it": "Museo", "tourism": "museum", "website": "https://www.kloster-neustift.it/"}}, {"type": "way", "id": 889234823, "nodes": [8265460015, 8265460016, 8265466325, 8265466317, 8265466318, 8265459988, 8265466319, 8265459984, 8265466320, 8265466321, 8265466324, 8265466351, 8265460015]}, {"type": "way", "id": 889234824, "nodes": [8265460014, 8265460013, 8265460012, 8265460011, 8265460010, 8265460009, 8265460008, 8265460007, 8265460006, 8265460005, 8265460004, 8265460003, 8265460002, 8265459989, 8265459990, 8265459991, 8265459992, 8265459993, 8265459994, 8265459995, 8265459996, 8265459997, 531727566, 8265459998, 8265459999, 8265460000, 8265460001, 531727568, 8265459986, 8265466323, 531727578, 8266822206, 531727573, 8265466322, 8265466350, 8265460014]}, {"type": "way", "id": 988873606, "nodes": [9139926685, 9139926683, 9139926686, 9139926684, 9139926685], "tags": {"addr:street": "Via P\u00e9nt de S\u00e8ra", "building": "yes", "building:levels": "1", "building:use": "cultural", "museum": "history", "museum_type": "municipal", "name": "Museo Ladin de Fascia, Il Casino di Bersaglio", "note": "July - September", "opening_hours": "Mo-Sa 16:00-19:00", "roof:orientation": "along", "roof:shape": "gabled", "tourism": "museum"}}, {"type": "way", "id": 1313506987, "nodes": [12157826474, 12157826473, 12157826472, 12157826471, 12157826470, 12157826468, 12157826467, 12157826466, 12157826465, 12157826469, 12157826474]}, {"type": "way", "id": 1313506988, "nodes": [12157826483, 12157826482, 12157826481, 12157826480, 12157826479, 12157826478, 12157826477, 12157826476, 12157826464, 12157826475, 12157826483]}, {"type": "relation", "id": 1504723, "members": [{"type": "way", "ref": 105699488, "role": "inner"}, {"type": "way", "ref": 105699499, "role": "outer"}], "tags": {"building": "monastery", "name": "Stadtmuseum - Museo Civico", "name:de": "Stadtmuseum", "name:it": "Museo Civico", "opening_hours": "Tu-Sa 09:30-12:00,15:30-18:00", "tourism": "museum", "type": "multipolygon", "usage": "museum", "wikidata": "Q3867760", "wikipedia": "it:Museo civico (Chiusa)"}}, {"type": "relation", "id": 12102045, "members": [{"type": "way", "ref": 889234823, "role": "inner"}, {"type": "way", "ref": 889234824, "role": "outer"}, {"type": "way", "ref": 364626874, "role": "outer"}, {"type": "way", "ref": 687399815, "role": "outer"}], "tags": {"addr:city": "San Martin de Tor - St. Martin in Thurn - San Martino in Badia", "addr:housenumber": "65", "addr:postcode": "39030", "addr:street": "Strada Tor", "building": "yes", "email": "info@museumladin.it", "fax": "+39 0474 524 263", "fee": "yes", "name": "Museum Ladin \u0106iastel de Tor", "name:de": "Museum Ladin \u0106iastel de Tor", "name:it": "Museum Ladin \u0106iastel de Tor", "name:lld": "Museum Ladin \u0106iastel de Tor", "opening_hours": "Mo-Sa 10:00-18:00; Su 14:00-18:00", "phone": "+39 0474 524 020", "tourism": "museum", "type": "multipolygon", "website": "https://www.museumladin.it/it/default.asp", "wikidata": "Q14592607", "wikipedia": "de:Museum Ladin"}}, {"type": "relation", "id": 18011191, "members": [{"type": "way", "ref": 1313506987, "role": "outer"}, {"type": "way", "ref": 1313506988, "role": "outer"}], "tags": {"name": "Open Air Mountain Museum", "opening_hours": "24/7", "outdoor": "yes", "tourism": "museum", "type": "multipolygon"}}]}