{"version": 0.6, "generator": "Overpass API 0.7.62.10 2d4cfc48", "osm3s": {"timestamp_osm_base": "2026-02-08T12:41:05Z", "copyright": "The data included in this document is from www.openstreetmap.org. The data is made available under ODbL."}, "elements": [{"type": "node", "id": 249385950, "lat": 46.2898165, "lon": 11.5115513, "tags": {"created_by": "Potlatch 0.7b", "shop": "supermarket"}}, {"type": "node", "id": 260572280, "lat": 46.2730677, "lon": 11.4160248, "tags": {"name": "Famiglia Cooperativa", "shop": "supermarket"}}, {"type": "node", "id": 260572772, "lat": 46.2737428, "lon": 11.4194903, "tags": {"name": "Alimentari Cavada", "shop": "supermarket"}}, {"type": "node", "id": 261086639, "lat": 46.2815749, "lon": 11.4346627, "tags": {"check_date": "2023-12-26", "name": "Famiglia Cooperativa", "opening_hours": "Mo-Sa 08:00-12:00,16:00-19:00; Th 08:00-12:00", "operator": "coop", "shop": "supermarket"}}, {"type": "node", "id": 272337350, "lat": 46.3691185, "lon": 11.6512289, "tags": {"brand": "Coop", "brand:wikidata": "Q1129774", "name": "Coop", "shop": "supermarket"}}, {"type": "node", "id": 303820047, "lat": 46.3036354, "lon": 11.5932141, "tags": {"name": "Supermercato Poli", "shop": "supermarket"}}, {"type": "node", "id": 303822587, "lat": 46.3129806, "lon": 11.6009513, "tags": {"name": "Famiglia Cooperativa", "opening_hours": "Mo-Sa 07:30-19:30; Su 07:30-12:30,15:30-19:00", "shop": "supermarket"}}, {"type": "node", "id": 303825064, "lat": 46.3141926, "lon": 11.598513, "tags": {"brand": "Spar", "brand:wikidata": "Q610492", "name": "Despar", "shop": "supermarket"}}, {"type": "node", "id": 491472990, "lat": 46.384251, "lon": 11.526345, "tags": {"name": "Shop Obereggen", "shop": "supermarket"}}, {"type": "node", "id": 739108572, "lat": 46.1705975, "lon": 11.8237655}, {"type": "node", "id": 739108785, "lat": 46.1708872, "lon": 11.823477}, {"type": "node", "id": 739108870, "lat": 46.170658, "lon": 11.8241932}, {"type": "node", "id": 739109276, "lat": 46.1712094, "lon": 11.8238465}, {"type": "node", "id": 739371373, "lat": 46.1540765, "lon": 11.8060964, "tags": {"name": "Famiglia Cooperativa", "shop": "supermarket"}}, {"type": "node", "id": 739371728, "lat": 46.1507853, "lon": 11.7967828, "tags": {"name": "Famiglia Cooperativa", "shop": "supermarket"}}, {"type": "node", "id": 801299585, "lat": 46.2871317, "lon": 11.4445674, "tags": {"name": "Eurospin", "opening_hours": "Mo-We,Fr,Sa 08:00-19:00", "shop": "supermarket"}}, {"type": "node", "id": 801300122, "lat": 46.2873613, "lon": 11.4443474, "tags": {"name": "Supermercato Coop", "opening_hours": "Mo-Sa 08:30-19:15; Th 15:30-19:15", "shop": "supermarket"}}, {"type": "node", "id": 959513314, "lat": 46.0561202, "lon": 11.4622085, "tags": {"addr:city": "Borgo Valsugana", "addr:country": "IT", "addr:housenumber": "4a", "addr:postcode": "38051", "addr:province": "TN", "addr:street": "Corso Vicenza", "check_date": "2025-01-13", "name": "Coop", "opening_hours": "Mo-Sa 08:30-19:30", "operator:type": "Coop Trentino", "payment:credit_cards": "yes", "payment:debit_cards": "yes", "phone": "+39 0461 753735", "shop": "supermarket", "wheelchair": "yes"}}, {"type": "node", "id": 1103844639, "lat": 46.2836882, "lon": 11.5534689, "tags": {"name": "Poli", "shop": "supermarket"}}, {"type": "node", "id": 1109602527, "lat": 46.2893957, "lon": 11.4547445, "tags": {"name": "Conad", "shop": "supermarket"}}, {"type": "node", "id": 1135835028, "lat": 46.2876207, "lon": 11.4438661, "tags": {"name": "Erboristeria La Sorgente", "opening_hours": "Mo-Sa 09:00-12:00,16:00-19:15; Th off", "organic": "only", "shop": "supermarket"}}, {"type": "node", "id": 1358277379, "lat": 46.2617201, "lon": 11.8000981, "tags": {"name": "Crai Minimarket", "shop": "supermarket"}}, {"type": "node", "id": 1532731068, "lat": 46.0535962, "lon": 11.4578939, "tags": {"addr:housenumber": "1", "addr:postcode": "38051", "addr:street": "Piazza Martiri della Resistenza", "brand": "Margherita Conad", "brand:wikidata": "Q126035555", "name": "Margherita Conad", "opening_hours": "Mo-Sa 07:30-12:45,15:30-19:15", "phone": "+390461753014", "shop": "supermarket"}}, {"type": "node", "id": 1538159067, "lat": 46.3696151, "lon": 11.6511094, "tags": {"brand": "EuroSpin", "brand:wikidata": "Q1374674", "name": "EuroSpin", "shop": "supermarket"}}, {"type": "node", "id": 1563100653, "lat": 46.1766674, "lon": 11.8295195, "tags": {"addr:city": "Fiera di Primiero", "addr:country": "IT", "addr:housenumber": "14", "addr:street": "Piazza Cesare Battisti", "name": "Famiglia Cooperativa", "shop": "supermarket"}}, {"type": "node", "id": 1565403142, "lat": 46.0555848, "lon": 11.4729434, "tags": {"level": "1", "name": "Iperpoli", "opening_hours": "Mo-Sa 08:30-20:00; Su 09:00-19:30", "payment:credit_cards": "yes", "payment:debit_cards": "yes", "shop": "supermarket", "website": "https://gruppopoli.it/", "wheelchair": "yes"}}, {"type": "node", "id": 1886707028, "lat": 46.1705881, "lon": 11.82362}, {"type": "node", "id": 1886707031, "lat": 46.1707605, "lon": 11.8236281}, {"type": "node", "id": 1886707038, "lat": 46.1708113, "lon": 11.8235867}, {"type": "node", "id": 2175692190, "lat": 46.1818452, "lon": 11.840269, "tags": {"addr:housenumber": "40", "addr:street": "Via Scopoli", "name": "Famiglia Cooperativa", "opening_hours": "Mo-Sa 07:50-12:15, Mo,We,Fr,Sa 16:00-19:00", "shop": "supermarket"}}, {"type": "node", "id": 2232233340, "lat": 46.0525928, "lon": 11.4946721, "tags": {"addr:city": "Castelnuovo", "addr:country": "IT", "addr:housenumber": "2", "addr:postcode": "38050", "addr:province": "TN", "addr:street": "Via Federico Maccani", "name": "Famiglia Cooperativa", "opening_hours": "Mo-Sa 07:00-12:15, 16:30-18:30", "operator": "Famiglia Cooperativa Bassa Valsugana", "shop": "supermarket"}}, {"type": "node", "id": 2245444511, "lat": 46.0489041, "lon": 11.7703799}, {"type": "node", "id": 2245444516, "lat": 46.048915, "lon": 11.7704838}, {"type": "node", "id": 2245444522, "lat": 46.0489186, "lon": 11.7705135}, {"type": "node", "id": 2245444542, "lat": 46.0489484, "lon": 11.7705123}, {"type": "node", "id": 2245444565, "lat": 46.0489899, "lon": 11.7705032}, {"type": "node", "id": 2245444576, "lat": 46.0489968, "lon": 11.7703152}, {"type": "node", "id": 2245444586, "lat": 46.0490331, "lon": 11.7704186}, {"type": "node", "id": 2245444589, "lat": 46.049044, "lon": 11.7704929}, {"type": "node", "id": 2338571593, "lat": 46.0633297, "lon": 11.5242709}, {"type": "node", "id": 2338571611, "lat": 46.0633924, "lon": 11.5239931}, {"type": "node", "id": 2338571689, "lat": 46.0636578, "lon": 11.5244247}, {"type": "node", "id": 2338571702, "lat": 46.0637205, "lon": 11.5241469}, {"type": "node", "id": 2388993281, "lat": 46.1706102, "lon": 11.8239016}, {"type": "node", "id": 2388993284, "lat": 46.1706278, "lon": 11.8241945}, {"type": "node", "id": 2388993286, "lat": 46.1706643, "lon": 11.8236537}, {"type": "node", "id": 2515656434, "lat": 46.0578513, "lon": 11.7871717, "tags": {"shop": "supermarket"}}, {"type": "node", "id": 2628567038, "lat": 46.0706134, "lon": 11.4808031}, {"type": "node", "id": 2628567056, "lat": 46.0706928, "lon": 11.4807185}, {"type": "node", "id": 2628567063, "lat": 46.0707016, "lon": 11.480975}, {"type": "node", "id": 2628567090, "lat": 46.0707561, "lon": 11.4809169}, {"type": "node", "id": 2628567094, "lat": 46.0707893, "lon": 11.4806156}, {"type": "node", "id": 2628567100, "lat": 46.0708097, "lon": 11.4810215}, {"type": "node", "id": 2628567118, "lat": 46.0708706, "lon": 11.4807741}, {"type": "node", "id": 2628567123, "lat": 46.0708942, "lon": 11.480749}, {"type": "node", "id": 2628567124, "lat": 46.0709002, "lon": 11.4808405}, {"type": "node", "id": 2628567127, "lat": 46.0709175, "lon": 11.4809066}, {"type": "node", "id": 2628567129, "lat": 46.0709267, "lon": 11.4808123}, {"type": "node", "id": 2628567130, "lat": 46.0709283, "lon": 11.4808951}, {"type": "node", "id": 3224940764, "lat": 46.2912348, "lon": 11.4609449, "tags": {"addr:housenumber": "7", "addr:street": "Via Fratelli Bronzetti", "name": "Eder", "organic": "only", "shop": "supermarket"}}, {"type": "node", "id": 3255684846, "lat": 46.0620875, "lon": 11.6343916}, {"type": "node", "id": 3255684847, "lat": 46.0621044, "lon": 11.6345609}, {"type": "node", "id": 3255688695, "lat": 46.0618969, "lon": 11.6344312}, {"type": "node", "id": 3255688698, "lat": 46.0619138, "lon": 11.6346005}, {"type": "node", "id": 3262417704, "lat": 46.2927526, "lon": 11.4901392}, {"type": "node", "id": 3262417713, "lat": 46.2924094, "lon": 11.4900584}, {"type": "node", "id": 3262417714, "lat": 46.2926815, "lon": 11.4907662}, {"type": "node", "id": 3262417715, "lat": 46.2923387, "lon": 11.4906843}, {"type": "node", "id": 3786669404, "lat": 46.3767712, "lon": 11.6604382}, {"type": "node", "id": 3786669405, "lat": 46.3767998, "lon": 11.6605675}, {"type": "node", "id": 3786669406, "lat": 46.3769241, "lon": 11.6605097}, {"type": "node", "id": 3786669407, "lat": 46.3769497, "lon": 11.6606255}, {"type": "node", "id": 3786669408, "lat": 46.3770253, "lon": 11.6603867}, {"type": "node", "id": 3786669409, "lat": 46.3770437, "lon": 11.6603114}, {"type": "node", "id": 3786669410, "lat": 46.3770571, "lon": 11.6603719}, {"type": "node", "id": 3786669411, "lat": 46.3770662, "lon": 11.6605713}, {"type": "node", "id": 3848689685, "lat": 46.0698681, "lon": 11.4934619, "tags": {"addr:city": "Carzano", "addr:country": "IT", "addr:housenumber": "4", "addr:postcode": "38050", "addr:province": "TN", "addr:street": "Via Castelnuovo", "name": "Famiglia Cooperativa", "opening_hours": "Mo-Sa 07:15-11:00", "operator": "Famiglia Cooperativa Bassa Valsugana", "shop": "supermarket"}}, {"type": "node", "id": 3915178642, "lat": 46.0531193, "lon": 11.5282625, "tags": {"addr:city": "Castel Ivano", "addr:housenumber": "18", "addr:postcode": "38059", "addr:street": "Piazza Beata Vergine della Mercede", "name": "Famiglia Cooperativa", "opening_hours": "Mo, We, Fr 06:30-11:30; Tu, Th, Sa 06:30-11:30, 17:00-18:30", "operator": "Famiglia Cooperativa Bassa Valsugana", "shop": "supermarket"}}, {"type": "node", "id": 4000850507, "lat": 46.0441247, "lon": 11.5526274, "tags": {"addr:city": "Ospedaletto", "addr:housenumber": "35", "addr:postcode": "38050", "addr:street": "Via Venti Settembre", "name": "Famiglia Cooperativa", "opening_hours": "Mo, We 07:00-12:00; Tu, Th-Sa 07:00-12:00, 16:30-18:30", "operator": "Famiglia Cooperativa Bassa Valsugana", "shop": "supermarket"}}, {"type": "node", "id": 4058716828, "lat": 46.0405866, "lon": 11.4644829, "tags": {"addr:city": "Borgo Valsugana", "addr:country": "IT", "addr:district": "Olle", "addr:housenumber": "15", "addr:postcode": "38051", "addr:province": "TN", "addr:street": "Piazza della Chiesa", "name": "Famiglia Cooperativa", "opening_hours": "Mo 07:00-12:00; Tu-Sa 07:00-12:00, 16:30-18:30", "operator": "Famiglia Cooperativa Bassa Valsugana", "shop": "supermarket"}}, {"type": "node", "id": 4072339825, "lat": 46.0730099, "lon": 11.4498837, "tags": {"addr:city": "Torcegno", "addr:housenumber": "4", "addr:postcode": "38050", "addr:street": "Piazza Maggiore", "name": "Famiglia Cooperativa", "opening_hours": "Tu, Th-Sa 07:30-12:30, 16:00-18:30; Mo, We 07:30-12:30", "operator": "Famiglia Cooperativa Coop", "shop": "supermarket"}}, {"type": "node", "id": 4128988189, "lat": 46.0557071, "lon": 11.4720051, "tags": {"brand": "EuroSpin", "brand:wikidata": "Q1374674", "brand:wikipedia": "it:Eurospin", "level": "0", "name": "EuroSpin", "opening_hours": "Mo-Sa 08:30-19:30; Su 09:00-12:30, 15:00-19:00", "shop": "supermarket", "website": "https://www.eurospin.it/"}}, {"type": "node", "id": 4202793749, "lat": 46.0529324, "lon": 11.4105994, "tags": {"addr:city": "Roncegno Terme", "addr:housenumber": "9", "addr:postcode": "38050", "addr:street": "Piazza Montebello", "name": "Famiglia Cooperativa", "opening_hours": "Mo-Sa 07:30-12:30,16:00-19:00", "operator": "Famiglia Cooperativa Coop", "shop": "supermarket"}}, {"type": "node", "id": 4202862137, "lat": 46.065404, "lon": 11.506843, "tags": {"addr:city": "Scurelle", "addr:country": "IT", "addr:housenumber": "32", "addr:postcode": "38050", "addr:province": "TN", "addr:street": "Piazza Maggiore", "name": "Famiglia cooperativa", "opening_hours": "Mo-Sa 07:00-12:15, 16:30-18:30", "operator": "Famiglia Cooperativa Bassa Valsugana", "phone": "+39 0461 762350", "ref:vatin": "IT00103290227", "shop": "supermarket"}}, {"type": "node", "id": 4209702982, "lat": 46.0701496, "lon": 11.5089472, "tags": {"addr:city": "Castel Ivano", "addr:country": "IT", "addr:district": "Spera", "addr:housenumber": "9", "addr:postcode": "38059", "addr:province": "TN", "addr:street": "Via Cenone", "name": "Famiglia cooperativa", "opening_hours": "Mo, We, Fr 07:00-12:00; Tu, Th, Sa 07:00-12:00, 17:00-18:30", "operator": "Famiglia Cooperativa Bassa Valsugana", "sells:tobacco": "yes", "shop": "supermarket"}}, {"type": "node", "id": 4233938270, "lat": 46.1526424, "lon": 11.7200931, "tags": {"name": "Centro Spesa Corona", "shop": "supermarket"}}, {"type": "node", "id": 4233945838, "lat": 46.1419587, "lon": 11.7173219, "tags": {"name": "Vanoiofficinalis", "shop": "supermarket"}}, {"type": "node", "id": 4294950119, "lat": 46.0801522, "lon": 11.5538502, "tags": {"addr:city": "Bieno", "addr:housenumber": "7", "addr:postcode": "38050", "addr:street": "Piazza Maggiore", "name": "Famiglia Cooperativa", "opening_hours": "Mo, We 07:00-12:00; Tu, Th, Sa 07:00-12:00, 17:00-18:30; Fr 08:00-12:00", "operator": "Famiglia Cooperativa Bassa Valsugana", "shop": "supermarket"}}, {"type": "node", "id": 4296379583, "lat": 46.1973612, "lon": 11.6792261}, {"type": "node", "id": 4296379689, "lat": 46.1973909, "lon": 11.6794501}, {"type": "node", "id": 4296379716, "lat": 46.197463, "lon": 11.6791979}, {"type": "node", "id": 4296379726, "lat": 46.1974927, "lon": 11.6794219}, {"type": "node", "id": 4312824481, "lat": 46.1575849, "lon": 11.7407141}, {"type": "node", "id": 4312825469, "lat": 46.1625283, "lon": 11.7486396}, {"type": "node", "id": 4312825478, "lat": 46.1625543, "lon": 11.7484277}, {"type": "node", "id": 4312825690, "lat": 46.16263, "lon": 11.7486657}, {"type": "node", "id": 4312825697, "lat": 46.162656, "lon": 11.7484538}, {"type": "node", "id": 4336778109, "lat": 46.2621931, "lon": 11.79964, "tags": {"shop": "supermarket"}}, {"type": "node", "id": 4362568162, "lat": 46.1487361, "lon": 11.8036748, "tags": {"addr:housenumber": "6", "addr:street": "Via delle Giare", "brand": "MD", "brand:wikidata": "Q3841263", "brand:wikipedia": "en:MD Discount", "name": "MD", "opening_hours": "Mo-Sa 08:30-12:30, 15:30-19:00", "operator": "MD S.p.A.", "shop": "supermarket"}}, {"type": "node", "id": 4379325293, "lat": 46.2913468, "lon": 11.4625037, "tags": {"name": "Despar", "shop": "supermarket"}}, {"type": "node", "id": 4386170730, "lat": 46.1574361, "lon": 11.7405396}, {"type": "node", "id": 4386170731, "lat": 46.1573667, "lon": 11.7406636}, {"type": "node", "id": 4386170732, "lat": 46.1575187, "lon": 11.740852}, {"type": "node", "id": 4386170733, "lat": 46.1575947, "lon": 11.7407256}, {"type": "node", "id": 4515879879, "lat": 46.1552169, "lon": 11.7323772}, {"type": "node", "id": 4515879880, "lat": 46.1551782, "lon": 11.7322448}, {"type": "node", "id": 4515879881, "lat": 46.1553096, "lon": 11.7321492}, {"type": "node", "id": 4515879882, "lat": 46.1553589, "lon": 11.7322783}, {"type": "node", "id": 4548205498, "lat": 46.1974428, "lon": 11.6793638, "tags": {"name": "Famiglia Cooperativa di Caoria", "shop": "supermarket"}}, {"type": "node", "id": 4582441584, "lat": 46.2917991, "lon": 11.4598024, "tags": {"addr:city": "Cavalese", "addr:housenumber": "12", "addr:postcode": "38033", "addr:street": "Piazza Cesare Battisti", "check_date:opening_hours": "2025-08-20", "diet:gluten_free": "yes", "name": "Famiglia Cooperativa Cavalese (Coop)", "opening_hours": "Mo-Sa 08:00-19:30; Su 08:00-12:30, Su 16:00-19:30", "payment:credit_cards": "yes", "payment:debit_cards": "yes", "shop": "supermarket"}}, {"type": "node", "id": 4921700213, "lat": 46.2866237, "lon": 11.5622105}, {"type": "node", "id": 4921700726, "lat": 46.2866817, "lon": 11.5618078}, {"type": "node", "id": 4921700727, "lat": 46.2865907, "lon": 11.5618242}, {"type": "node", "id": 5258618121, "lat": 46.0816014, "lon": 11.5232321, "tags": {"addr:city": "Samone", "addr:housenumber": "1/A", "addr:postcode": "38059", "addr:street": "Piazza Maggiore", "name": "Famiglia cooperativa", "opening_hours": "Mo, We-Fr 07:15-11:30; Tu, Sa 07:15-11:30, 16:45-18:30", "operator": "famiglia cooperativa Bassa Valsugana", "phone": "+39 0461 762653", "shop": "supermarket"}}, {"type": "node", "id": 5321014915, "lat": 46.303627, "lon": 11.4563692, "tags": {"name": "Famiglia Cooperativa Varena", "shop": "supermarket"}}, {"type": "node", "id": 5480885317, "lat": 46.0544658, "lon": 11.4736026, "tags": {"addr:city": "Borgo Valsugana", "addr:country": "IT", "addr:housenumber": "68", "addr:postcode": "38051", "addr:province": "TN", "addr:street": "Corso Vicenza", "brand": "Aldi", "brand:wikidata": "Q41171672", "brand:wikipedia": "en:Aldi", "email": "servizioclienti@aldi.it", "level": "1", "name": "Aldi", "opening_hours": "Mo-Sa 08:00-20:00; Su 08:30-19:30", "operator": "Aldi S.R.L.", "ref:vatin": "IT02936700216", "shop": "supermarket", "website": "https://www.aldi.it/", "wheelchair": "yes"}}, {"type": "node", "id": 6510779258, "lat": 46.0706634, "lon": 11.4809005, "tags": {"addr:city": "Telve", "addr:country": "IT", "addr:housenumber": "9", "addr:postcode": "38050", "addr:province": "TN", "addr:street": "Via Paradiso", "entrance": "yes"}}, {"type": "node", "id": 6510779269, "lat": 46.0709141, "lon": 11.4808257, "tags": {"addr:city": "Telve", "addr:country": "IT", "addr:housenumber": "10", "addr:postcode": "38050", "addr:province": "TN", "addr:street": "Via Aurora", "entrance": "yes"}}, {"type": "node", "id": 6510787199, "lat": 46.0708251, "lon": 11.4810051, "tags": {"addr:city": "Telve", "addr:country": "IT", "addr:housenumber": "11", "addr:postcode": "38050", "addr:province": "TN", "addr:street": "Via Paradiso", "entrance": "yes"}}, {"type": "node", "id": 6551628724, "lat": 46.2867325, "lon": 11.5619893}, {"type": "node", "id": 6551628733, "lat": 46.2867497, "lon": 11.562189}, {"type": "node", "id": 6551628734, "lat": 46.2867163, "lon": 11.5618015}, {"type": "node", "id": 6627414305, "lat": 46.0650152, "lon": 11.6331266, "tags": {"addr:city": "Castello Tesino", "addr:housenumber": "13a", "addr:postcode": "38053", "addr:province": "TN", "addr:street": "Via Donato Pelloso", "name": "Famiglia Cooperativa", "operator": "Famiglia Cooperativa Coop", "phone": "+39 0461 594142", "shop": "supermarket"}}, {"type": "node", "id": 7126319193, "lat": 46.0489831, "lon": 11.7703653, "tags": {"name": "Alimentari Reato", "opening_hours": "Mo-Sa 07:00-19:00", "payment:coins": "yes", "payment:credit_cards": "yes", "shop": "supermarket"}}, {"type": "node", "id": 8976351117, "lat": 46.2918614, "lon": 11.4384331, "tags": {"shop": "supermarket"}}, {"type": "node", "id": 9403717056, "lat": 46.3644553, "lon": 11.8972367, "tags": {"addr:city": "Falcade", "addr:housenumber": "5", "addr:postcode": "32020", "addr:street": "Via Pietro Nenni", "name": "Junior W Supermercato", "operator": "Walber", "shop": "supermarket"}}, {"type": "node", "id": 9429283739, "lat": 46.3586808, "lon": 11.8776711, "tags": {"addr:city": "Falcade", "addr:housenumber": "73", "addr:postcode": "32020", "addr:street": "Corso Roma", "name": "Famiglia Cooperativa", "shop": "supermarket"}}, {"type": "node", "id": 9434691845, "lat": 46.3561894, "lon": 11.8668557, "tags": {"name": "Famiglia Cooperativa", "note": "verificare se man_made=works", "shop": "supermarket"}}, {"type": "node", "id": 9451071874, "lat": 46.366183, "lon": 11.8968812, "tags": {"name": "Famiglia Cooperativa", "shop": "supermarket"}}, {"type": "node", "id": 9645274865, "lat": 46.0620179, "lon": 11.6345789, "tags": {"addr:city": "Castello Tesino", "addr:country": "IT", "addr:housenumber": "12a", "addr:postcode": "38053", "addr:province": "TN", "addr:street": "Via Nuova", "door": "yes", "entrance": "yes"}}, {"type": "node", "id": 9873982872, "lat": 46.3129453, "lon": 11.6622612, "tags": {"name": "Coop- Famiglia Cooperativa", "shop": "supermarket"}}, {"type": "node", "id": 9931532491, "lat": 46.1136134, "lon": 11.6195081, "tags": {"operator": "Camping Val Malene", "shop": "supermarket"}}, {"type": "node", "id": 9958749747, "lat": 46.281785, "lon": 11.5152808, "tags": {"name": "Famiglia cooperativa", "shop": "supermarket"}}, {"type": "node", "id": 11524952005, "lat": 46.3129479, "lon": 11.6005859}, {"type": "node", "id": 11524952006, "lat": 46.3130418, "lon": 11.6007033}, {"type": "node", "id": 11524952007, "lat": 46.312976, "lon": 11.6008135}, {"type": "node", "id": 11524952008, "lat": 46.31302, "lon": 11.6008686}, {"type": "node", "id": 11524952009, "lat": 46.3130443, "lon": 11.6008278}, {"type": "node", "id": 11524952010, "lat": 46.3131184, "lon": 11.6009206}, {"type": "node", "id": 11524952011, "lat": 46.313004, "lon": 11.6011122}, {"type": "node", "id": 11524952012, "lat": 46.312792, "lon": 11.6008469}, {"type": "node", "id": 12139291065, "lat": 46.3091626, "lon": 11.6018243, "tags": {"brand": "NaturaS\u00ec", "brand:wikidata": "Q60840755", "name": "NaturaS\u00ec", "opening_hours": "Mo-Sa 08:15-12:30,15:30-19:30", "organic": "only", "shop": "supermarket"}}, {"type": "node", "id": 12347774887, "lat": 46.0633449, "lon": 11.5242036, "tags": {"man_made": "surveillance", "surveillance:type": "camera"}}, {"type": "node", "id": 12347774888, "lat": 46.0635151, "lon": 11.5240506, "tags": {"man_made": "surveillance", "surveillance:type": "camera"}}, {"type": "node", "id": 12347774889, "lat": 46.0635771, "lon": 11.5240797, "tags": {"man_made": "surveillance", "surveillance:type": "camera"}}, {"type": "node", "id": 13086256824, "lat": 46.0707888, "lon": 11.4809808}, {"type": "node", "id": 13088663403, "lat": 46.0708712, "lon": 11.4809562, "tags": {"amenity": "atm", "brand": "Postamat", "brand:wikidata": "Q3909447", "check_date": "2026-01-21", "drive_through": "no", "operator": "Poste Italiane", "operator:wikidata": "Q495026"}}, {"type": "node", "id": 13102275422, "lat": 46.0719116, "lon": 11.4721164, "tags": {"addr:city": "Telve di Sopra", "addr:housenumber": "28", "addr:postcode": "38050", "addr:street": "Via Tre Novembre", "name": "Famiglia cooperativa", "opening_hours": "Mo, We-Fr 07:00-11:00; Tu 07:00-11:00, 16:30-18:30; Sa 07:00-12:00, 17:00-18:30", "operator": "Famiglia Cooperativa Bassa Valsugana", "shop": "supermarket"}}, {"type": "node", "id": 13102275423, "lat": 46.0685237, "lon": 11.6100794, "tags": {"addr:city": "Pieve Tesino", "addr:housenumber": "11/b", "addr:postcode": "38050", "addr:street": "Via Avanzo Giovanni", "name": "Famiglia Cooperativa", "opening_hours": "Mo-Sa 07:00-12:00, 16:30-19:00", "operator": "Famiglia Cooperativa Coop", "shop": "supermarket"}}, {"type": "node", "id": 13102275424, "lat": 46.0669917, "lon": 11.4337926, "tags": {"addr:city": "Ronchi Valsugana", "addr:housenumber": "3", "addr:postcode": "38050", "addr:street": "Via Marchi", "name": "Famiglia cooperativa", "opening_hours": "Mo-Sa 07:30-12:00", "operator": "Famiglia Cooperativa Coop", "shop": "supermarket"}}, {"type": "node", "id": 13102275426, "lat": 46.0560205, "lon": 11.6153972, "tags": {"addr:city": "Cinte Tesino", "addr:housenumber": "17", "addr:postcode": "38050", "addr:street": "Piazza del Prebiscito", "name": "Famiglia cooperativa", "operator": "Famiglia Cooperativa Coop", "shop": "supermarket"}}, {"type": "node", "id": 13470912015, "lat": 46.1498618, "lon": 11.734456, "tags": {"addr:city": "Canal San Bovo", "addr:housenumber": "13", "addr:postcode": "38050", "addr:street": "Localit\u00e0 Lausen", "name": "Famiglia Cooperativa Imer e Vanoi", "phone": "+39 0439 719794", "ref:vatin": "IT00122180227", "shop": "supermarket"}}, {"type": "way", "id": 59583237, "nodes": [739108785, 739109276, 739108870, 2388993284, 2388993281, 739108572, 1886707028, 2388993286, 1886707031, 1886707038, 739108785], "tags": {"addr:housenumber": "77", "addr:street": "Viale Piave", "building": "yes", "name": "Famiglia Cooperativa", "operator": "Famiglia Cooperativa di Fiera di Primiero Societ\u00e0 Cooperativa", "ref:vatin": "IT00105250229", "shop": "supermarket"}}, {"type": "way", "id": 215126270, "nodes": [2245444586, 2245444589, 2245444565, 2245444542, 2245444522, 2245444516, 2245444511, 2245444576, 2245444586], "tags": {"building": "yes", "shop": "supermarket"}}, {"type": "way", "id": 225028283, "nodes": [2338571702, 12347774889, 12347774888, 2338571611, 12347774887, 2338571593, 2338571689, 2338571702], "tags": {"addr:city": "Castel Ivano", "addr:housenumber": "27", "addr:postcode": "38059", "addr:street": "Via Roma", "building": "commercial", "name": "Famiglia cooperativa Valsugana", "opening_hours": "Mo-Sa 08:00-12:30, 15:30-19:30; Su 08:00-12:30", "operator": "Sait", "shop": "supermarket"}}, {"type": "way", "id": 257262811, "nodes": [2628567130, 2628567124, 6510779269, 2628567129, 2628567123, 2628567118, 2628567094, 2628567056, 2628567038, 6510779258, 2628567063, 2628567090, 13086256824, 2628567100, 6510787199, 13088663403, 2628567127, 2628567130], "tags": {"addr:housenumber": "9", "addr:street": "Via Paradiso", "brand": "Conad City", "brand:wikidata": "Q57543102", "building": "commercial", "check_date": "2026-01-21", "name": "Conad City", "opening_hours": "Mo-Sa 07:30-12:30, 15:30-19:15", "payment:cash": "yes", "payment:credit_cards": "yes", "payment:debit_cards": "yes", "phone": "+390461766027", "shop": "supermarket", "website": "https://www.conad.it/ricerca-negozi/conad-city-via-paradiso-9-38050-telve--006647", "wheelchair": "yes"}}, {"type": "way", "id": 319160228, "nodes": [3255688695, 3255684846, 3255684847, 9645274865, 3255688698, 3255688695], "tags": {"addr:city": "Castello Tesino", "addr:country": "IT", "addr:postcode": "38053", "addr:province": "TN", "addr:street": "Via Dante", "building": "yes", "name": "Famiglia Cooperativa", "shop": "supermarket", "wheelchair": "yes"}}, {"type": "way", "id": 319781785, "nodes": [3262417704, 3262417713, 3262417715, 3262417714, 3262417704], "tags": {"building": "retail", "building:levels": "1", "name": "Eurospar", "opening_hours": "Mo-Su 08:30-19:00", "roof:levels": "0", "shop": "supermarket", "wheelchair": "yes"}}, {"type": "way", "id": 375284722, "nodes": [3786669404, 3786669409, 3786669410, 3786669408, 3786669411, 3786669407, 3786669406, 3786669405, 3786669404], "tags": {"building": "yes", "name": "Famiglia Cooperativa", "shop": "supermarket"}}, {"type": "way", "id": 430353085, "nodes": [4296379716, 4296379726, 4296379689, 4296379583, 4296379716], "tags": {"building": "yes", "name": "Famiglia Cooperativa di Caoria", "shop": "supermarket"}}, {"type": "way", "id": 432120263, "nodes": [4312825478, 4312825697, 4312825690, 4312825469, 4312825478], "tags": {"building": "yes", "name": "Famiglia Cooperativa di Zortea", "shop": "supermarket"}}, {"type": "way", "id": 440848490, "nodes": [4386170730, 4386170731, 4386170732, 4386170733, 4312824481, 4386170730], "tags": {"building": "yes", "name": "Famiglia Cooperativa di Prade", "shop": "supermarket"}}, {"type": "way", "id": 455147980, "nodes": [4515879879, 4515879880, 4515879881, 4515879882, 4515879879], "tags": {"building": "yes", "name": "Famiglia Cooperativa Canal San Bovo", "shop": "supermarket"}}, {"type": "way", "id": 697635457, "nodes": [6551628734, 6551628724, 6551628733, 4921700213, 4921700727, 4921700726, 6551628734], "tags": {"building": "yes", "name": "Coop", "shop": "supermarket"}}, {"type": "way", "id": 1240464121, "nodes": [11524952005, 11524952006, 11524952007, 11524952008, 11524952009, 11524952010, 11524952011, 11524952012, 11524952005], "tags": {"building": "yes", "name": "Coop", "name:de": "Coop", "name:it": "Coop", "opening_hours": "Mo-Sa 07:30-19:30; Su 07:30-12:30,15:30-19:00", "shop": "supermarket"}}]}