{"version": 0.6, "generator": "Overpass API 0.7.62.10 2d4cfc48", "osm3s": {"timestamp_osm_base": "2026-02-08T13:21:00Z", "copyright": "The data included in this document is from www.openstreetmap.org. The data is made available under ODbL."}, "elements": [{"type": "node", "id": 414988154, "lat": 46.3515584, "lon": 10.6939322, "tags": {"addr:housenumber": "29", "addr:street": "Via Roma", "amenity": "pub", "name": "Al filo", "outdoor_seating": "yes", "ref:vatin": "IT01296860222", "wheelchair": "yes"}}, {"type": "node", "id": 622616083, "lat": 46.3561369, "lon": 10.6629059, "tags": {"addr:city": "Peio Fonti", "addr:housenumber": "15", "addr:postcode": "38020", "addr:street": "Via dei Cavai", "amenity": "bar", "brewery": "yes", "name": "Bar Sandwich", "opening_hours": "Mo-Su 08:00-23:00"}}, {"type": "node", "id": 804068698, "lat": 46.1566669, "lon": 10.7607935, "tags": {"amenity": "bar", "name": "Egal"}}, {"type": "node", "id": 1018483536, "lat": 46.2238829, "lon": 10.8239845}, {"type": "node", "id": 1018483560, "lat": 46.2240899, "lon": 10.823884}, {"type": "node", "id": 1018483662, "lat": 46.2240356, "lon": 10.8240751}, {"type": "node", "id": 1018483692, "lat": 46.2239371, "lon": 10.8237934}, {"type": "node", "id": 1100566962, "lat": 46.3072962, "lon": 10.736846, "tags": {"addr:city": "Ossana", "addr:housenumber": "4", "addr:postcode": "38026", "addr:street": "Via Venezia", "amenity": "bar", "fax": "+39 0463 752523", "name": "Delleva Sandro", "operator": "Delleva Sandro & C. snc", "phone": "+39 0463 752523"}}, {"type": "node", "id": 1113204474, "lat": 46.2328442, "lon": 10.8266817}, {"type": "node", "id": 1113205172, "lat": 46.2326417, "lon": 10.8263024}, {"type": "node", "id": 1113206243, "lat": 46.2327676, "lon": 10.8262493}, {"type": "node", "id": 1113206490, "lat": 46.2327172, "lon": 10.8267287}, {"type": "node", "id": 1167971626, "lat": 46.0535054, "lon": 10.7778671}, {"type": "node", "id": 1167972016, "lat": 46.0536175, "lon": 10.7777835}, {"type": "node", "id": 1167972246, "lat": 46.0536735, "lon": 10.7779362}, {"type": "node", "id": 1167972609, "lat": 46.0535655, "lon": 10.778017}, {"type": "node", "id": 1348333277, "lat": 46.3098266, "lon": 10.7637421, "tags": {"amenity": "bar", "name": "El Bicigrill Pellizzano"}}, {"type": "node", "id": 1354486694, "lat": 46.3097687, "lon": 10.7607194, "tags": {"amenity": "bar", "check_date": "2023-08-06", "name": "Bar Centrale"}}, {"type": "node", "id": 1795867025, "lat": 46.3155865, "lon": 10.7794181}, {"type": "node", "id": 1795867028, "lat": 46.3156685, "lon": 10.7798068}, {"type": "node", "id": 1795867034, "lat": 46.3156978, "lon": 10.7793645}, {"type": "node", "id": 1795867041, "lat": 46.3157499, "lon": 10.7796992}, {"type": "node", "id": 1945842880, "lat": 46.1900301, "lon": 10.7851391, "tags": {"amenity": "bar", "name": "Bar Augusto"}}, {"type": "node", "id": 1945847780, "lat": 46.1687941, "lon": 10.7633346, "tags": {"amenity": "bar", "name": "Bar Eureka"}}, {"type": "node", "id": 2428696174, "lat": 46.3245114, "lon": 10.8788092, "tags": {"amenity": "bar"}}, {"type": "node", "id": 2429894206, "lat": 46.3336074, "lon": 10.8864545, "tags": {"amenity": "bar", "name": "Bar Biolago"}}, {"type": "node", "id": 2494673109, "lat": 46.2994755, "lon": 10.866377}, {"type": "node", "id": 2494673110, "lat": 46.2994783, "lon": 10.8665289}, {"type": "node", "id": 2494673124, "lat": 46.2996242, "lon": 10.8663714}, {"type": "node", "id": 2494673125, "lat": 46.299627, "lon": 10.8665233}, {"type": "node", "id": 2533657046, "lat": 46.0765456, "lon": 10.7243651}, {"type": "node", "id": 2533657049, "lat": 46.0765873, "lon": 10.7241425}, {"type": "node", "id": 2533657051, "lat": 46.0766669, "lon": 10.7244123}, {"type": "node", "id": 2533657053, "lat": 46.0767085, "lon": 10.7241897}, {"type": "node", "id": 2589668245, "lat": 46.3110713, "lon": 10.7557119, "tags": {"addr:city": "Pellizzano", "addr:housenumber": "45", "addr:postcode": "38020", "addr:street": "Via Nazionale", "amenity": "bar", "name": "Al Tabi\u00e0"}}, {"type": "node", "id": 4013904558, "lat": 46.3549499, "lon": 10.6626048, "tags": {"addr:city": "Peio Fonti", "addr:country": "IT", "addr:housenumber": "10", "addr:postcode": "38024", "addr:street": "Via delle Acque Acidule", "amenity": "pub", "cuisine": "italian", "name": "Pub 01"}}, {"type": "node", "id": 4097598013, "lat": 46.1558283, "lon": 10.7598573, "tags": {"addr:housenumber": "25", "addr:postcode": "38086", "addr:street": "Via allo stadio", "amenity": "bar", "name": "Bocciodromo"}}, {"type": "node", "id": 4123997254, "lat": 46.3156459, "lon": 10.8019144, "tags": {"amenity": "bar", "name": "Alpino"}}, {"type": "node", "id": 4123999071, "lat": 46.315884, "lon": 10.8019788, "tags": {"addr:city": "Mezzana", "addr:street": "Via Quattro Novembre", "amenity": "bar", "name": "al Sole"}}, {"type": "node", "id": 4144587159, "lat": 46.2432463, "lon": 10.4699506}, {"type": "node", "id": 4144587176, "lat": 46.2432769, "lon": 10.4697012}, {"type": "node", "id": 4144587189, "lat": 46.243315, "lon": 10.4699682}, {"type": "node", "id": 4144587200, "lat": 46.2433456, "lon": 10.4697188}, {"type": "node", "id": 4318081292, "lat": 46.1666949, "lon": 10.7575356, "tags": {"amenity": "bar", "internet_access": "wlan", "name": "Bar 'il Palazzetto'", "opening_hours": "Mo-Su 07:30-23:00"}}, {"type": "node", "id": 4318091389, "lat": 46.1689598, "lon": 10.7613392, "tags": {"amenity": "bar", "name": "Bar Sport"}}, {"type": "node", "id": 4351586768, "lat": 46.0408477, "lon": 10.8762958}, {"type": "node", "id": 4351586769, "lat": 46.0408897, "lon": 10.8761914}, {"type": "node", "id": 4351586770, "lat": 46.0409455, "lon": 10.8763775}, {"type": "node", "id": 4351586771, "lat": 46.0409875, "lon": 10.8762731}, {"type": "node", "id": 4356405321, "lat": 46.3260541, "lon": 10.8711687, "tags": {"amenity": "bar", "cuisine": "ice_cream", "name": "Tropical"}}, {"type": "node", "id": 4749889098, "lat": 46.3104599, "lon": 10.731701, "tags": {"amenity": "bar", "name": "Bar Cafe Iob"}}, {"type": "node", "id": 4751824850, "lat": 46.2897442, "lon": 10.5166614, "tags": {"amenity": "bar"}}, {"type": "node", "id": 5027253748, "lat": 46.0987092, "lon": 10.7345371, "tags": {"amenity": "bar", "name": "Bar al Moleta"}}, {"type": "node", "id": 5330541421, "lat": 46.2942219, "lon": 10.8630645, "tags": {"addr:housenumber": "4", "addr:postcode": "38025", "addr:street": "Strada dei Monti Alti", "amenity": "bar", "name": "El Mas del Casela"}}, {"type": "node", "id": 5330541422, "lat": 46.3192933, "lon": 10.8360968, "tags": {"amenity": "bar", "name": "L'Ora di Punta"}}, {"type": "node", "id": 5495632710, "lat": 46.2555851, "lon": 10.5091042, "tags": {"addr:city": "Ponte di Legno", "addr:housenumber": "24", "addr:postcode": "25056", "addr:street": "Via Corno D'Aola", "amenity": "bar", "check_date": "2025-07-17", "name": "Bar Brescia"}}, {"type": "node", "id": 5550768231, "lat": 46.2487019, "lon": 10.4477675}, {"type": "node", "id": 5550768233, "lat": 46.2486406, "lon": 10.4477399}, {"type": "node", "id": 5554963922, "lat": 46.3255868, "lon": 10.8609793, "tags": {"amenity": "pub", "name": "Liquid Club"}}, {"type": "node", "id": 5840514329, "lat": 46.2596687, "lon": 10.5862844, "tags": {"amenity": "bar", "name": "Nico's"}}, {"type": "node", "id": 6043803114, "lat": 46.3245307, "lon": 10.8787538}, {"type": "node", "id": 6043803115, "lat": 46.3244972, "lon": 10.8787929}, {"type": "node", "id": 6043803116, "lat": 46.3245469, "lon": 10.878882}, {"type": "node", "id": 6043803117, "lat": 46.3245804, "lon": 10.8788429}, {"type": "node", "id": 6110501280, "lat": 46.2488626, "lon": 10.468751, "tags": {"amenity": "bar", "name": "Wine Bar La Rouge"}}, {"type": "node", "id": 6110547752, "lat": 46.260295, "lon": 10.5840733, "tags": {"amenity": "bar", "name": "Magic Pub"}}, {"type": "node", "id": 6110646981, "lat": 46.2570054, "lon": 10.5091205, "tags": {"amenity": "pub", "check_date": "2025-07-17", "name": "Pub Four X"}}, {"type": "node", "id": 6113756475, "lat": 46.2599474, "lon": 10.5096376, "tags": {"amenity": "bar", "check_date": "2025-07-17", "name": "L'Asino che Vola", "wheelchair": "yes"}}, {"type": "node", "id": 6117051551, "lat": 46.260118, "lon": 10.5080815, "tags": {"amenity": "bar", "name": "Il Clan"}}, {"type": "node", "id": 6341429313, "lat": 46.3160831, "lon": 10.8049759, "tags": {"addr:housenumber": "35", "addr:street": "Via Quattro Novembre", "amenity": "bar", "cuisine": "italian", "name": "Bar Pasticceria da Renato", "opening_hours": "Tu-Su 07:00-12:00, 14:00-19:00", "outdoor_seating": "yes", "phone": "+39 0463 757260"}}, {"type": "node", "id": 6475501071, "lat": 46.1860441, "lon": 10.7764935, "tags": {"addr:city": "San Antonio di Mavignola", "addr:country": "IT", "addr:housenumber": "8", "addr:street": "Le Pozze", "amenity": "bar", "name": "Speck Stube Alimonta", "operator": "Alifour sas", "wheelchair": "yes"}}, {"type": "node", "id": 6533808581, "lat": 46.1293107, "lon": 10.7570592, "tags": {"addr:housenumber": "8", "addr:street": "Via Regina Elena", "amenity": "bar", "entrance": "yes", "name": "Bar alla Torre", "outdoor_seating": "yes"}}, {"type": "node", "id": 6611481842, "lat": 46.3467443, "lon": 10.6974019, "tags": {"amenity": "pub", "name": "Rive Bar"}}, {"type": "node", "id": 7867450485, "lat": 46.238828, "lon": 10.5803138, "tags": {"addr:postcode": "38029", "addr:street": "Loc. Passo Paradiso", "amenity": "bar", "cuisine": "breakfast;coffee_shop;italian;pasta;sandwich", "name": "Ristorante bar passo Paradiso"}}, {"type": "node", "id": 8835049162, "lat": 46.1691676, "lon": 10.7623606, "tags": {"addr:city": "Carisolo", "addr:housenumber": "7", "addr:street": "Piazza 2 Maggio", "amenity": "bar", "indoor_seating": "yes", "name": "Bar Ser Artur", "outdoor_seating": "yes"}}, {"type": "node", "id": 8875613965, "lat": 46.1574153, "lon": 10.7653011, "tags": {"amenity": "bar", "name": "Osteria Bar Bagat"}}, {"type": "node", "id": 9499364103, "lat": 46.301802, "lon": 10.8120214, "tags": {"addr:city": "Marilleva 1400", "addr:postcode": "38020", "amenity": "bar", "name": "Chalet Marilleva 1400"}}, {"type": "node", "id": 9707482213, "lat": 46.1020215, "lon": 10.7377502, "tags": {"amenity": "bar", "name": "Bar Posta"}}, {"type": "node", "id": 9944712962, "lat": 46.2430271, "lon": 10.8395374, "tags": {"amenity": "bar", "name": "Giocchi's"}}, {"type": "node", "id": 9963209190, "lat": 46.2989806, "lon": 10.8671103, "tags": {"amenity": "bar", "name": "Soldino Sport&Art caf\u00e9"}}, {"type": "node", "id": 9969540119, "lat": 46.2326907, "lon": 10.8262843}, {"type": "node", "id": 9969540120, "lat": 46.2326896, "lon": 10.8262781}, {"type": "node", "id": 9975278835, "lat": 46.2331305, "lon": 10.8250802, "tags": {"amenity": "bar", "indoor_seating": "yes", "name": "Hungry Wolf", "outdoor_seating": "no"}}, {"type": "node", "id": 10656055457, "lat": 46.2368905, "lon": 10.8366453}, {"type": "node", "id": 10656055458, "lat": 46.2368998, "lon": 10.8366552}, {"type": "node", "id": 10656055459, "lat": 46.2369065, "lon": 10.8366689}, {"type": "node", "id": 10656055460, "lat": 46.23691, "lon": 10.8366848}, {"type": "node", "id": 10656055461, "lat": 46.2369097, "lon": 10.8367015}, {"type": "node", "id": 10656055462, "lat": 46.2368558, "lon": 10.8367379}, {"type": "node", "id": 10656055463, "lat": 46.2368462, "lon": 10.8367264}, {"type": "node", "id": 10656055464, "lat": 46.2368398, "lon": 10.8367109}, {"type": "node", "id": 10656055465, "lat": 46.2368374, "lon": 10.8366932}, {"type": "node", "id": 10656055466, "lat": 46.2368394, "lon": 10.8366753}, {"type": "node", "id": 10656055467, "lat": 46.2369059, "lon": 10.8367173}, {"type": "node", "id": 10656055468, "lat": 46.2368988, "lon": 10.8367306}, {"type": "node", "id": 10656055469, "lat": 46.2368893, "lon": 10.8367399}, {"type": "node", "id": 10656055470, "lat": 46.2368781, "lon": 10.8367445}, {"type": "node", "id": 10656055471, "lat": 46.2368666, "lon": 10.8367438}, {"type": "node", "id": 10656055472, "lat": 46.2368453, "lon": 10.8366595}, {"type": "node", "id": 10656055473, "lat": 46.2368546, "lon": 10.8366475}, {"type": "node", "id": 10656055474, "lat": 46.2368662, "lon": 10.8366407}, {"type": "node", "id": 10656055475, "lat": 46.2368786, "lon": 10.83664}, {"type": "node", "id": 11032948732, "lat": 46.2486966, "lon": 10.447578}, {"type": "node", "id": 11032948733, "lat": 46.2486247, "lon": 10.4475806}, {"type": "node", "id": 11032948734, "lat": 46.2486407, "lon": 10.4477668}, {"type": "node", "id": 11032948736, "lat": 46.2486586, "lon": 10.447767}, {"type": "node", "id": 11131024691, "lat": 46.2280708, "lon": 10.8278666, "tags": {"amenity": "bar", "indoor_seating": "yes", "name": "Bar Chalet Laghetto", "outdoor_seating": "yes"}}, {"type": "node", "id": 11136554971, "lat": 46.2239279, "lon": 10.8240112, "tags": {"addr:housenumber": "120", "addr:street": "Viale Dolomiti di Brenta", "entrance": "yes"}}, {"type": "node", "id": 11136560748, "lat": 46.2239632, "lon": 10.8240322, "tags": {"addr:housenumber": "118", "addr:street": "Viale Dolomiti di Brenta", "entrance": "yes"}}, {"type": "node", "id": 11176611630, "lat": 46.3088357, "lon": 10.735726, "tags": {"amenity": "bar"}}, {"type": "node", "id": 11456191214, "lat": 46.3556374, "lon": 10.6631664, "tags": {"addr:city": "Peio Fonti", "addr:housenumber": "10", "addr:postcode": "38024", "addr:street": "Via del Fontanino", "amenity": "bar", "name": "Boch\u00e8r", "website": "https://apresski.valdipejo.me/it/"}}, {"type": "node", "id": 12022432908, "lat": 46.3099972, "lon": 10.7409936, "tags": {"amenity": "bar", "name": "Ursus Caf\u00e9"}}, {"type": "node", "id": 12023034008, "lat": 46.2376984, "lon": 10.4737378}, {"type": "node", "id": 12023034009, "lat": 46.2376671, "lon": 10.4737366}, {"type": "node", "id": 12023034010, "lat": 46.2376662, "lon": 10.4737889}, {"type": "node", "id": 12023034011, "lat": 46.2376975, "lon": 10.47379}, {"type": "node", "id": 12149850523, "lat": 46.3249107, "lon": 10.8748823, "tags": {"addr:city": "Dimaro", "addr:housenumber": "124", "addr:street": "via Campiglio", "amenity": "bar", "name": "Bar Pasticceria dal Gramola"}}, {"type": "node", "id": 12189590459, "lat": 46.1184082, "lon": 10.7587187, "tags": {"amenity": "bar", "name": "Bar Alpino"}}, {"type": "node", "id": 12459534706, "lat": 46.3155427, "lon": 10.7795983}, {"type": "node", "id": 13009533239, "lat": 46.2580643, "lon": 10.5084338, "tags": {"amenity": "bar", "check_date": "2025-07-17", "name": "Bar Stazione 69"}}, {"type": "node", "id": 13009533241, "lat": 46.2570715, "lon": 10.5090989, "tags": {"amenity": "bar", "check_date": "2025-07-17", "name": "Bar Olimpic"}}, {"type": "node", "id": 13017796401, "lat": 46.246545, "lon": 10.4725617, "tags": {"addr:postcode": "25050", "addr:street": "Via Saletti", "amenity": "bar", "name": "Ombrello Tem\u00f9"}}, {"type": "node", "id": 13203051728, "lat": 46.1582161, "lon": 10.7658374, "tags": {"amenity": "bar", "name": "Bar Nazionale"}}, {"type": "node", "id": 13203051729, "lat": 46.1581463, "lon": 10.7660996, "tags": {"amenity": "bar", "name": "Snack Bar Aquila Nera"}}, {"type": "way", "id": 87545513, "nodes": [1018483536, 1018483692, 1018483560, 1018483662, 11136560748, 11136554971, 1018483536], "tags": {"amenity": "bar", "building": "apartments", "building:levels": "4", "indoor_seating": "yes", "name": "Bar Azzurro", "noaddress": "yes", "opening_hours": "Mo-Su 07:00-01:30+", "outdoor_seating": "yes"}}, {"type": "way", "id": 96080978, "nodes": [1113206243, 9969540120, 9969540119, 1113205172, 1113206490, 1113204474, 1113206243], "tags": {"addr:city": "Madonna di Campiglio", "addr:country": "IT", "addr:housenumber": "21", "addr:postcode": "38068", "addr:street": "Via degli Sfulmini", "amenity": "pub", "building": "yes", "name": "Dolomiti", "phone": "+39 0465 440613", "website": "https://www.facebook.com/Bar-Dolomiti-pub-winebar-paninoteca-1680958382144279/"}}, {"type": "way", "id": 101164761, "nodes": [1167972016, 1167972246, 1167972609, 1167971626, 1167972016], "tags": {"amenity": "bar", "name": "Toti's Bar"}}, {"type": "way", "id": 168298002, "nodes": [1795867028, 12459534706, 1795867025, 1795867034, 1795867041, 1795867028], "tags": {"addr:postcode": "38027", "air_conditioning": "yes", "amenity": "pub", "building": "yes", "cuisine": "grill", "diet:vegan": "yes", "diet:vegetarian": "yes", "food": "yes", "indoor_seating": "yes", "internet_access": "wlan", "name": "Stal Beer&Grill", "opening_hours": "Tu-Su 09:00-23:00", "outdoor_seating": "yes", "payment:credit_cards": "yes", "payment:debit_cards": "yes", "smoking": "outside", "website": "https://www.birreriastal.it/", "wheelchair": "yes"}}, {"type": "way", "id": 241892816, "nodes": [2494673109, 2494673124, 2494673125, 2494673110, 2494673109], "tags": {"amenity": "bar", "building": "yes", "name": "Disco Pub Dream Pub"}}, {"type": "way", "id": 246315975, "nodes": [2533657049, 2533657053, 2533657051, 2533657046, 2533657049], "tags": {"addr:city": "Vigo Rendena", "addr:housenumber": "15", "addr:postcode": "38080", "addr:street": "Via al Sarca", "amenity": "bar", "building": "yes", "name": "Bici Grill Vigo"}}, {"type": "way", "id": 413127136, "nodes": [4144587159, 4144587176, 4144587200, 4144587189, 4144587159], "tags": {"amenity": "bar", "building": "yes", "name": "La Casera"}}, {"type": "way", "id": 437348703, "nodes": [4351586769, 4351586768, 4351586770, 4351586771, 4351586769], "tags": {"amenity": "bar", "building": "yes", "toilets": "yes"}}, {"type": "way", "id": 641844635, "nodes": [6043803114, 6043803115, 6043803116, 6043803117, 6043803114], "tags": {"amenity": "bar", "building": "yes"}}, {"type": "way", "id": 1144926222, "nodes": [10656055472, 10656055473, 10656055474, 10656055475, 10656055457, 10656055458, 10656055459, 10656055460, 10656055461, 10656055467, 10656055468, 10656055469, 10656055470, 10656055471, 10656055462, 10656055463, 10656055464, 10656055465, 10656055466, 10656055472], "tags": {"amenity": "bar", "building": "yes", "name": "LAB Apr\u00e8s-Ski"}}, {"type": "way", "id": 1188135740, "nodes": [11032948732, 11032948733, 5550768233, 11032948734, 11032948736, 5550768231, 11032948732], "tags": {"amenity": "bar", "building": "yes", "name": "AlpinBar"}}, {"type": "way", "id": 1297703171, "nodes": [12023034008, 12023034009, 12023034010, 12023034011, 12023034008], "tags": {"amenity": "bar", "building": "cabin"}}]}