{"version": 0.6, "generator": "Overpass API 0.7.62.10 2d4cfc48", "osm3s": {"timestamp_osm_base": "2026-02-08T12:47:15Z", "copyright": "The data included in this document is from www.openstreetmap.org. The data is made available under ODbL."}, "elements": [{"type": "node", "id": 268430906, "lat": 46.0672711, "lon": 11.1256418, "tags": {"amenity": "bar", "name": "Orange cafe"}}, {"type": "node", "id": 268440174, "lat": 46.0683129, "lon": 11.1243598, "tags": {"addr:city": "Trento", "addr:country": "IT", "addr:housenumber": "18", "addr:postcode": "31822", "addr:street": "Largo Giosu\u00e8 Carducci", "amenity": "bar", "contact:phone": "+39 0461 234701", "name": "Caff\u00e9 Randr\u00e8", "operator": "Randr\u00e8 S.N.C.", "outdoor_seating": "yes", "ref:vatin": "IT00621050228"}}, {"type": "node", "id": 269084179, "lat": 46.1314238, "lon": 11.2466976, "tags": {"amenity": "pub", "name": "Lion's Cafe"}}, {"type": "node", "id": 269142258, "lat": 46.1351027, "lon": 11.2502242, "tags": {"amenity": "pub", "check_date": "2026-01-17", "check_date:opening_hours": "2026-01-17", "name": "Imbarcadero", "opening_hours": "We-Mo,PH 08:00-23:00; Tu off", "smoking": "outside"}}, {"type": "node", "id": 269358764, "lat": 46.2238841, "lon": 11.3123512, "tags": {"amenity": "bar", "name": "Linard", "opening_hours": "Mo-Sa 08:00-24:00"}}, {"type": "node", "id": 274232823, "lat": 46.0731019, "lon": 11.1623863, "tags": {"amenity": "bar", "name": "Oltrebar"}}, {"type": "node", "id": 289878196, "lat": 46.3673574, "lon": 11.3473831, "tags": {"amenity": "bar", "name": "Gasthof Sch\u00f6nblick", "note": "Abendessen im Restaurant nur auf Reservierung - Ristorante la sera solo su prenotazione", "opening_hours": "Su-Fr,PH 08:00-23:00; Sa off", "phone": "+39 0471 886806"}}, {"type": "node", "id": 293870953, "lat": 46.0603745, "lon": 11.2420073, "tags": {"amenity": "pub"}}, {"type": "node", "id": 293870954, "lat": 46.0584071, "lon": 11.2400496, "tags": {"amenity": "pub", "cuisine": "pizza", "name": "La Vecchia Pergine", "opening_hours": "Su-We 17:00-01:00; Fr-Sa 17:00-03:00"}}, {"type": "node", "id": 303850136, "lat": 46.1937066, "lon": 11.1327878, "tags": {"addr:housenumber": "2", "amenity": "bar", "contact:phone": "+39 0461 650422", "name": "L'aquila nera", "opening_hours": "Mo-Sa 7:30-21:00", "operator": "Calliari Carmen", "ref:vatin": "IT02216760229", "wheelchair": "yes", "wikidata": "Q132678921"}}, {"type": "node", "id": 330429021, "lat": 46.3672459, "lon": 11.3537517, "tags": {"addr:city": "Aldein - Aldino", "addr:city:de": "Aldein", "addr:city:it": "Aldino", "addr:housenumber": "26", "addr:postcode": "39040", "addr:street": "Dorf - Paese", "addr:street:de": "Dorf", "addr:street:it": "Paese", "amenity": "bar", "name": "Ebner - Pfiffikus", "phone": "+39 0471 886805", "tourism": "guest_house"}}, {"type": "node", "id": 364710232, "lat": 46.3198595, "lon": 11.2733455, "tags": {"amenity": "pub", "name": "Master Point"}}, {"type": "node", "id": 417707845, "lat": 46.058526, "lon": 11.2141223, "tags": {"amenity": "pub", "check_date": "2023-09-23", "name": "Birreria Rosa Nera"}}, {"type": "node", "id": 419006406, "lat": 46.0802374, "lon": 11.2758124, "tags": {"amenity": "bar", "name": "Al Sole"}}, {"type": "node", "id": 427836296, "lat": 46.0516786, "lon": 11.1439074, "tags": {"amenity": "bar", "contact:facebook": "https://www.facebook.com/terzotempovalnigra", "entrance": "main", "name": "Terzo Tempo", "opening_hours": "Mo 15:30-00:00; Tu-Fr 10:00-13:00, 15:30-00:00; Sa 09:00-13:00, 15:30-00:00; Su 09:00-13:00, 15:30-22:00", "outdoor_seating": "yes"}}, {"type": "node", "id": 428313987, "lat": 46.0526903, "lon": 11.1246393, "tags": {"amenity": "bar", "name": "Bar Cadorin", "opening_hours": "Mo 07:00-19:00; Tu-Th 07:00-20:00; Fr-Sa 07:00-19:00; Su 08:00-12:30"}}, {"type": "node", "id": 428313992, "lat": 46.0486811, "lon": 11.1264589, "tags": {"addr:city": "Trento", "addr:country": "IT", "addr:housenumber": "51", "addr:postcode": "38123", "addr:street": "Via Alcide De Gasperi", "amenity": "bar", "check_date": "2025-09-21", "name": "Fontanari caf\u00e9", "opening_hours": "Mo-Fr 07:00-21:00; Sa 07:00-13:00"}}, {"type": "node", "id": 430673952, "lat": 46.0689296, "lon": 11.1190618, "tags": {"addr:city": "Trento", "addr:country": "IT", "addr:housenumber": "36/2", "addr:postcode": "31822", "addr:street": "Via San Giovanni", "amenity": "pub", "check_date": "2025-11-28", "name": "Bar Picaro", "opening_hours": "Mo-Sa 18:00-24:00"}}, {"type": "node", "id": 430690364, "lat": 46.0695701, "lon": 11.1237585, "tags": {"addr:city": "Trento", "addr:country": "IT", "addr:housenumber": "10", "addr:postcode": "31822", "addr:street": "Piazza Cesare Battisti", "amenity": "bar", "check_date": "2023-11-04", "contact:phone": "+39 0461 230265", "indoor_seating": "yes", "name": "Caff\u00e8 Citt\u00e0", "operator": "B&B Caff\u00e8 Citt\u00e0 S.N.C.", "outdoor_seating": "yes", "ref:vatin": "IT01315950228"}}, {"type": "node", "id": 431618062, "lat": 46.0774234, "lon": 11.1198401, "tags": {"amenity": "bar", "check_date": "2025-09-21", "name": "Bar Zinzorla", "opening_hours": "Mo-Fr 06:30-20:00; Sa 06:30-14:00; Su off", "outdoor_seating": "yes"}}, {"type": "node", "id": 431622342, "lat": 46.0769884, "lon": 11.118133, "tags": {"addr:city": "Trento", "addr:country": "IT", "addr:housenumber": "30", "addr:postcode": "31822", "addr:street": "Via Fratelli Fontana", "amenity": "bar", "image": "https://lh5.googleusercontent.com/p/AF1QipP9tN8bmtU12_WQutubUNAh6UHNmEv5qWNOXk7S=w408-h544-k-no", "indoor_seating": "yes", "name": "Bar Cristallo", "opening_hours": "Mo 16:00-00:00; Tu-Sa 06:00-23:00; Su 06:30-23:00", "outdoor_seating": "yes", "phone": "+39 0461830732"}}, {"type": "node", "id": 431632342, "lat": 46.0697032, "lon": 11.115753, "tags": {"addr:city": "Trento", "addr:country": "IT", "addr:housenumber": "1", "addr:postcode": "31822", "addr:street": "Lungadige Monte Grappa", "air_conditioning": "no", "amenity": "bar", "check_date": "2025-08-15", "contact:facebook": "https://www.facebook.com/Bar-Funivia-20-191322835039361/", "contact:mobile": "+39 347 796 3397", "indoor_seating": "yes", "microbrewery": "no", "name": "Bar Funivia 2.0", "opening_hours": "Tu-Su 07:30-22:00", "outdoor_seating": "yes", "payment:cash": "yes", "payment:credit_cards": "yes", "payment:debit_cards": "yes", "smoking": "outside", "wheelchair": "yes"}}, {"type": "node", "id": 431648974, "lat": 46.0663738, "lon": 11.1147776, "tags": {"addr:city": "Trento", "addr:country": "IT", "addr:housenumber": "27", "addr:postcode": "31822", "addr:street": "Via Roberto da Sanseverino", "amenity": "bar", "name": "l\u00e9poque", "opening_hours": "Mo-Th 07:30-23:00; Fr 07:30-00:00; Sa 00:00-02:00; Su 09:00-21:00", "outdoor_seating": "yes"}}, {"type": "node", "id": 431658702, "lat": 46.0661201, "lon": 11.1189879, "tags": {"addr:city": "Trento", "addr:country": "IT", "addr:housenumber": "56", "addr:postcode": "31822", "addr:street": "Via Antonio Rosmini", "amenity": "bar", "check_date": "2023-11-18", "name": "Bar da Giorgio", "note": "Ottimo posto per bere un buon caff\u00e8, un aperitivo di qualit\u00e0 o un cocktail d'eccellenza da soli o in compagnia.", "opening_hours": "Mo-Sa 07:00-22:00", "outdoor_seating": "yes", "website": "https://www.facebook.com/BarDaGiorgioTrento"}}, {"type": "node", "id": 431658706, "lat": 46.0658461, "lon": 11.1194973, "tags": {"amenity": "bar", "name": "Universit\u00e0", "opening_hours": "Mo-Fr 07:00-15:00,17:00-19:00; Sa-Su off", "opening_hours:kitchen": "Mo-Fr 12:00-14:45; Sa-Su off", "outdoor_seating": "yes"}}, {"type": "node", "id": 432111591, "lat": 46.0572431, "lon": 11.1181283, "tags": {"addr:city": "Trento", "addr:country": "IT", "addr:housenumber": "4", "addr:postcode": "31822", "addr:street": "Via dei Muredei", "amenity": "bar", "check_date": "2023-11-18", "name": "Bar Prati", "opening_hours": "06:00-23:00", "operator": "Jiang Kongbo", "ref:vatin": "IT02470360229"}}, {"type": "node", "id": 432464291, "lat": 46.0589998, "lon": 11.1250541, "tags": {"addr:city": "Trento", "addr:country": "IT", "addr:housenumber": "134", "addr:postcode": "31822", "addr:street": "Via Vittorio Veneto", "amenity": "bar", "contact:mobile": "+39 3489143449", "name": "Bar Florida", "opening_hours": "Mo-Fr 07:00-20:00; Sa 07:30-12:30", "phone": "+39 0461 913258", "toilets:wheelchair": "yes", "wheelchair": "yes"}}, {"type": "node", "id": 432464294, "lat": 46.0597116, "lon": 11.1256286, "tags": {"addr:city": "Trento", "addr:country": "IT", "addr:housenumber": "77", "addr:postcode": "31822", "addr:street": "Via Vittorio Veneto", "amenity": "bar", "name": "dasQ", "opening_hours": "Mo-Sa 18:00-02:00", "operator": "das Q di Karpuzi Shkumbin", "outdoor_seating": "yes", "ref:vatin": "IT02648060222"}}, {"type": "node", "id": 432480294, "lat": 46.0589855, "lon": 11.1191431, "tags": {"addr:city": "Trento", "addr:country": "IT", "addr:housenumber": "45", "addr:postcode": "31822", "addr:street": "Via Giuseppe Giusti", "amenity": "bar", "name": "pausa kaff\u00e8"}}, {"type": "node", "id": 432873025, "lat": 46.0945843, "lon": 11.1098303, "tags": {"addr:city": "Trento", "addr:country": "IT", "addr:housenumber": "100", "addr:postcode": "31821", "addr:street": "Via Giambattista Unterveger", "amenity": "bar", "name": "Monkey Bar", "outdoor_seating": "yes"}}, {"type": "node", "id": 434132756, "lat": 46.1766399, "lon": 11.0532357, "tags": {"amenity": "pub"}}, {"type": "node", "id": 436621585, "lat": 46.0829771, "lon": 11.1993315, "tags": {"amenity": "bar"}}, {"type": "node", "id": 439912454, "lat": 46.0648607, "lon": 11.1236736, "tags": {"addr:city": "Trento", "addr:country": "IT", "addr:housenumber": "11", "addr:postcode": "31822", "addr:street": "Piazza di Fiera", "amenity": "bar", "check_date": "2024-06-22", "indoor_seating": "yes", "name": "Baccus", "opening_hours": "Mo-Sa 07:30-24:00, Tu-Su 00:00-02:00, Su 7:30-22:00", "outdoor_seating": "yes", "wheelchair": "yes"}}, {"type": "node", "id": 443141173, "lat": 46.0367372, "lon": 11.1301932}, {"type": "node", "id": 443141174, "lat": 46.0366216, "lon": 11.1301223}, {"type": "node", "id": 443141175, "lat": 46.0365927, "lon": 11.1302932}, {"type": "node", "id": 443141176, "lat": 46.0368161, "lon": 11.1302845}, {"type": "node", "id": 444363305, "lat": 46.0758689, "lon": 11.2071782, "tags": {"amenity": "bar", "name": "Bar Agip"}}, {"type": "node", "id": 474558106, "lat": 46.0704114, "lon": 11.1223594, "tags": {"addr:city": "Trento", "addr:country": "IT", "addr:housenumber": "4", "addr:postcode": "31822", "addr:street": "Via Torre Verde", "amenity": "bar", "name": "Osteria Galasso", "opening_hours": "Mo-Fr 07:30-21:00", "outdoor_seating": "yes"}}, {"type": "node", "id": 478534653, "lat": 46.0781553, "lon": 11.205583, "tags": {"amenity": "bar", "name": "Bar Paninoteca Muttley"}}, {"type": "node", "id": 478707842, "lat": 46.1353317, "lon": 11.3234127, "tags": {"amenity": "bar", "name": "Passo Redebus"}}, {"type": "node", "id": 479002736, "lat": 46.0594788, "lon": 11.2392525, "tags": {"amenity": "bar", "name": "Bar Oko"}}, {"type": "node", "id": 482722162, "lat": 46.0590279, "lon": 11.2370738, "tags": {"amenity": "bar", "name": "Cuba"}}, {"type": "node", "id": 505366413, "lat": 46.0888703, "lon": 11.0646809, "tags": {"addr:city": "Cadine", "addr:country": "IT", "addr:housenumber": "16", "addr:postcode": "38123", "addr:street": "Strada di Cadine", "amenity": "bar", "indoor_seating": "yes", "name": "Bar Tabacchi Filippi", "opening_hours": "Mo-Sa 07:00-19:30", "outdoor_seating": "yes"}}, {"type": "node", "id": 520618620, "lat": 46.1747544, "lon": 11.2200828, "tags": {"amenity": "bar", "name": "Rosalpina"}}, {"type": "node", "id": 521417201, "lat": 46.1753773, "lon": 11.220648, "tags": {"amenity": "bar", "name": "Vico"}}, {"type": "node", "id": 522817953, "lat": 46.169342, "lon": 11.2106101, "tags": {"amenity": "bar"}}, {"type": "node", "id": 544348558, "lat": 46.0641865, "lon": 11.1304078, "tags": {"amenity": "bar", "name": "Caff\u00e8 Borbone", "opening_hours": "Mo-Fr 07:00-13:00, 16:00-20:00"}}, {"type": "node", "id": 544348559, "lat": 46.0653014, "lon": 11.1315779, "tags": {"amenity": "bar", "name": "San Camillo", "opening_hours": "Mo-Sa 06:15-20:30; Su 06:15-13:00"}}, {"type": "node", "id": 544348560, "lat": 46.0649589, "lon": 11.135579, "tags": {"addr:city": "Trento", "addr:country": "IT", "addr:housenumber": "25", "addr:postcode": "31822", "addr:street": "Viale Trieste", "amenity": "bar", "check_date": "2025-09-21", "check_date:opening_hours": "2025-09-21", "name": "Dorian Gray", "opening_hours": "Mo-Th 07:00-21:00; Fr 07:00-22:00; Sa 09:00-13:00", "outdoor_seating": "yes"}}, {"type": "node", "id": 544348561, "lat": 46.0614845, "lon": 11.1336425, "tags": {"addr:country": "IT", "addr:housenumber": "10", "addr:postcode": "31822", "addr:street": "Piazza Vicenza", "amenity": "bar", "check_date": "2024-11-10", "name": "Bar Jungle", "opening_hours": "Mo-Th 06:00-21:00; Fr 06:00-22:00; Sa 08:00-13:00; Su off"}}, {"type": "node", "id": 544429505, "lat": 46.160519, "lon": 11.1872821, "tags": {"amenity": "bar"}}, {"type": "node", "id": 550687807, "lat": 46.0698291, "lon": 11.1274108, "tags": {"addr:city": "Trento", "addr:country": "IT", "addr:housenumber": "1", "addr:postcode": "31822", "addr:street": "Via dei Ventuno", "amenity": "pub", "check_date": "2024-02-01", "contact:email": "akasha.snc@gmail.com", "contact:facebook": "https://www.facebook.com/hakkatrento/", "contact:instagram": "akkatrento", "contact:phone": "+39 349 7152966", "name": "H/\u00e0kka/", "opening_hours": "Tu-Sa 22:00-3:00"}}, {"type": "node", "id": 557150023, "lat": 46.0689788, "lon": 11.1221561, "tags": {"addr:city": "Trento", "addr:country": "IT", "addr:housenumber": "7", "addr:postcode": "31822", "addr:street": "Via delle Orne", "amenity": "bar", "contact:email": "tjbar.viaorne7tn@yahoo.com", "contact:mobile": "+39 348 012 3229", "name": "TJ Bar", "opening_hours": "Mo-Th 08:00-24:00, Fr 08:00-01:30, Sa 09:00-01:30", "operator": "Winner Bar S.R.L.S", "outdoor_seating": "yes", "ref:vatin": "IT02429140227", "wheelchair": "limited"}}, {"type": "node", "id": 557150199, "lat": 46.0612236, "lon": 11.1249285, "tags": {"addr:city": "Trento", "addr:country": "IT", "addr:housenumber": "43", "addr:postcode": "31822", "addr:street": "Corso Tre Novembre", "alt_name": "Osteria della Mal' Ombra", "amenity": "bar", "contact:phone": "+39 0461 390696", "name": "Osteria della Mal'Ombra", "opening_hours": "Mo-Sa 07:30-12:30,15:30-24:00, Su 15:00-22:00", "operator": "Massarelli Andrea", "outdoor_seating": "yes", "ref:vatin": "IT01676560228"}}, {"type": "node", "id": 557150264, "lat": 46.0684381, "lon": 11.1200458, "tags": {"addr:city": "Trento", "addr:country": "IT", "addr:housenumber": "19", "addr:postcode": "31822", "addr:street": "Piazza Santa Maria Maggiore", "amenity": "bar", "check_date": "2025-11-28", "name": "Gallo Blue", "old_name": "Caf\u00e8 Cavour", "outdoor_seating": "yes"}}, {"type": "node", "id": 557169191, "lat": 46.0687103, "lon": 11.1203815, "tags": {"addr:city": "Trento", "addr:country": "IT", "addr:housenumber": "6", "addr:postcode": "31822", "addr:street": "Vicolo Colico", "amenity": "bar", "check_date": "2024-06-30", "name": "Accademia", "opening_hours": "Mo-Su 07:30-23:00"}}, {"type": "node", "id": 557197346, "lat": 46.0674581, "lon": 11.1176611, "tags": {"addr:city": "Trento", "addr:country": "IT", "addr:housenumber": "3", "addr:postcode": "31822", "addr:street": "Via Don Giovanni Battista Zanella", "amenity": "bar", "contact:company": "Mabrax s.n.c.", "contact:phone": "+39 0461 261197", "name": "Bar Ateneo", "opening_hours": "Mo-Fr 07:00-20:00; Sa 08:00-14:00", "outdoor_seating": "yes", "ref:vatin": "IT02004240228"}}, {"type": "node", "id": 557197351, "lat": 46.0667626, "lon": 11.1209536, "tags": {"addr:city": "Trento", "addr:country": "IT", "addr:housenumber": "40", "addr:postcode": "31822", "addr:street": "Via Giuseppe Verdi", "amenity": "pub", "contact:phone": "+39 0461 981199", "name": "Bar Duomo", "opening_hours": "Mo 00:00-01:00, 07:00-00:00; Tu-Fr 00:00-02:00, 07:00-00:00; Sa-Su 00:00-02:00, 09:00-00:00", "operator": "SQUISITI S.R.L", "outdoor_seating": "yes", "ref:vatin": "IT02684520220", "website": "https://barduomobistrot.qromo.it/"}}, {"type": "node", "id": 558628474, "lat": 46.0703852, "lon": 11.1247107, "tags": {"addr:city": "Trento", "addr:country": "IT", "addr:housenumber": "83", "addr:postcode": "31822", "addr:street": "Via del Suffragio", "amenity": "bar", "name": "Suite Caf\u00e9", "opening_hours": "We 22:00-00:00; Th 00:00-02:30; Fr 22:00-00:00; Sa 00:00-03:00, 22:00-00:00; Su 00:00-03:00"}}, {"type": "node", "id": 560018853, "lat": 46.3139385, "lon": 11.223559, "tags": {"amenity": "bar", "indoor_seating": "yes", "name": "Weinstube", "name:de": "Weinstube", "name:it": "Weinstube", "outdoor_seating": "yes", "wheelchair": "no"}}, {"type": "node", "id": 563415898, "lat": 46.0564897, "lon": 11.1306784, "tags": {"amenity": "bar", "name": "Green Bar", "opening_hours": "Mo-Fr 06:30-20:00; Sa 07:30-15:30; Su 07:30-13:30"}}, {"type": "node", "id": 563436064, "lat": 46.0531736, "lon": 11.1296579, "tags": {"amenity": "bar", "name": "Melody 2.0", "opening_hours": "Mo 07:00-14:00, 17:30-00:00; Tu-Fr 00:00-01:30, 07:00-14:00, 17:30-00:00; Sa 00:00-01:30, 17:00-00:00; Su 00:00-01:30"}}, {"type": "node", "id": 563752837, "lat": 46.0682016, "lon": 11.1233791, "tags": {"addr:city": "Trento", "addr:country": "IT", "addr:housenumber": "28", "addr:postcode": "31822", "addr:street": "Via Oriola", "amenity": "bar", "name": "La Bella Vita", "opening_hours": "Mo-Sa 07:00-02:00", "outdoor_seating": "yes"}}, {"type": "node", "id": 563754461, "lat": 46.0686486, "lon": 11.1255451, "tags": {"addr:city": "Trento", "addr:country": "IT", "addr:housenumber": "3", "addr:postcode": "31822", "addr:street": "Via Santa Maria Maddalena", "amenity": "bar", "name": "Le Note Caf\u00e8", "wheelchair": "yes"}}, {"type": "node", "id": 570818497, "lat": 46.0678635, "lon": 11.1248636, "tags": {"amenity": "bar", "check_date": "2023-11-23", "name": "City Bar", "source": "local_knowledge"}}, {"type": "node", "id": 584849651, "lat": 46.0712924, "lon": 11.1246094, "tags": {"addr:city": "Trento", "addr:country": "IT", "addr:housenumber": "3", "addr:postcode": "31822", "addr:street": "Passaggio Silvio Dorigoni", "amenity": "bar", "indoor_seating": "yes", "name": "Al Porteghet", "opening_hours": "Mo-Fr 07:00-21:30; Sa 08:00-21:30", "outdoor_seating": "yes", "wheelchair": "limited"}}, {"type": "node", "id": 622616653, "lat": 46.3522903, "lon": 10.9131789, "tags": {"addr:city": "Mal\u00e9", "addr:postcode": "38027", "addr:street": "Piazza Regina Elena", "amenity": "bar", "brewery": "various", "indoor_seating": "yes", "name": "Caff\u00e8 de Oliva", "outdoor_seating": "yes"}}, {"type": "node", "id": 660602730, "lat": 46.0729319, "lon": 11.1222732, "tags": {"addr:city": "Trento", "addr:country": "IT", "addr:housenumber": "10a", "addr:postcode": "31822", "addr:street": "Via Gian Domenico Romagnosi", "amenity": "bar", "name": "Bar Buonconsiglio", "opening_hours": "Mo-Th 07:00-18:00; Fr 07:00-15:00; Sa,Su off", "wheelchair": "yes"}}, {"type": "node", "id": 663038618, "lat": 46.0711856, "lon": 11.1402766, "tags": {"amenity": "bar", "name": "Bar Satellite", "opening_hours": "Mo-Fr 06:30-20:00; Sa 06:30-13:00; Su 08:00-13:00"}}, {"type": "node", "id": 673740777, "lat": 46.0492154, "lon": 11.1458506, "tags": {"amenity": "pub", "internet_access": "wlan", "internet_access:fee": "no", "name": "La Canonica", "opening_hours": "6:30-24:00"}}, {"type": "node", "id": 703789987, "lat": 46.0709597, "lon": 11.1248867, "tags": {"addr:city": "Trento", "addr:country": "IT", "addr:housenumber": "51", "addr:postcode": "31822", "addr:street": "Via del Suffragio", "amenity": "bar", "name": "Bar Martin", "opening_hours": "Tu 18:30-00:00; We-Sa 00:00-03:00, 18:30-00:00; Su 00:00-03:00, 08:00-00:00"}}, {"type": "node", "id": 798801352, "lat": 46.0690382, "lon": 11.136194, "tags": {"amenity": "bar", "name": "Bar Stella", "opening_hours": "Mo-Fr 07:00-19:00; Sa 07:00-13:00"}}, {"type": "node", "id": 848834632, "lat": 46.0552062, "lon": 10.9677825}, {"type": "node", "id": 848834817, "lat": 46.0550911, "lon": 10.9676428}, {"type": "node", "id": 848834881, "lat": 46.0552062, "lon": 10.9676443}, {"type": "node", "id": 848834914, "lat": 46.0550902, "lon": 10.9677819}, {"type": "node", "id": 849474365, "lat": 46.2316665, "lon": 11.0677221}, {"type": "node", "id": 849474366, "lat": 46.2316986, "lon": 11.0676777}, {"type": "node", "id": 849474367, "lat": 46.2318305, "lon": 11.0674887}, {"type": "node", "id": 849474368, "lat": 46.2316812, "lon": 11.0676515}, {"type": "node", "id": 849474369, "lat": 46.2317165, "lon": 11.0676026}, {"type": "node", "id": 849474370, "lat": 46.2319021, "lon": 11.0675968}, {"type": "node", "id": 849474371, "lat": 46.2317358, "lon": 11.0678268}, {"type": "node", "id": 849474372, "lat": 46.2317317, "lon": 11.0676255}, {"type": "node", "id": 853801053, "lat": 46.067005, "lon": 11.1283028, "tags": {"amenity": "bar", "check_date": "2023-11-05", "name": "Edy Bar", "opening_hours": "Mo-Sa 07:00-21:00"}}, {"type": "node", "id": 853802199, "lat": 46.0665031, "lon": 11.1298976, "tags": {"amenity": "bar", "name": "Barbass", "opening_hours": "Mo-Fr 07:00-18:00; Sa 07:30-12:30"}}, {"type": "node", "id": 858394165, "lat": 46.0697587, "lon": 11.1276354, "tags": {"addr:city": "Trento", "addr:country": "IT", "addr:housenumber": "38", "addr:postcode": "31822", "addr:street": "Piazza Venezia", "amenity": "bar", "name": "Barycentro", "opening_hours": "Mo-Fr 07:00-19:00"}}, {"type": "node", "id": 859541354, "lat": 46.0995667, "lon": 11.1193008, "tags": {"addr:city": "Melta di Gardolo", "addr:country": "IT", "addr:housenumber": "57", "addr:postcode": "31821", "addr:street": "Via di Melta", "amenity": "pub", "name": "Bar Melta"}}, {"type": "node", "id": 860260433, "lat": 46.0668882, "lon": 11.1204973, "tags": {"addr:city": "Trento", "addr:country": "IT", "addr:housenumber": "75", "addr:postcode": "31822", "addr:street": "Via Giuseppe Verdi", "amenity": "bar", "name": "Line Caf\u00e8", "opening_hours": "Mo 08:00-00:00; Tu-We 00:00-01:00, 08:00-00:00; Th 00:00-01:00, 16:00-00:00; Fr 00:00-01:00, 08:00-00:00; Sa 00:00-01:00, 09:00-00:00; Su 00:00-01:00", "operator": "Franco Scrivano", "outdoor_seating": "yes", "wheelchair": "yes"}}, {"type": "node", "id": 861065544, "lat": 46.2119827, "lon": 11.0897158, "tags": {"addr:city": "Mezzolombardo", "addr:country": "IT", "addr:housenumber": "29", "addr:postcode": "38017", "addr:street": "Corso Giuseppe Mazzini", "amenity": "bar", "contact:fax": "+39 0461 606170", "contact:phone": "+39 0461 606170", "name": "Liston"}}, {"type": "node", "id": 867377161, "lat": 46.0677376, "lon": 11.1211151, "tags": {"addr:city": "Trento", "addr:country": "IT", "addr:housenumber": "42", "addr:postcode": "31822", "addr:street": "Piazza del Duomo", "amenity": "bar", "name": "BarInCentro", "opening_hours": "Mo-Su 07:15-02:00", "operator": "Atena s.r.l.", "ref:vatin": "IT01673150221", "wheelchair": "yes"}}, {"type": "node", "id": 867377482, "lat": 46.0678365, "lon": 11.1207305, "tags": {"addr:city": "Trento", "addr:country": "IT", "addr:housenumber": "40", "addr:postcode": "31822", "addr:street": "Via Camillo Benso Cavour", "amenity": "bar", "check_date": "2025-06-18", "check_date:currency:XBT": "2025-07-10", "currency:XBT": "yes", "currency:XBT:discount": "10%", "name": "Locanda del Gatto Gordo", "opening_hours": "Mo-Su 17:30-00:30,Su 12:00-14:30", "operator": "KIKI S.N.C. di Carlo Villotti & C.", "outdoor_seating": "yes", "payment:XBT:operator": "Bitcoinpos.it", "payment:lightning": "yes", "ref:vatin": "IT02431310222", "wheelchair": "limited"}}, {"type": "node", "id": 867438536, "lat": 46.0636271, "lon": 11.1237226, "tags": {"addr:city": "Trento", "addr:country": "IT", "addr:housenumber": "59", "addr:postcode": "31822", "addr:street": "Via Santa Croce", "amenity": "bar", "contact:facebook": "https://www.facebook.com/soulbartrento/", "contact:phone": "+39 0461 095329", "email": "info@soulbar.it", "name": "Soul Bar", "opening_hours": "Mo-Sa 07:00-20:00", "outdoor_seating": "yes", "website": "https://soulbarcoffeewine.eatbu.com"}}, {"type": "node", "id": 867439130, "lat": 46.064064, "lon": 11.1197268, "tags": {"addr:city": "Trento", "addr:country": "IT", "addr:housenumber": "63", "addr:postcode": "31822", "addr:street": "Via Antonio Rosmini", "amenity": "bar", "name": "Il Panino", "opening_hours": "Mo-Sa 06:30-20:00", "outdoor_seating": "yes"}}, {"type": "node", "id": 869984649, "lat": 46.2878362, "lon": 11.0289719, "tags": {"addr:city": "Cunevo", "addr:country": "IT", "addr:housename": "8", "addr:postcode": "38010", "addr:street": "Via della Calcara", "amenity": "pub", "contact:email": "birrakm8@birrakm8.com", "contact:facebook": "https://it-it.facebook.com/birrificiokm8", "contact:mobile": "+39 329 1953835", "contact:website": "http://www.birrakm8.com/", "name": "Km8 Birrificio & Brewpub", "operator": "Martini Michele", "outdoor_seating": "yes", "ref:vatin": "IT02425280225"}}, {"type": "node", "id": 870463075, "lat": 46.2134911, "lon": 11.089054, "tags": {"amenity": "bar", "contact:phone": "+39 0461 606025", "name": "Bar Centrale", "operator": "Devigili Carlo & C.", "outdoor_seating": "yes", "ref:vatin": "IT00614150225"}}, {"type": "node", "id": 880590945, "lat": 46.0694357, "lon": 11.1225507, "tags": {"addr:city": "Trento", "addr:country": "IT", "addr:housenumber": "15", "addr:postcode": "31822", "addr:street": "Via Paolo Oss Mazzurana", "amenity": "bar", "contact:phone": "+39 0461 230070", "name": "Bar Teatro", "opening_hours": "Mo-Sa 07:00-20:00; Su off", "operator": "Bettini Emma & C. S.N.C.", "outdoor_seating": "yes", "ref:vatin": "IT00333530228", "wheelchair": "limited"}}, {"type": "node", "id": 880591016, "lat": 46.0697356, "lon": 11.122213, "tags": {"addr:city": "Trento", "addr:country": "IT", "addr:housenumber": "20/1", "addr:postcode": "31822", "addr:street": "Via Giannantonio Manci", "amenity": "bar", "check_date": "2023-11-04", "name": "da Robert", "opening_hours": "Mo 08:00-22:00; We-Th 08:00-22:00; Fr 08:00-00:00; Sa 09:00-00:00; Su 09:00-22:00", "outdoor_seating": "yes", "website": "https://darobert.eatbu.com"}}, {"type": "node", "id": 885639416, "lat": 46.211635, "lon": 11.0908626, "tags": {"addr:city": "Mezzolombardo", "addr:country": "IT", "addr:housenumber": "3c", "addr:postcode": "38017", "addr:street": "Piazza Cassa di Risparmio", "amenity": "bar", "name": "Caff\u00e8 DNA"}}, {"type": "node", "id": 892578902, "lat": 46.0661016, "lon": 11.1228447, "tags": {"addr:city": "Trento", "addr:country": "IT", "addr:housenumber": "11", "addr:postcode": "31822", "addr:street": "Via Giuseppe Mazzini", "amenity": "bar", "check_date": "2024-10-23", "name": "Il Monello", "opening_hours": "Mo-Th 07:30-21:30; Fr-Sa 07:30-00:00", "outdoor_seating": "yes"}}, {"type": "node", "id": 895563129, "lat": 46.0941958, "lon": 11.1181025, "tags": {"addr:city": "Trento", "addr:country": "IT", "addr:housenumber": "54", "addr:postcode": "31821", "addr:street": "Via Romano Guardini", "amenity": "bar", "check_date": "2025-09-21", "contact:phone": "+39 0461 822447", "name": "Bar Tre Torri", "opening_hours": "Mo-Fr 07:00-21:00, Sa 07:00-12:00, Su closed", "operator": "Bar Mochena - Zordan P. & c. sas", "ref:vatin": "IT02029300221"}}, {"type": "node", "id": 902388592, "lat": 46.2428176, "lon": 11.2102672, "tags": {"addr:city": "Salorno - Salurn", "addr:city:de": "Salurn", "addr:city:it": "Salorno", "addr:housenumber": "9", "addr:postcode": "39040", "addr:street": "Via Nazionale - Staatsstra\u00dfe", "addr:street:de": "Staatsstra\u00dfe", "addr:street:it": "Via Nazionale", "amenity": "bar", "name": "Pub Bistro Naomi", "phone": "+39 0471 883107"}}, {"type": "node", "id": 906968586, "lat": 46.0678875, "lon": 11.1226721, "tags": {"addr:city": "Trento", "addr:country": "IT", "addr:housenumber": "2", "addr:postcode": "31822", "addr:street": "Piazza Lodron", "amenity": "bar", "name": "Farmacia delle Misture"}}, {"type": "node", "id": 906968983, "lat": 46.0667887, "lon": 11.1226732, "tags": {"addr:city": "Trento", "addr:country": "IT", "addr:housenumber": "10", "addr:postcode": "31822", "addr:street": "Via Calepina", "amenity": "pub", "check_date": "2024-01-19", "contact:email": "paolo.cereghini@gmail.com", "contact:facebook": "https://www.facebook.com/angolodei33/", "contact:mobile": "+39 392 0454593", "name": "Angolo dei 33", "opening_hours": "Tu-Sa 15:00-00:00; Su 16:00-22:00", "ref:vatin": "IT02241840228", "website": "http://www.angolodei33.com/"}}, {"type": "node", "id": 906969016, "lat": 46.0678815, "lon": 11.1220542, "tags": {"addr:city": "Trento", "addr:country": "IT", "addr:housenumber": "6", "addr:postcode": "31822", "addr:street": "Piazza Mario Pasi", "amenity": "bar"}}, {"type": "node", "id": 920773456, "lat": 46.0607632, "lon": 11.1235974, "tags": {"addr:city": "Trento", "addr:country": "IT", "addr:housenumber": "167", "addr:postcode": "31822", "addr:street": "Via Fratelli Perini", "amenity": "bar", "cuisine": "fry_food", "name": "Bistr\u00f2 167", "opening_hours": "Mo-Fr 07:00-20:00"}}, {"type": "node", "id": 928041132, "lat": 46.1597314, "lon": 11.2341566, "tags": {"addr:housenumber": "15", "addr:postcode": "38040", "addr:street": "Via Provinciale", "amenity": "bar", "name": "Bar Ezzo"}}, {"type": "node", "id": 937259699, "lat": 46.2623687, "lon": 11.3384798, "tags": {"amenity": "bar", "name": "Bar Posta"}}, {"type": "node", "id": 944586213, "lat": 46.1946186, "lon": 11.1299911, "tags": {"amenity": "bar", "name": "Centro Ricreativo Sant'Anna"}}, {"type": "node", "id": 944999768, "lat": 46.2139083, "lon": 11.0902235, "tags": {"addr:city": "Mezzolombardo", "addr:country": "IT", "addr:housenumber": "8", "addr:postcode": "38017", "addr:street": "Piazza Vittoria", "amenity": "bar", "contact:phone": "+39 0461 600514", "name": "Il Bar Sport", "operator": "due srl", "outdoor_seating": "yes", "ref:vatin": "IT02526250226"}}, {"type": "node", "id": 945021993, "lat": 46.0758112, "lon": 11.1425019, "tags": {"addr:city": "Cognola", "addr:country": "IT", "addr:housenumber": "5", "addr:postcode": "31821", "addr:street": "Via Don Alfonso Anselmi", "amenity": "bar", "check_date": "2023-11-11", "name": "Caff\u00e8 Argentario", "opening_hours": "Mo-Sa 07:00-12:30, 15:00-18:30; Su 07:00-12:30", "shop": "pastry", "wheelchair": "yes"}}, {"type": "node", "id": 945430413, "lat": 46.36519, "lon": 11.0330302, "tags": {"addr:city": "Cles", "addr:country": "IT", "addr:housenumber": "5", "addr:postcode": "38023", "addr:street": "Piazza Granda", "amenity": "bar", "check_date": "2024-03-21", "contact:instagram": "https://www.instagram.com/bar_nik5/", "currency:XBT": "yes", "name": "Bar Nik 5 - Enoteca Birreria", "payment:lightning": "yes", "payment:onchain": "no"}}, {"type": "node", "id": 959911054, "lat": 46.0923188, "lon": 11.1173642, "tags": {"addr:city": "Trento", "addr:country": "IT", "addr:housename": "Palazzo Onda", "addr:housenumber": "54", "addr:postcode": "31821", "addr:street": "Via Renato Lunelli", "amenity": "bar", "check_date": "2024-05-02", "email": "massimo.max.fini@gmail.com", "name": "Caff\u00e8 Onda", "opening_hours": "Mo-Th 06:30-21:00; Fr-Sa 06:30-22:00", "operator": "C.M.F.D. S.A.S. di Fini Claudio", "outdoor_seating": "yes", "phone": "+39 334 650 7023", "ref:vatin": "IT01627140229", "website": "https://caffeonda.it/"}}, {"type": "node", "id": 961288197, "lat": 46.0868032, "lon": 11.1199163, "tags": {"addr:city": "Trento", "addr:country": "IT", "addr:housenumber": "46", "addr:postcode": "31821", "addr:street": "Via Antonio Pranzelores", "amenity": "pub", "contact:phone": "+39 0461 090741", "name": "Willy's Caff\u00e8 Pub", "opening_hours": "Mo-Fr 10:00-14:30, 17:00-00:00"}}, {"type": "node", "id": 975288631, "lat": 46.075964, "lon": 11.1191367, "tags": {"addr:city": "Trento", "addr:country": "IT", "addr:housenumber": "12/2", "addr:postcode": "31822", "addr:street": "Corso Michelangelo Buonarroti", "amenity": "bar", "name": "Bar Chicco d'Oro", "opening_hours": "Mo-Fr 07:00-20:00; Sa 07:00-13:00", "operator": "ELLE D'ORO SNC di Li-Quing e C.", "outdoor_seating": "yes", "ref:vatin": "IT02392360224"}}, {"type": "node", "id": 976794123, "lat": 46.0673304, "lon": 11.1229589, "tags": {"addr:city": "Trento", "addr:country": "IT", "addr:housenumber": "21", "addr:postcode": "31822", "addr:street": "Via Carlo Dordi", "amenity": "bar", "contact:instagram": "https://www.instagram.com/speakeasy.28/", "contact:phone": "+39 0461 081636", "name": "Speakeasy'28", "operator": "Jacopo Divina", "outdoor_seating": "yes"}}, {"type": "node", "id": 1051108032, "lat": 46.1413226, "lon": 11.0148215}, {"type": "node", "id": 1051108034, "lat": 46.1412294, "lon": 11.014992}, {"type": "node", "id": 1100567055, "lat": 46.3501094, "lon": 10.9094855, "tags": {"addr:city": "Mal\u00e9", "addr:country": "IT", "addr:housenumber": "16", "addr:postcode": "38027", "addr:street": "Via IV Novembre", "amenity": "bar", "name": "Cevedale", "operator": "La Rocca di Zorzi Fabio", "ref:vatin": "IT01542870223"}}, {"type": "node", "id": 1105624885, "lat": 46.3196483, "lon": 11.269574, "tags": {"amenity": "pub", "opening_hours": "Mo-Fr 00:00-01:00,15:00-24:00; Sa,Su 00:00-01:00,11:00-24:00"}}, {"type": "node", "id": 1112898176, "lat": 46.0904245, "lon": 11.1171614, "tags": {"addr:city": "Trento", "addr:country": "IT", "addr:housename": "Top Center", "addr:housenumber": "320", "addr:postcode": "31821", "addr:street": "Via del Brennero", "amenity": "bar", "email": "hilary.trento@libero.it", "level": "0", "name": "Top Bar Hilary", "opening_hours": "Mo-Sa 07:00-20:00; Su 08:00-13:00", "operator": "Hilary S.N.C.", "phone": "+39 0461 194 3181", "ref:vatin": "IT01218740221", "website": "https://www.topbarhilary.it/"}}, {"type": "node", "id": 1112898189, "lat": 46.0907776, "lon": 11.1165568, "tags": {"addr:city": "Trento", "addr:country": "IT", "addr:housename": "Top Center", "addr:housenumber": "320", "addr:postcode": "31821", "addr:street": "Via del Brennero", "amenity": "bar", "level": "0"}}, {"type": "node", "id": 1119503431, "lat": 46.1976232, "lon": 11.1010589}, {"type": "node", "id": 1119503471, "lat": 46.1976244, "lon": 11.1010122}, {"type": "node", "id": 1119503520, "lat": 46.1976509, "lon": 11.1009543}, {"type": "node", "id": 1119503638, "lat": 46.1977584, "lon": 11.1009794}, {"type": "node", "id": 1119503733, "lat": 46.1977289, "lon": 11.1011366}, {"type": "node", "id": 1119503826, "lat": 46.1976424, "lon": 11.1011136}, {"type": "node", "id": 1119504019, "lat": 46.1977269, "lon": 11.1009412}, {"type": "node", "id": 1119504104, "lat": 46.1977667, "lon": 11.101076}, {"type": "node", "id": 1119504117, "lat": 46.1977519, "lon": 11.1011116}, {"type": "node", "id": 1119504198, "lat": 46.1976618, "lon": 11.1011349}, {"type": "node", "id": 1119504394, "lat": 46.197686, "lon": 11.100933}, {"type": "node", "id": 1119504488, "lat": 46.1977697, "lon": 11.1010191}, {"type": "node", "id": 1119504577, "lat": 46.1976972, "lon": 11.1011473}, {"type": "node", "id": 1129326730, "lat": 46.0681591, "lon": 11.121457, "tags": {"addr:city": "Trento", "addr:country": "IT", "addr:housenumber": "43", "addr:postcode": "31822", "addr:street": "Via Rodolfo Belenzani", "amenity": "bar", "barrier": "gate", "indoor_seating": "yes", "name": "Cin Cin", "outdoor_seating": "yes"}}, {"type": "node", "id": 1140956935, "lat": 46.1474638, "lon": 11.0994051, "tags": {"addr:city": "Lavis", "addr:country": "IT", "addr:housenumber": "31", "addr:postcode": "38015", "addr:street": "Via Nazionale", "amenity": "pub", "name": "Kiss Pub"}}, {"type": "node", "id": 1146670345, "lat": 46.1321728, "lon": 11.1336409, "tags": {"amenity": "bar", "name": "Pub Moby Dick"}}, {"type": "node", "id": 1149209898, "lat": 46.2043233, "lon": 11.1188642}, {"type": "node", "id": 1149210854, "lat": 46.2044294, "lon": 11.1190142}, {"type": "node", "id": 1149211879, "lat": 46.204518, "lon": 11.1185769}, {"type": "node", "id": 1149212100, "lat": 46.204624, "lon": 11.118727}, {"type": "node", "id": 1152983998, "lat": 46.0684098, "lon": 11.1251594, "tags": {"addr:city": "Trento", "addr:country": "IT", "addr:housenumber": "51", "addr:postcode": "31822", "addr:street": "Largo Giosu\u00e8 Carducci", "amenity": "bar", "check_date": "2023-11-20", "contact:email": "bugstrento@gmail.com", "contact:facebook": "https://www.facebook.com/bugstrento/", "contact:mobile": "+39 348 7404001", "name": "Bugs"}}, {"type": "node", "id": 1157581747, "lat": 46.0893275, "lon": 11.1312224, "tags": {"amenity": "bar", "fixme": "check closing day", "name": "Bar Gabry", "opening_hours": "Mo-Sa 07:00-22:00"}}, {"type": "node", "id": 1195181144, "lat": 46.1440561, "lon": 11.1945644, "tags": {"amenity": "bar"}}, {"type": "node", "id": 1227194749, "lat": 46.236998, "lon": 11.0311392, "tags": {"addr:city": "Sporminore", "addr:country": "IT", "addr:postcode": "38010", "amenity": "pub", "name": "Birreria Top Gun"}}, {"type": "node", "id": 1264896532, "lat": 46.0637987, "lon": 11.130906, "tags": {"addr:city": "Trento", "addr:country": "IT", "addr:housenumber": "59", "addr:postcode": "31822", "addr:street": "Via Milano", "amenity": "bar", "name": "Bar Style", "opening_hours": "Mo-Su,PH 07:00-22:00"}}, {"type": "node", "id": 1270294813, "lat": 46.0680752, "lon": 11.117216, "tags": {"addr:city": "Trento", "addr:country": "IT", "addr:housenumber": "23", "addr:postcode": "31822", "addr:street": "Via Tommaso Gar", "amenity": "bar", "check_date": "2024-04-13", "name": "Fuoricorso"}}, {"type": "node", "id": 1271926235, "lat": 46.0367295, "lon": 11.1300871}, {"type": "node", "id": 1271926252, "lat": 46.0366202, "lon": 11.1301035}, {"type": "node", "id": 1271926290, "lat": 46.0368087, "lon": 11.1301824}, {"type": "node", "id": 1271926307, "lat": 46.0365893, "lon": 11.1301271}, {"type": "node", "id": 1277580918, "lat": 46.3720526, "lon": 11.0560619}, {"type": "node", "id": 1277581337, "lat": 46.3722285, "lon": 11.0559323}, {"type": "node", "id": 1277581566, "lat": 46.3722888, "lon": 11.0561043}, {"type": "node", "id": 1277581950, "lat": 46.3721129, "lon": 11.0562339}, {"type": "node", "id": 1279641998, "lat": 46.1939602, "lon": 11.1324816, "tags": {"addr:city": "San Michele all'Adige", "addr:country": "IT", "addr:housenumber": "32", "addr:postcode": "38098", "addr:street": "Via Brennero", "amenity": "bar", "contact:phone": "+39 0461 650540", "name": "Al turista", "operator": "Zeni Giorgio", "ref:vatin": "IT00078770229"}}, {"type": "node", "id": 1280282367, "lat": 46.2897811, "lon": 11.0934255}, {"type": "node", "id": 1280282472, "lat": 46.2899364, "lon": 11.0935574}, {"type": "node", "id": 1280282548, "lat": 46.2899195, "lon": 11.0933954}, {"type": "node", "id": 1290442673, "lat": 46.066681, "lon": 11.1184607, "tags": {"addr:city": "Trento", "addr:country": "IT", "addr:housenumber": "31", "addr:postcode": "31822", "addr:street": "Via Giuseppe Verdi", "amenity": "bar", "check_date:opening_hours": "2024-08-20", "contact:phone": "+39 0461 984465", "indoor_seating": "yes", "name": "Caff\u00e8 Verdi", "opening_hours": "Mo-Sa 07:00-23:30", "opening_hours:signed": "no", "outdoor_seating": "yes", "ref:vatin": "IT02512400223"}}, {"type": "node", "id": 1300215299, "lat": 46.0707916, "lon": 11.1246505, "tags": {"addr:city": "Trento", "addr:country": "IT", "addr:housenumber": "86", "addr:postcode": "31822", "addr:street": "Via del Suffragio", "amenity": "pub", "bar": "yes", "contact:email": "laquintadelsordotrento@gmail.com", "contact:facebook": "https://www.facebook.com/laquintadelsordotrento/", "contact:instagram": "https://www.instagram.com/becerobacaro/", "contact:mobile": "+39 393 3367145", "contact:phone": "+39 0461 1594748", "contact:website": "https://www.laquintadelsordo.com/", "name": "La Quinta del Sordo", "opening_hours": "Mo-Sa 11:00-14:00,17:00-22:00; Su off", "operator": "Sara Andrei & C SNC", "ref:vatin": "IT02647530225"}}, {"type": "node", "id": 1308870011, "lat": 46.1515833, "lon": 11.0963404, "tags": {"amenity": "bar", "name": "Bar Centrale"}}, {"type": "node", "id": 1309442258, "lat": 46.0861616, "lon": 11.1192236}, {"type": "node", "id": 1309442292, "lat": 46.0862476, "lon": 11.1193218}, {"type": "node", "id": 1309442301, "lat": 46.0862692, "lon": 11.1191645}, {"type": "node", "id": 1309442315, "lat": 46.0861999, "lon": 11.1193621}, {"type": "node", "id": 1309442322, "lat": 46.0933271, "lon": 11.1178599, "tags": {"amenity": "bar", "name": "Bar Smile"}}, {"type": "node", "id": 1309442345, "lat": 46.0862766, "lon": 11.1192635}, {"type": "node", "id": 1317984287, "lat": 46.2445851, "lon": 11.2125274}, {"type": "node", "id": 1317984313, "lat": 46.2446232, "lon": 11.212739}, {"type": "node", "id": 1317984316, "lat": 46.244584, "lon": 11.2125851}, {"type": "node", "id": 1317984356, "lat": 46.2446741, "lon": 11.2125288}, {"type": "node", "id": 1317984363, "lat": 46.2446853, "lon": 11.2125395}, {"type": "node", "id": 1317996541, "lat": 46.2445707, "lon": 11.2126275}, {"type": "node", "id": 1317996542, "lat": 46.2446163, "lon": 11.2126822}, {"type": "node", "id": 1326513297, "lat": 46.0699136, "lon": 11.1189125, "tags": {"addr:city": "Trento", "addr:country": "IT", "addr:housenumber": "2", "addr:postcode": "31822", "addr:street": "Via Torre Vanga", "amenity": "bar", "check_date": "2023-11-18", "contact:email": "info@joycetrento.com", "contact:phone": "+39 0461 231728", "contact:website": "http://www.joycetrento.com/", "name": "Joyce", "opening_hours": "Mo-Fr 08:00-00:00; Sa 00:00-01:00, 08:00-00:00; Su 00:00-01:00, 09:00-00:00", "ref:vatin": "IT02332060223"}}, {"type": "node", "id": 1346728769, "lat": 46.1679123, "lon": 11.1145698, "tags": {"amenity": "bar", "name": "Bar Moser"}}, {"type": "node", "id": 1348508640, "lat": 46.0475976, "lon": 11.2356426}, {"type": "node", "id": 1348508811, "lat": 46.0474309, "lon": 11.2354751}, {"type": "node", "id": 1348509039, "lat": 46.0474288, "lon": 11.2356379}, {"type": "node", "id": 1348509261, "lat": 46.0475998, "lon": 11.2354798}, {"type": "node", "id": 1358048261, "lat": 46.2788286, "lon": 11.2389154}, {"type": "node", "id": 1358048262, "lat": 46.2788401, "lon": 11.2390824}, {"type": "node", "id": 1358048266, "lat": 46.2789781, "lon": 11.2388938}, {"type": "node", "id": 1358048267, "lat": 46.2789897, "lon": 11.2390608}, {"type": "node", "id": 1366801129, "lat": 46.0700674, "lon": 11.1246319, "tags": {"addr:city": "Trento", "addr:country": "IT", "addr:housenumber": "8", "addr:postcode": "31822", "addr:street": "Via San Marco", "amenity": "bar", "diet:vegan": "yes", "diet:vegetarian": "yes", "indoor_seating": "yes", "name": "Bar La vie en rose", "opening_hours": "Mo-Th 07:00-22:00; Fr-Sa 07:00-00:00", "outdoor_seating": "yes", "phone": "+39 0461 090624"}}, {"type": "node", "id": 1367888812, "lat": 46.0729934, "lon": 11.1265059, "tags": {"addr:city": "Trento", "addr:country": "IT", "addr:housenumber": "29", "addr:postcode": "31822", "addr:street": "Via Torre D'Augusto", "amenity": "bar", "contact:website": "http://www.bookique.org/", "email": "bookique@gmail.com", "name": "Bookique", "opening_hours": "Mo-Th 17:00-24:00; Fr-Sa 17:00-01:00", "shop": "books"}}, {"type": "node", "id": 1371175937, "lat": 46.050946, "lon": 11.0723553, "tags": {"amenity": "pub", "name": "Birreria 3 tre"}}, {"type": "node", "id": 1405084830, "lat": 46.1615929, "lon": 11.0022655, "tags": {"addr:city": "Andalo", "addr:country": "IT", "addr:housenumber": "1", "addr:postcode": "38010", "addr:street": "Via Laghet", "amenity": "pub", "name": "Apres ski Piz - Pub Al Laghet"}}, {"type": "node", "id": 1424390581, "lat": 46.3464826, "lon": 11.3017607, "tags": {"amenity": "pub", "name": "Buschenschank Tschurtsch"}}, {"type": "node", "id": 1438388523, "lat": 46.3273505, "lon": 11.0232157, "tags": {"amenity": "bar", "name": "Smile Caff\u00e8"}}, {"type": "node", "id": 1496706607, "lat": 46.194989, "lon": 11.1339431, "tags": {"addr:country": "IT", "addr:housenumber": "7", "addr:street": "Via Enrico Avanzi", "amenity": "bar", "contact:facebook": "https://www.facebook.com/905Winebar/", "contact:instagram": "905winebar", "contact:tripadvisor": "https://www.tripadvisor.com/Restaurant_Review-g1213865-d23324866-Reviews-905_Wine_Bar-San_Michele_all_Adige_Province_of_Trento_Trentino_Alto_Adige.html", "mobile": "+39 340 255 3484", "name": "905 Wine & Lunch Bar", "operator": "Barzon Giovanni & C.", "outdoor_seating": "yes", "ref:vatin": "IT02503760221"}}, {"type": "node", "id": 1503398641, "lat": 46.0683022, "lon": 11.1249779, "tags": {"addr:city": "Trento", "addr:country": "IT", "addr:housenumber": "38", "addr:postcode": "31822", "addr:street": "Largo Giosu\u00e8 Carducci", "amenity": "pub", "contact:email": "info@skietto.it", "contact:facebook": "https://www.facebook.com/skietto", "contact:instagram": "https://www.instagram.com/skiettotrento/", "contact:mobile": "+39 351 744 2996", "contact:website": "https://www.skietto.it/", "name": "Skietto", "operator": "LOTO s.r.l.", "ref:vatin": "IT01589800224"}}, {"type": "node", "id": 1503398830, "lat": 46.0684006, "lon": 11.1250253, "tags": {"addr:city": "Trento", "addr:country": "IT", "addr:housenumber": "41", "addr:postcode": "31822", "addr:street": "Largo Giosu\u00e8 Carducci", "amenity": "bar", "contact:email": "info@tunnellounge.it", "contact:facebook": "https://www.facebook.com/TunnelLoungeTrento/", "contact:phone": "+39 0461 439148", "contact:website": "http://www.tunnellounge.it/", "name": "Tunnel Lounge"}}, {"type": "node", "id": 1514163386, "lat": 46.2660357, "lon": 11.0858036, "tags": {"addr:city": "Ton", "addr:country": "IT", "addr:housenumber": "3", "addr:postcode": "38010", "addr:street": "Via Al Doss", "amenity": "bar", "name": "Bar Al Molin", "operator": "ISA TRIDENTUM SRLS", "ref:vatin": "IT02508870223"}}, {"type": "node", "id": 1514580922, "lat": 46.0668728, "lon": 11.1203213, "tags": {"addr:city": "Trento", "addr:country": "IT", "addr:housenumber": "71", "addr:postcode": "31822", "addr:street": "Via Giuseppe Verdi", "amenity": "bar", "name": "in Vineria", "opening_hours": "Tu 11:30-23:00; We 11:30-00:00; Th 17:00-23:00; Fr-Sa 11:30-00:00; Su 11:00-23:00", "outdoor_seating": "yes", "wheelchair": "yes"}}, {"type": "node", "id": 1523289654, "lat": 46.1423254, "lon": 10.9635864, "tags": {"amenity": "bar", "name": "Bar Malib\u00f9"}}, {"type": "node", "id": 1524975624, "lat": 46.1427859, "lon": 10.9655748, "tags": {"amenity": "bar", "name": "Meeting"}}, {"type": "node", "id": 1524976201, "lat": 46.1428847, "lon": 10.9648973, "tags": {"addr:city": "Molveno", "addr:country": "IT", "addr:housenumber": "2", "addr:postcode": "38018", "addr:street": "Piazza Scuole", "amenity": "bar", "name": "Cristallo", "source": "survey"}}, {"type": "node", "id": 1525276858, "lat": 46.1425447, "lon": 10.9665729, "tags": {"addr:city": "Molveno", "addr:country": "IT", "addr:housenumber": "1", "addr:postcode": "38018", "addr:street": "Piazza San Carlo", "amenity": "bar", "name": "Imperia", "source": "survey"}}, {"type": "node", "id": 1525277252, "lat": 46.1426012, "lon": 10.9663414, "tags": {"amenity": "bar"}}, {"type": "node", "id": 1552302322, "lat": 46.0721038, "lon": 11.0606605, "tags": {"amenity": "bar", "name": "Bar en Piaza"}}, {"type": "node", "id": 1552328450, "lat": 46.0727644, "lon": 11.0585657, "tags": {"amenity": "bar", "name": "Bar Alpino"}}, {"type": "node", "id": 1580347710, "lat": 46.0891824, "lon": 11.1205897, "tags": {"amenity": "bar"}}, {"type": "node", "id": 1620451932, "lat": 46.0661842, "lon": 11.1553429, "tags": {"addr:city": "Povo", "addr:country": "IT", "addr:housenumber": "21", "addr:postcode": "38123", "addr:street": "Via della Resistenza", "amenity": "bar", "check_date:opening_hours": "2025-09-21", "name": "Bar Osteria Can Ton", "opening_hours:signed": "no"}}, {"type": "node", "id": 1669326109, "lat": 46.2089086, "lon": 11.1025775, "tags": {"addr:city": "Mezzolombardo", "addr:country": "IT", "addr:housename": "Centro Commerciale Roltalcenter", "addr:housenumber": "37", "addr:postcode": "38017", "addr:street": "Via Guido Fiorini", "amenity": "bar", "level": "0", "name": "Center Bar", "ref:vatin": "IT01812680229"}}, {"type": "node", "id": 1717103999, "lat": 46.3929567, "lon": 11.1189603, "tags": {"amenity": "pub", "name": "Full Moon Pub"}}, {"type": "node", "id": 1721724906, "lat": 46.2091452, "lon": 11.0893397}, {"type": "node", "id": 1721724907, "lat": 46.2091625, "lon": 11.0893965}, {"type": "node", "id": 1721724910, "lat": 46.2091922, "lon": 11.0893099}, {"type": "node", "id": 1721724912, "lat": 46.2092094, "lon": 11.0893667}, {"type": "node", "id": 1741821563, "lat": 46.3229837, "lon": 11.2779994, "tags": {"amenity": "bar", "name": "Bar Vaja"}}, {"type": "node", "id": 1765153182, "lat": 46.0648483, "lon": 11.1238383, "tags": {"addr:city": "Trento", "addr:country": "IT", "addr:housenumber": "7", "addr:postcode": "31822", "addr:street": "Piazza di Fiera", "amenity": "bar", "name": "Sottobanco", "ref:vatin": "IT02647530225"}}, {"type": "node", "id": 1766951957, "lat": 46.3522196, "lon": 11.0941913}, {"type": "node", "id": 1766951961, "lat": 46.3522446, "lon": 11.0939925}, {"type": "node", "id": 1766951962, "lat": 46.3523936, "lon": 11.0942371}, {"type": "node", "id": 1766951964, "lat": 46.3524186, "lon": 11.0940384}, {"type": "node", "id": 1768099842, "lat": 46.0716747, "lon": 11.125662, "tags": {"addr:city": "Trento", "addr:country": "IT", "addr:housenumber": "29", "addr:postcode": "31822", "addr:street": "Piazza della Mostra", "amenity": "pub", "indoor_seating": "yes", "name": "Le scuderie del castello", "opening_hours": "Mo 17:00-22:00; Tu-Sa 11:00-14:00, 17:00-22:00; Su 11:00-14:00", "outdoor_seating": "yes"}}, {"type": "node", "id": 1768099916, "lat": 46.0707903, "lon": 11.125361, "tags": {"addr:city": "Trento", "addr:country": "IT", "addr:housenumber": "8", "addr:postcode": "31822", "addr:street": "Passaggio Teatro Osele", "air_conditioning": "yes", "amenity": "bar", "brewery": "yes", "contact:phone": "+39 0461 982520", "internet_access": "wlan", "name": "Caf\u00e9 de la Paix", "opening_hours": "Tu-Su 17:00-22:00", "outdoor_seating": "yes", "payment:cash": "yes", "payment:debit_cards": "yes"}}, {"type": "node", "id": 1784702656, "lat": 46.0903458, "lon": 11.117127, "tags": {"addr:city": "Trento", "addr:country": "IT", "addr:housename": "Top Center", "addr:housenumber": "320", "addr:postcode": "31821", "addr:street": "Via del Brennero", "amenity": "bar", "contact:phone": "+39 0461 823448", "level": "1", "name": "TheRing", "operator": "Nanno SNC", "ref:vatin": "IT02248270221"}}, {"type": "node", "id": 1833230969, "lat": 46.0723763, "lon": 11.1251734, "tags": {"addr:city": "Trento", "addr:country": "IT", "addr:housenumber": "86", "addr:postcode": "31822", "addr:street": "Via San Martino", "amenity": "bar", "diet:vegan": "yes", "diet:vegetarian": "yes", "entrance": "main", "name": "El Barrio", "opening_hours": "Mo-Su 17:00-22:00", "operator": "Barrio s.n.c.", "outdoor_seating": "yes", "ref:vatin": "IT02547440228", "wheelchair": "yes"}}, {"type": "node", "id": 1870408863, "lat": 46.1388818, "lon": 11.1132387, "tags": {"addr:city": "Lavis", "addr:housenumber": "23", "addr:postcode": "38015", "addr:street": "Via Giacomo Matteotti", "amenity": "bar", "name": "Caff\u00e8 Matteotti"}}, {"type": "node", "id": 1870411537, "lat": 46.1387797, "lon": 11.1130463, "tags": {"amenity": "bar", "name": "Bar Acli"}}, {"type": "node", "id": 1906590005, "lat": 46.2748995, "lon": 11.0483767, "tags": {"addr:city": "Denno", "addr:housename": "Bar Marta", "addr:postcode": "38010", "addr:street": "Via Alcide De Gasperi", "amenity": "bar", "name": "Bar Marta"}}, {"type": "node", "id": 1923459909, "lat": 46.1271747, "lon": 11.2496804, "tags": {"addr:city": "Baselga di Pin\u00e9", "addr:hamlet": "Miola", "addr:housenumber": "7", "addr:province": "Trento", "addr:street": "Via della Cr\u00f2s", "amenity": "bar", "name": "Pub-Pizzeria \"La Talpa\"", "operator": "Ceschi Matteo", "phone": "+39 0461 557202", "ref:vatin": "IT01701220228"}}, {"type": "node", "id": 1923460618, "lat": 46.1264138, "lon": 11.2466776, "tags": {"amenity": "bar", "check_date": "2023-06-18", "name": "Bar Da Gigi"}}, {"type": "node", "id": 1987142860, "lat": 46.0366044, "lon": 11.1146618, "tags": {"addr:city": "Trento", "addr:country": "IT", "addr:housenumber": "9h", "addr:postcode": "38123", "addr:street": "Via Stella", "amenity": "bar", "name": "Eldorado", "opening_hours": "Mo-Fr 00:00-01:00, 20:00-00:00; Sa-Su 00:00-02:00, 20:00-00:00", "operator": "Fernandez Antimo Horst", "phone": "+39 342 924 6782", "ref:vatin": "IT02251890220"}}, {"type": "node", "id": 2133570094, "lat": 46.3898494, "lon": 11.1370116, "tags": {"addr:city": "Don", "addr:country": "IT", "addr:housenumber": "18", "addr:street": "Via Endrici", "amenity": "bar", "contact:phone": "+39 0463 875100", "name": "Bar Endrighi", "operator": "Bar Endrighi L.&C. snc"}}, {"type": "node", "id": 2288304897, "lat": 46.3525985, "lon": 11.1000322}, {"type": "node", "id": 2288304898, "lat": 46.3526533, "lon": 11.1002421}, {"type": "node", "id": 2288304900, "lat": 46.3527067, "lon": 11.0999729}, {"type": "node", "id": 2288304902, "lat": 46.3527615, "lon": 11.1001828}, {"type": "node", "id": 2290167158, "lat": 46.1585682, "lon": 11.141407, "tags": {"amenity": "bar", "name": "Circolo Acli", "opening_hours": "Th-Tu 09:30-12:30,16:30-23:30"}}, {"type": "node", "id": 2314672636, "lat": 46.1386775, "lon": 11.1139864, "tags": {"addr:city": "Lavis", "addr:country": "IT", "addr:housenumber": "4", "addr:postcode": "38015", "addr:street": "Piazza Manci", "amenity": "bar", "name": "Bar Corona"}}, {"type": "node", "id": 2364540527, "lat": 46.1647583, "lon": 11.0037291, "tags": {"amenity": "bar", "name": "Bar BO"}}, {"type": "node", "id": 2364540528, "lat": 46.1646476, "lon": 11.0033829, "tags": {"amenity": "bar", "name": "Caff\u00e8 Centrale", "outdoor_seating": "yes", "smoking": "outside"}}, {"type": "node", "id": 2364540529, "lat": 46.1642792, "lon": 11.0035753, "tags": {"addr:city": "Andalo", "addr:country": "IT", "addr:housenumber": "1", "addr:postcode": "38010", "addr:street": "Via Piz Galin", "amenity": "bar", "name": "Caff\u00e8 Vienna", "outdoor_seating": "yes"}}, {"type": "node", "id": 2364540531, "lat": 46.1641285, "lon": 11.0023687, "tags": {"amenity": "bar", "check_date": "2025-06-14", "name": "La Stua", "opening_hours": "07:00-23:00", "outdoor_seating": "yes", "payment:cash": "yes", "payment:contactless": "yes", "payment:credit_cards": "yes", "payment:mastercard": "yes", "payment:visa": "yes", "smoking": "outside", "website:menu": "https://amministrazione317.wixsite.com/menu-lastua-andalo"}}, {"type": "node", "id": 2367807122, "lat": 46.0371741, "lon": 11.1076399, "tags": {"amenity": "bar", "changing_table": "limited", "check_date": "2023-11-18", "level": "0", "name": "Bistr\u00f2 Ravina", "opening_hours": "Mo-Fr 07:00-24:00; Su 08:00-24:00", "outdoor_seating": "yes", "toilets": "yes", "toilets:access": "customers", "toilets:wheelchair": "designated", "website": "https://m.facebook.com/bistroravina", "wheelchair": "yes"}}, {"type": "node", "id": 2373083888, "lat": 46.3465508, "lon": 10.916692}, {"type": "node", "id": 2373083893, "lat": 46.3466022, "lon": 10.9166407}, {"type": "node", "id": 2373083898, "lat": 46.3466414, "lon": 10.9168822}, {"type": "node", "id": 2373083905, "lat": 46.3466927, "lon": 10.9168309}, {"type": "node", "id": 2378421977, "lat": 46.0734098, "lon": 10.8964086}, {"type": "node", "id": 2378422018, "lat": 46.073501, "lon": 10.8964225}, {"type": "node", "id": 2378422021, "lat": 46.0734909, "lon": 10.8965606}, {"type": "node", "id": 2378422031, "lat": 46.0733997, "lon": 10.8965467}, {"type": "node", "id": 2397157018, "lat": 46.0627581, "lon": 11.1152717, "tags": {"addr:city": "Trento", "addr:country": "IT", "addr:housenumber": "3", "addr:postcode": "31822", "addr:street": "Corso del Lavoro e della Scienza", "air_conditioning": "yes", "amenity": "bar", "check_date:opening_hours": "2025-09-21", "contact:phone": "+39 0461 270311", "name": "MUSE Caf\u00e8", "opening_hours": "Mo-Fr 08:00-19:00; Sa,Su,PH 09:00-20:00", "operator": "Serenissima Ristorazione SPA", "outdoor_seating": "yes", "ref:vatin": "IT01617950249", "wheelchair": "yes", "wifi": "no"}}, {"type": "node", "id": 2418313531, "lat": 46.3569531, "lon": 11.0371794, "tags": {"amenity": "bar", "name": "Giordy Caff\u00e8"}}, {"type": "node", "id": 2502929449, "lat": 46.0472455, "lon": 11.1330047, "tags": {"addr:city": "Trento", "addr:country": "IT", "addr:housenumber": "138", "addr:postcode": "38123", "addr:street": "Via della Malpensada", "amenity": "bar", "contact:instagram": "unibar_sanba", "name": "UniBAR", "opening_hours": "\"The bat is closed, instead some events are organized in this place occasionally\"", "wheelchair": "yes"}}, {"type": "node", "id": 2618051263, "lat": 46.0989271, "lon": 11.0535315, "tags": {"addr:city": "Vallelaghi", "addr:housenumber": "1", "addr:street": "Via al Lago di Terlago", "amenity": "bar", "name": "Bar Lido 2.0", "wheelchair": "yes"}}, {"type": "node", "id": 2618341568, "lat": 46.1301997, "lon": 11.1262284, "tags": {"addr:city": "Trento", "addr:country": "IT", "addr:housenumber": "3", "addr:postcode": "31821", "addr:street": "Via del Pra de l'Agnela", "amenity": "bar"}}, {"type": "node", "id": 2674524946, "lat": 46.1496037, "lon": 11.2760385}, {"type": "node", "id": 2674524947, "lat": 46.1495219, "lon": 11.2761431}, {"type": "node", "id": 2674524948, "lat": 46.1493727, "lon": 11.2759003}, {"type": "node", "id": 2674524949, "lat": 46.1494545, "lon": 11.2757957}, {"type": "node", "id": 2714053904, "lat": 46.3407381, "lon": 11.0453443, "tags": {"addr:city": "Rallo", "addr:housenumber": "4", "addr:postcode": "38010", "addr:street": "Borgo Manero", "amenity": "bar", "contact:facebook": "https://www.facebook.com/BarBerti/", "contact:phone": "+39 0463 451880", "name": "Bar Berti", "operator": "Luchini Lucia"}}, {"type": "node", "id": 2722416007, "lat": 46.0389201, "lon": 11.004924}, {"type": "node", "id": 2722416008, "lat": 46.0388769, "lon": 11.0048131}, {"type": "node", "id": 2722416010, "lat": 46.0389957, "lon": 11.0048628}, {"type": "node", "id": 2722416011, "lat": 46.0389525, "lon": 11.0047519}, {"type": "node", "id": 2757335563, "lat": 46.174762, "lon": 11.074712, "tags": {"amenity": "bar", "name": "Black Ice"}}, {"type": "node", "id": 2802428479, "lat": 46.0630652, "lon": 11.2387442}, {"type": "node", "id": 2802428482, "lat": 46.0631368, "lon": 11.2386875}, {"type": "node", "id": 2802428487, "lat": 46.0631777, "lon": 11.2390391}, {"type": "node", "id": 2802428491, "lat": 46.0632493, "lon": 11.2389824}, {"type": "node", "id": 2820082779, "lat": 46.154307, "lon": 11.3095863, "tags": {"amenity": "bar", "dog": "yes", "name": "Bar Genzianella"}}, {"type": "node", "id": 2853936059, "lat": 46.0622048, "lon": 11.2390215, "tags": {"addr:city": "Pergine Valsugana", "addr:country": "IT", "addr:housenumber": "5g", "addr:postcode": "38057", "addr:street": "Piazza Garibaldi", "amenity": "bar", "contact:mobile": "+39 348 5697713", "name": "Caf\u00e8 Teatro", "operator": "Matisse S.R.L.", "ref:vatin": "IT02304630227"}}, {"type": "node", "id": 2967363182, "lat": 46.1336175, "lon": 11.2571811, "tags": {"amenity": "bar", "name": "Piccolo Paradiso"}}, {"type": "node", "id": 2967453837, "lat": 46.1345768, "lon": 11.2480336, "tags": {"amenity": "bar", "check_date": "2025-08-04", "check_date:opening_hours": "2025-08-04", "name": "Bar Bianco", "opening_hours": "Th-Tu 07:00-12:30,15:00-19:30"}}, {"type": "node", "id": 2967469526, "lat": 46.1300261, "lon": 11.2446986, "tags": {"amenity": "bar", "check_date": "2025-08-31", "check_date:opening_hours": "2025-08-31", "name": "Bar Bivio", "opening_hours": "Mo-Fr 05:00-19:00"}}, {"type": "node", "id": 3089135848, "lat": 46.0771673, "lon": 11.1192013, "tags": {"addr:city": "Trento", "addr:country": "IT", "addr:housenumber": "5", "addr:postcode": "31821", "addr:street": "Piazza General Antonio Cantore", "amenity": "bar", "name": "Salotto 41", "opening_hours": "Mo-Fr 08:00-22:00; Sa 09:00-22:00", "operator": "Due Erre S.A.S.", "outdoor_seating": "yes", "ref:vatin": "IT02424310221"}}, {"type": "node", "id": 3105498292, "lat": 46.3489581, "lon": 11.0892694}, {"type": "node", "id": 3105498295, "lat": 46.3490537, "lon": 11.0893953}, {"type": "node", "id": 3105498296, "lat": 46.349052, "lon": 11.0894736}, {"type": "node", "id": 3105498297, "lat": 46.3489547, "lon": 11.0894804}, {"type": "node", "id": 3134826456, "lat": 46.1380842, "lon": 11.1187976, "tags": {"addr:city": "Trento", "addr:country": "IT", "addr:housenumber": "3", "addr:postcode": "31821", "addr:street": "Sponda Trentina", "amenity": "pub", "contact:facebook": "https://www.facebook.com/bar.leimer/", "name": "Leimer", "opening_hours": "Mo-Su 06:00-22:00", "outdoor_seating": "yes"}}, {"type": "node", "id": 3164166969, "lat": 46.0668231, "lon": 11.1223639, "tags": {"addr:country": "IT", "amenity": "bar", "description": "Casetta in legno natalizia per la vendit\u00e0 di vin brul\u00e8, bombardini, brul\u00e8 di mele e castagne.", "name": "Il Mercatino", "operator": "Deavi Alberto e Pallaoro Carla S.n.c.", "operator:addr:city": "Sant'Orsola Terme", "operator:addr:housenumber": "60", "operator:addr:postcode": "38050", "operator:addr:street": "Via Pintarei", "ref:vatin": "IT01830740229"}}, {"type": "node", "id": 3250914386, "lat": 46.049569, "lon": 11.1314005, "tags": {"addr:city": "Trento", "addr:country": "IT", "addr:housenumber": "4", "addr:postcode": "38123", "addr:street": "Viale degli Olmi", "amenity": "pub", "name": "Flambard Pub", "opening_hours": "07:00-23:00", "wheelchair": "limited"}}, {"type": "node", "id": 3669977950, "lat": 46.3199909, "lon": 11.0945305, "tags": {"amenity": "bar"}}, {"type": "node", "id": 3674364980, "lat": 46.0343174, "lon": 11.3945248, "tags": {"addr:city": "Roncegno Terme", "addr:country": "IT", "addr:district": "Marter", "addr:housenumber": "15", "addr:postcode": "38050", "addr:province": "TN", "addr:street": "Via Nazionale", "amenity": "bar", "name": "Bar Vecchia Torre", "operator": "Papi Armando & C. s.n.c.", "operator:addr:city": "Borgo Valsugana", "operator:addr:housenumber": "3/D", "operator:addr:postcode": "38051", "operator:addr:street": "Via Liverone", "ref:rea_tn": "185204", "ref:vatin": "IT01889360226"}}, {"type": "node", "id": 3777422405, "lat": 46.0701406, "lon": 10.9052545}, {"type": "node", "id": 3777422409, "lat": 46.0702117, "lon": 10.9051532}, {"type": "node", "id": 3777422413, "lat": 46.0702598, "lon": 10.9054285}, {"type": "node", "id": 3777422416, "lat": 46.0703309, "lon": 10.9053272}, {"type": "node", "id": 3887526674, "lat": 46.089668, "lon": 11.1826062, "tags": {"amenity": "bar", "name": "Bar Stella"}}, {"type": "node", "id": 3932953476, "lat": 46.0714008, "lon": 11.1248592, "tags": {"addr:city": "Trento", "addr:country": "IT", "addr:housenumber": "36", "addr:postcode": "31822", "addr:street": "Via del Suffragio", "amenity": "bar", "contact:phone": "+39 0461 230201", "name": "Caracolito", "opening_hours": "Mo-Sa 07:30-17:00"}}, {"type": "node", "id": 3951262747, "lat": 46.0609663, "lon": 11.2418989, "tags": {"amenity": "bar", "indoor_seating": "yes", "name": "White Caf\u00e8", "outdoor_seating": "yes"}}, {"type": "node", "id": 3996897857, "lat": 46.1675851, "lon": 11.0041486, "tags": {"addr:housenumber": "13b", "addr:street": "Viale Trento", "amenity": "bar", "name": "Dolci Note", "phone": "+39 046 1585383"}}, {"type": "node", "id": 4121409515, "lat": 46.1060455, "lon": 11.106302, "tags": {"addr:city": "Gardolo", "addr:country": "IT", "addr:housenumber": "72", "addr:postcode": "31821", "addr:street": "Via Soprasasso", "amenity": "bar", "contact:facebook": "https://www.facebook.com/caffe72gardolo/", "contact:mobile": "+39 345 085 3574", "name": "Caff\u00e8 72"}}, {"type": "node", "id": 4213004875, "lat": 46.0865524, "lon": 11.1185943, "tags": {"addr:city": "Trento", "addr:country": "IT", "addr:housenumber": "260l", "addr:postcode": "31821", "addr:street": "Via del Brennero", "amenity": "pub", "name": "Tony's pub", "opening_hours": "Mo 07:30-12:00; Tu-We 07:30-22:00; Th-Fr 07:30-00:00; Sa 00:00-03:00, 07:30-00:00; Su 00:00-03:00, 07:30-22:00", "phone": "+39 327 455 1739"}}, {"type": "node", "id": 4220261146, "lat": 46.1173749, "lon": 11.1035323, "tags": {"addr:city": "Trento", "addr:country": "IT", "addr:housenumber": "1", "addr:postcode": "31821", "addr:street": "Via Kufstein", "amenity": "bar", "name": "Tutti per Uno", "opening_hours": "Mo-Fr 07:00-19:30"}}, {"type": "node", "id": 4251202604, "lat": 46.3150042, "lon": 11.0484007, "tags": {"amenity": "bar", "name": "Bar Jurka"}}, {"type": "node", "id": 4251202606, "lat": 46.32638, "lon": 11.0225613, "tags": {"amenity": "bar", "name": "El Baret"}}, {"type": "node", "id": 4264239318, "lat": 46.0708668, "lon": 11.1209203, "tags": {"addr:city": "Trento", "addr:country": "IT", "addr:housename": "Palazzina Liberty", "addr:housenumber": "30", "addr:postcode": "31822", "addr:street": "Piazza Dante", "amenity": "bar", "contact:instagram": "libercafe2.0", "indoor_seating": "yes", "name": "Liber Caf\u00e9", "opening_hours": "Mo-Su 08:00-22:00", "operator": "La Gnoccata di Spagna Enrico", "outdoor_seating": "yes", "payment:credit_cards": "yes", "payment:debit_cards": "yes", "ref:vatin": "IT02166700225", "wheelchair": "limited"}}, {"type": "node", "id": 4319958798, "lat": 46.2969092, "lon": 11.0249007, "tags": {"addr:city": "Flavon", "addr:country": "IT", "addr:housenumber": "36", "addr:postcode": "38093", "amenity": "bar", "name": "La Pineta"}}, {"type": "node", "id": 4320967592, "lat": 46.1523883, "lon": 11.0967641, "tags": {"amenity": "bar", "name": "Panificio la Spiga", "opening_hours": "Mo-Fr 06:00-15:30; Sa 06:00-13:00"}}, {"type": "node", "id": 4325620251, "lat": 46.1253396, "lon": 11.2237278}, {"type": "node", "id": 4325620252, "lat": 46.1253433, "lon": 11.2235347}, {"type": "node", "id": 4325620254, "lat": 46.125439, "lon": 11.2237318}, {"type": "node", "id": 4325620255, "lat": 46.1254427, "lon": 11.2235386}, {"type": "node", "id": 4326778689, "lat": 46.3005136, "lon": 11.0294101, "tags": {"amenity": "bar", "name": "Bar dal ri'"}}, {"type": "node", "id": 4335101380, "lat": 46.1100745, "lon": 11.0380022, "tags": {"amenity": "bar", "name": "Bar Turista"}}, {"type": "node", "id": 4360111389, "lat": 46.2482629, "lon": 11.0688151, "tags": {"amenity": "bar", "internet_access": "wlan", "name": "USAM Baitona", "name:it": "USAM Baitona"}}, {"type": "node", "id": 4381201223, "lat": 46.1263725, "lon": 11.2520502, "tags": {"amenity": "bar", "check_date": "2025-04-20", "disused": "yes", "disused:amenity": "bar", "name": "Ice Bar"}}, {"type": "node", "id": 4454964567, "lat": 46.0665219, "lon": 11.2325341, "tags": {"addr:city": "Pergine Valsugana", "addr:street": "Via Francesco Petrarca", "amenity": "bar", "check_date": "2024-06-18", "name": "Birreria 700", "smoking": "outside"}}, {"type": "node", "id": 4497466477, "lat": 46.0576074, "lon": 11.1303695, "tags": {"amenity": "bar", "name": "La Tana del Ghiro", "opening_hours": "Mo-Fr 07:30-13:00, 16:00-20:00; Sa 07:30-13:30"}}, {"type": "node", "id": 4545112892, "lat": 46.0298043, "lon": 11.2568399, "tags": {"amenity": "bar", "name": "Hotel Margherita"}}, {"type": "node", "id": 4557760212, "lat": 46.2073935, "lon": 11.0998058, "tags": {"addr:city": "Mezzolombardo", "addr:country": "IT", "addr:housename": "Complesso Commerciale Braide", "addr:housenumber": "65a", "addr:postcode": "38017", "addr:street": "Via Trento", "amenity": "bar", "contact:phone": "+39 0461 091589", "level": "0", "name": "Braide\u2019s bar", "opening_hours": "Mo-Su 09:00-20:30", "operator": "Pascucci", "wheelchair": "yes"}}, {"type": "node", "id": 4613996421, "lat": 46.0607392, "lon": 11.2374143, "tags": {"amenity": "bar", "name": "Bar Sport"}}, {"type": "node", "id": 4791638253, "lat": 46.1176784, "lon": 11.21828, "tags": {"amenity": "bar", "check_date": "2024-12-18", "name": "PUB \"La Polveriera\""}}, {"type": "node", "id": 4815875503, "lat": 46.0695685, "lon": 11.1251084, "tags": {"amenity": "bar", "name": "Aquila Basket"}}, {"type": "node", "id": 4849403999, "lat": 46.073997, "lon": 11.1187205, "tags": {"addr:city": "Trento", "addr:country": "IT", "addr:housenumber": "43", "addr:postcode": "31822", "addr:street": "Corso Michelangelo Buonarroti", "amenity": "bar", "name": "Old Liberty Caf\u00e8"}}, {"type": "node", "id": 5071900744, "lat": 46.0890798, "lon": 11.1195829, "tags": {"addr:city": "Trento", "addr:country": "IT", "addr:housenumber": "83", "addr:postcode": "31821", "addr:street": "Via Antonio Pranzelores", "amenity": "bar", "contact:facebook": "https://www.facebook.com/barcolors12/", "contact:mobile": "+39 340 6768719", "name": "Colors Caff\u00e8 12", "opening_hours": "Mo-Sa 7:00-19:00", "operator": "12 SNC di Raffelli Eva Elisa & C.", "ref:vatin": "IT02365750229"}}, {"type": "node", "id": 5071900749, "lat": 46.0898158, "lon": 11.1195789, "tags": {"addr:city": "Trento", "addr:country": "IT", "addr:housename": "Mesa Verde", "addr:housenumber": "11", "addr:postcode": "31821", "addr:street": "Via Antonio Pranzelores", "amenity": "bar", "name": "Bar Mesa Verde", "operator": "Bruno Fajardo Janet Elizabet", "ref:vatin": "IT02487580223"}}, {"type": "node", "id": 5320939694, "lat": 46.2776191, "lon": 11.3667483, "tags": {"amenity": "pub", "name": "Altreierhof"}}, {"type": "node", "id": 5398730623, "lat": 46.0467678, "lon": 10.888119, "tags": {"amenity": "bar", "name": "Bar Bellavista", "wheelchair": "yes"}}, {"type": "node", "id": 5663164922, "lat": 46.0665391, "lon": 11.2300105, "tags": {"addr:city": "Pergine", "addr:country": "IT", "addr:housenumber": "11", "addr:postcode": "38057", "addr:street": "Via Amstetten", "amenity": "bar", "name": "Kairos Bar Family Cafe", "operator": "Soste S.R.L.", "ref:vatin": "IT02342240229"}}, {"type": "node", "id": 5737692417, "lat": 46.3518255, "lon": 10.9126037}, {"type": "node", "id": 5737692418, "lat": 46.3519147, "lon": 10.9124032}, {"type": "node", "id": 5737692419, "lat": 46.351818, "lon": 10.9123017}, {"type": "node", "id": 5737692420, "lat": 46.3517144, "lon": 10.9124709}, {"type": "node", "id": 6063577655, "lat": 46.2098688, "lon": 11.0943874, "tags": {"addr:city": "Mezzolombardo", "addr:country": "IT", "addr:housenumber": "66", "addr:postcode": "38017", "addr:street": "Via Alcide De Gasperi", "amenity": "bar", "contact:phone": "+39 0461 605121", "name": "Le Rodelle", "ref:vatin": "IT02392110223"}}, {"type": "node", "id": 6184192617, "lat": 46.3734171, "lon": 11.0691762, "tags": {"amenity": "bar", "name": "Bar Marinelli"}}, {"type": "node", "id": 6184192636, "lat": 46.374595, "lon": 11.0696751, "tags": {"amenity": "bar", "name": "Bar Dalpiaz"}}, {"type": "node", "id": 6256517065, "lat": 46.3490674, "lon": 11.0893958}, {"type": "node", "id": 6416443656, "lat": 46.3309115, "lon": 11.2958446, "tags": {"amenity": "bar", "name": "Bar J\u00e4gerheim"}}, {"type": "node", "id": 6504163350, "lat": 46.1801365, "lon": 11.0705653, "tags": {"addr:city": "Fai della Paganella", "addr:housenumber": "14", "addr:postcode": "38010", "addr:street": "Via Damiano Chiesa", "amenity": "bar", "brewery": "yes", "internet_access": "wlan", "name": "Moby Dick", "outdoor_seating": "yes", "service_times": "Di-Su 17:00-02:00"}}, {"type": "node", "id": 6537210746, "lat": 46.0785053, "lon": 11.0002033, "tags": {"addr:housenumber": "5", "addr:street": "Piazza San Valentino", "amenity": "bar", "changing_table": "no", "entrance": "yes", "indoor_seating": "yes", "level": "0", "name": "Bar alla Posta", "outdoor_seating": "yes", "toilets": "yes", "toilets:access": "customers", "wheelchair": "yes"}}, {"type": "node", "id": 6537210749, "lat": 46.0784732, "lon": 10.9998646, "tags": {"addr:city": "Vezzano", "addr:housenumber": "10", "addr:postcode": "38070", "addr:street": "Via Roma", "amenity": "bar", "entrance": "yes", "indoor_seating": "yes", "name": "Franz Stube", "opening_hours": "Tu-Sa 18:00-01:00", "outdoor_seating": "no", "toilets": "yes", "toilets:access": "customers", "wheelchair": "no"}}, {"type": "node", "id": 6537223822, "lat": 46.3492673, "lon": 11.0891094}, {"type": "node", "id": 6537223823, "lat": 46.3491942, "lon": 11.0889472}, {"type": "node", "id": 6537223824, "lat": 46.349134, "lon": 11.0894621}, {"type": "node", "id": 6537223825, "lat": 46.3491821, "lon": 11.0893683}, {"type": "node", "id": 6537223826, "lat": 46.3492071, "lon": 11.089265}, {"type": "node", "id": 6537223827, "lat": 46.3491868, "lon": 11.0892476}, {"type": "node", "id": 6537223828, "lat": 46.3492118, "lon": 11.0891966}, {"type": "node", "id": 6537223829, "lat": 46.3491099, "lon": 11.0890598}, {"type": "node", "id": 6537223830, "lat": 46.3490859, "lon": 11.089092}, {"type": "node", "id": 6537223831, "lat": 46.3490535, "lon": 11.0890437}, {"type": "node", "id": 6537223832, "lat": 46.348985, "lon": 11.0891416}, {"type": "node", "id": 6537224159, "lat": 46.2942566, "lon": 11.0750583, "tags": {"amenity": "pub", "name": "Old Arthur's Pub"}}, {"type": "node", "id": 6537224165, "lat": 46.2944253, "lon": 11.0743958, "tags": {"amenity": "bar", "name": "Orange Bar"}}, {"type": "node", "id": 6588442179, "lat": 46.106692, "lon": 11.1112411, "tags": {"amenity": "bar", "name": "Bar Milena"}}, {"type": "node", "id": 6681130020, "lat": 46.0904441, "lon": 11.1169456, "tags": {"addr:city": "Trento", "addr:country": "IT", "addr:housename": "Top Center", "addr:housenumber": "320", "addr:postcode": "31821", "addr:street": "Via del Brennero", "amenity": "bar", "contact:phone": "+39 0461 820516", "level": "1", "name": "Pappami SRL", "opening_hours": "Mo-Th 08:00-18:30; Fr 08:00-19:00; Sa 08:00-19:30", "ref:vatin": "IT02398130225"}}, {"type": "node", "id": 6696441379, "lat": 46.0979915, "lon": 11.0445264, "tags": {"amenity": "bar", "indoor_seating": "yes", "name": "Bar Paganella", "outdoor_seating": "yes"}}, {"type": "node", "id": 7743056907, "lat": 46.03282, "lon": 11.2472959, "tags": {"amenity": "bar", "name": "Bar Albergo Concordia"}}, {"type": "node", "id": 7829919059, "lat": 46.3673271, "lon": 11.0335428, "tags": {"addr:city": "Cles", "addr:postcode": "38023", "addr:street": "Via Quattro Novembre", "amenity": "bar", "name": "Incontro", "operator": "Vieriu Rozalia", "ref:vatin": "IT02189560226"}}, {"type": "node", "id": 7937539737, "lat": 46.3433383, "lon": 11.0270666, "tags": {"amenity": "bar", "name": "Sport Art Caff\u00e8"}}, {"type": "node", "id": 8602677687, "lat": 46.0670243, "lon": 10.9130172, "tags": {"amenity": "bar", "name": "Bar Torcel", "opening_hours": "PH,Tu-Su 08:00-22:00"}}, {"type": "node", "id": 8669878788, "lat": 46.2583597, "lon": 11.0333124, "tags": {"amenity": "bar", "name": "Bar St\u00e8"}}, {"type": "node", "id": 8677669869, "lat": 46.3362513, "lon": 11.0511857, "tags": {"addr:housenumber": "29", "addr:street": "Via San Vigilio", "amenity": "bar", "name": "Alimentari Benvenuti"}}, {"type": "node", "id": 8892468538, "lat": 46.3440532, "lon": 11.2445243, "tags": {"addr:city": "Tramin an der Weinstra\u00dfe - Termeno sulla Strada del Vino", "addr:housenumber": "53", "addr:postcode": "39040", "addr:street": "Hans-Feur-Stra\u00dfe - Via Hans Feur", "amenity": "bar", "bar": "yes", "cuisine": "regional", "name": "Urbankeller", "phone": "+39 0471 860 330"}}, {"type": "node", "id": 8900412079, "lat": 46.1568788, "lon": 11.1529181, "tags": {"addr:city": "Verla di Giovo", "addr:postcode": "38030", "addr:street": "Via Principe Umberto", "amenity": "bar", "brewery": "various", "internet_access": "wlan", "min_age": "0", "name": "Bar Centro \"La Bianca\"", "wheelchair": "yes"}}, {"type": "node", "id": 9048393610, "lat": 46.3377573, "lon": 10.8953865, "tags": {"amenity": "bar"}}, {"type": "node", "id": 9107715539, "lat": 46.0366415, "lon": 11.1303117}, {"type": "node", "id": 9294278767, "lat": 46.0684908, "lon": 11.1263747, "tags": {"addr:city": "Trento", "addr:country": "IT", "addr:housenumber": "9", "addr:postcode": "31822", "addr:street": "Vicolo Santa Maria Maddalena", "amenity": "bar", "contact:facebook": "lascalettaosteria", "contact:instagram": "osteriascaletta", "name": "Osteria La Scaletta", "opening_hours": "Tu-Sa 10:00-14:00,17:00-24:00, Mo 17:00-24:00"}}, {"type": "node", "id": 9431174990, "lat": 46.0615125, "lon": 11.1150921, "tags": {"addr:city": "Trento", "addr:country": "IT", "addr:housenumber": "26", "addr:postcode": "31822", "addr:street": "Viale Adriano Olivetti", "amenity": "pub", "bar": "yes", "cafe": "yes", "contact:instagram": "urbancoffeelab", "internet_access": "yes", "internet_access:fee": "no", "name": "Urban Coffee Lab", "opening_hours": "Mo-Fr 07:30-22:00; Sa,Su 09:30-22:00", "operator": "Urban - Te S.R.L.", "outdoor_seating": "yes", "ref:vatin": "IT02516580228", "wheelchair": "yes"}}, {"type": "node", "id": 9846542726, "lat": 46.2446058, "lon": 11.2127117}, {"type": "node", "id": 9847908600, "lat": 46.379289, "lon": 11.1066021, "tags": {"amenity": "bar", "name": "Bar da Bepi"}}, {"type": "node", "id": 9858710771, "lat": 46.0383826, "lon": 11.1070999, "tags": {"amenity": "bar", "check_date": "2023-11-18", "name": "Sun7", "opening_hours": "07:00-00:00", "outdoor_seating": "yes"}}, {"type": "node", "id": 9922795051, "lat": 46.1498022, "lon": 11.2759489, "tags": {"amenity": "bar"}}, {"type": "node", "id": 9958650919, "lat": 46.1281363, "lon": 11.0603079, "tags": {"addr:street": "Strada dei Laghi di Lamar", "amenity": "bar", "name": "Bar Malghet"}}, {"type": "node", "id": 10010956613, "lat": 46.1387882, "lon": 10.9615221, "tags": {"amenity": "bar", "name": "Bar La Playa"}}, {"type": "node", "id": 10275408050, "lat": 46.1609661, "lon": 11.0059762, "tags": {"amenity": "bar", "name": "Bar le Rindole"}}, {"type": "node", "id": 10713172852, "lat": 46.0698849, "lon": 11.11969, "tags": {"addr:city": "Trento", "addr:country": "IT", "addr:housenumber": "24", "addr:postcode": "31822", "addr:street": "Via Andrea Pozzo", "amenity": "bar", "name": "Caff\u00e8 al Portico"}}, {"type": "node", "id": 10754672191, "lat": 46.0676397, "lon": 11.1243875, "tags": {"addr:city": "Trento", "addr:country": "IT", "addr:housenumber": "4", "addr:postcode": "31822", "addr:street": "Vicolo delle Rogge", "amenity": "bar", "name": "Dai putei"}}, {"type": "node", "id": 10773693558, "lat": 46.1253903, "lon": 11.2237298, "tags": {"addr:city": "Baselga di Pin\u00e8", "addr:country": "IT", "addr:housenumber": "24", "addr:place": "Frazione San Mauro", "addr:postcode": "38042", "addr:province": "TN", "entrance": "yes"}}, {"type": "node", "id": 10976687793, "lat": 46.3542119, "lon": 11.0621358, "tags": {"amenity": "bar", "check_date": "2023-06-14", "name": "Le Plaze", "website": "https://leplaze.it"}}, {"type": "node", "id": 10983124905, "lat": 46.1420501, "lon": 10.9668935, "tags": {"addr:housenumber": "1A", "addr:street": "Piazza San Carlo", "amenity": "bar", "level": "0", "name": "Caf\u00e9 Ideal Bar Gelateria", "outdoor_seating": "yes"}}, {"type": "node", "id": 11001797626, "lat": 46.0862693, "lon": 11.1192781}, {"type": "node", "id": 11091827176, "lat": 46.1032897, "lon": 11.2110851, "tags": {"addr:city": "Pergine Valsugana", "addr:postcode": "38057", "addr:street": "Via Pinetana", "amenity": "bar", "name": "Bar Commercio"}}, {"type": "node", "id": 11331919014, "lat": 46.1421724, "lon": 10.9666173, "tags": {"addr:city": "Molveno", "addr:housenumber": "19", "addr:place": "Piazza San Carlo", "addr:postcode": "38018", "amenity": "bar", "name": "Bar Sport"}}, {"type": "node", "id": 11373405592, "lat": 46.3477971, "lon": 11.2989275, "tags": {"addr:city": "Auer - Ora", "addr:housenumber": "35", "addr:postcode": "39040", "addr:street": "Hauptplatz - Piazza Principale", "amenity": "bar", "name": "Cristal", "outdoor_seating": "yes"}}, {"type": "node", "id": 11524961081, "lat": 46.0620429, "lon": 11.1518579}, {"type": "node", "id": 11524961082, "lat": 46.0620208, "lon": 11.15186}, {"type": "node", "id": 11524961083, "lat": 46.0620241, "lon": 11.1519065}, {"type": "node", "id": 11524961084, "lat": 46.062048, "lon": 11.1519013}, {"type": "node", "id": 11646496446, "lat": 46.1413813, "lon": 11.0146337}, {"type": "node", "id": 11646496447, "lat": 46.1411422, "lon": 11.014911}, {"type": "node", "id": 11646496448, "lat": 46.141313, "lon": 11.0145413}, {"type": "node", "id": 11663050302, "lat": 46.0608834, "lon": 11.2375053, "tags": {"amenity": "bar", "name": "Caff\u00e8 Gavazzi"}}, {"type": "node", "id": 11919926786, "lat": 46.1613864, "lon": 11.0079607}, {"type": "node", "id": 11919926787, "lat": 46.1613721, "lon": 11.0079749}, {"type": "node", "id": 11919926788, "lat": 46.1614286, "lon": 11.0080924}, {"type": "node", "id": 11919926789, "lat": 46.1613436, "lon": 11.0081776}, {"type": "node", "id": 11919926790, "lat": 46.1612864, "lon": 11.0080587}, {"type": "node", "id": 11919926791, "lat": 46.1613001, "lon": 11.008045}, {"type": "node", "id": 11919926792, "lat": 46.1612445, "lon": 11.0079293}, {"type": "node", "id": 11919926793, "lat": 46.1613301, "lon": 11.0078436}, {"type": "node", "id": 11937216580, "lat": 46.289798, "lon": 11.0935876}, {"type": "node", "id": 12022526997, "lat": 46.0680284, "lon": 11.1235117, "tags": {"amenity": "bar", "name": "La bella vita"}}, {"type": "node", "id": 12022555208, "lat": 46.0657531, "lon": 11.1211963, "tags": {"amenity": "pub"}}, {"type": "node", "id": 12067801373, "lat": 46.0599041, "lon": 10.9808557}, {"type": "node", "id": 12067801374, "lat": 46.0598557, "lon": 10.980861}, {"type": "node", "id": 12067801375, "lat": 46.0598632, "lon": 10.981}, {"type": "node", "id": 12067801376, "lat": 46.0599115, "lon": 10.9809947}, {"type": "node", "id": 12071368969, "lat": 46.0695358, "lon": 11.1250346, "tags": {"addr:street": "Piazzetta Bruno Lunelli", "amenity": "bar", "name": "Le Petit Jardin", "opening_hours": "Mo-Sa 09:00-22:00", "phone": "+393273392268"}}, {"type": "node", "id": 12506586517, "lat": 46.026567, "lon": 11.3794615, "tags": {"addr:city": "Novaledo", "addr:housenumber": "18", "addr:postcode": "38050", "addr:street": "Via Prima Paludi", "amenity": "bar", "name": "Lago Stefy"}}, {"type": "node", "id": 12786431696, "lat": 46.3529016, "lon": 10.9125015, "tags": {"addr:city": "Mal\u00e9", "addr:postcode": "38027", "addr:street": "Via Trento", "amenity": "bar", "brewery": "pusterthaler;guinness", "name": "Vecchia Posta", "opening_hours": "thu-tue 10:00 1:00", "outdoor_seating": "yes", "wheelchair": "yes"}}, {"type": "node", "id": 12877305266, "lat": 46.0532218, "lon": 11.1283394, "tags": {"addr:city": "Trento", "addr:country": "IT", "addr:housenumber": "2/7", "addr:postcode": "38123", "addr:street": "Via Antonio Gramsci", "amenity": "bar", "name": "Bar 998", "opening_hours": "Mo-Sa 07:00-23:30; Su 08:00-23:00"}}, {"type": "node", "id": 13042975613, "lat": 46.0768349, "lon": 10.9956974, "tags": {"addr:city": "Vezzano", "amenity": "bar", "brewery": "rhetia", "indoor_seating": "no", "name": "Rethia Taproom", "outdoor_seating": "yes", "payment:cards": "yes", "payment:cash": "yes", "payment:qr_code": "no", "toilets": "yes", "toilets:access": "customers", "toilets:fee": "no", "website": "https://www.birrificiorethia.it/"}}, {"type": "node", "id": 13047839658, "lat": 46.0784496, "lon": 10.9998793, "tags": {"amenity": "pub", "indoor_seating": "yes", "name": "Franz Stube", "outdoor_seating": "no"}}, {"type": "node", "id": 13297239280, "lat": 46.0663936, "lon": 11.1230479, "tags": {"addr:city": "Trento", "addr:country": "IT", "addr:housenumber": "11", "addr:postcode": "31822", "addr:street": "Via Santissima Trinit\u00e1", "amenity": "bar", "check_date": "2025-11-28", "contact:instagram": "https://www.instagram.com/ruf_trento", "diet:gluten_free": "only", "diet:vegetarian": "yes", "food": "yes", "indoor_seating": "yes", "name": "RUF - Cocktail Bar", "opening_hours": "Mo-Sa 16:00-24:00", "outdoor_seating": "parklet", "phone": "+39 328 264 6034", "toilets": "yes", "website": "https://drinkinruf.it", "wheelchair": "yes"}}, {"type": "node", "id": 13341148023, "lat": 46.0684068, "lon": 11.1214182, "tags": {"addr:country": "IT", "addr:housenumber": "33", "addr:postcode": "31822", "addr:street": "Via Rodolfo Belenzani", "amenity": "bar", "check_date": "2025-11-29", "name": "Dolce Vita", "opening_hours": "08:00-02:00"}}, {"type": "node", "id": 13347931153, "lat": 46.2129901, "lon": 11.0895586, "tags": {"addr:city": "Mezzolombardo", "addr:housenumber": "4", "addr:postcode": "38017", "addr:street": "Corso del Popolo", "amenity": "pub", "name": "Bistrot Al Corso"}}, {"type": "node", "id": 13418447750, "lat": 46.3129062, "lon": 11.2714479, "tags": {"addr:city": "Neumarkt - Egna", "addr:housenumber": "32", "addr:postcode": "39044", "addr:street": "Laubengasse - Via Portici", "amenity": "pub", "brewery:alcohol_free": "Krombacher", "brewery:blond": "St. Stefanus", "brewery:dunkel": "Batzen Br\u00e4u", "brewery:lager": "Batzen Br\u00e4u", "brewery:landbier": "Grevensteiner", "brewery:pale_ale": "Sierra Nevada", "brewery:pils": "Pilsner Urquell", "brewery:weizen": "Maxlrain", "cocktails": "yes", "cuisine": "bistro", "drink:beer": "yes", "drink:coffee": "yes", "drink:espresso": "yes", "drink:wine": "yes", "email": "portikus.bistro@gmail.com", "food": "yes", "name": "Bistro Portikus", "opening_hours": "Mo-Th 07:00-23:00; Fr, Sa 07:00-24:00", "phone": "+39 0471 813684", "smoking": "outside"}}, {"type": "node", "id": 13518898490, "lat": 46.068999, "lon": 11.1190621, "tags": {"addr:city": "Trento", "addr:country": "IT", "addr:housenumber": "34", "addr:postcode": "31822", "addr:street": "Via San Giovanni", "amenity": "bar", "check_date": "2025-11-28", "name": "Celine Bar"}}, {"type": "way", "id": 37777877, "nodes": [443141173, 1271926235, 1271926252, 443141174, 1271926307, 443141175, 9107715539, 443141176, 1271926290, 443141173], "tags": {"addr:city": "Trento", "addr:country": "IT", "addr:housenumber": "108", "addr:postcode": "38123", "addr:street": "Via di Madonna Bianca", "amenity": "bar", "building": "yes", "name": "Bar Groff", "opening_hours": "05:30-20:30", "operator": "Trentini Roberta", "ref:vatin": "IT01622970224"}}, {"type": "way", "id": 71331801, "nodes": [848834881, 848834817, 848834914, 848834632, 848834881], "tags": {"amenity": "bar", "building": "yes", "indoor_seating": "yes", "name": "Castel Toblino", "outdoor_seating": "yes"}}, {"type": "way", "id": 71390251, "nodes": [849474367, 849474370, 849474371, 849474365, 849474366, 849474368, 849474369, 849474372, 849474367], "tags": {"addr:city": "Ton", "addr:country": "IT", "addr:housenumber": "1", "addr:postcode": "38010", "addr:street": "Localit\u00e0 Rocchetta", "amenity": "pub", "building": "yes", "contact:facebook": "https://www.facebook.com/larocchetta2019", "contact:phone": "+39 0461 600956", "name": "La Rocchetta 2019", "operator": "Tecnohotel S.A.S.", "ref:vatin": "IT00646480228"}}, {"type": "way", "id": 96657504, "nodes": [1119503471, 1119503520, 1119504394, 1119504019, 1119503638, 1119504488, 1119504104, 1119504117, 1119503733, 1119504577, 1119504198, 1119503826, 1119503431, 1119503471], "tags": {"amenity": "bar", "building": "yes", "contact:facebook": "https://www.facebook.com/RupeDiscoClub", "contact:instagram": "rupe.disco.club", "email": "rupebar@yahoo.it", "loc_name": "Tondo", "name": "Rupe Disco Club", "phone": "+39 0461 605 285"}}, {"type": "way", "id": 99355561, "nodes": [1149212100, 1149210854, 1149209898, 1149211879, 1149212100], "tags": {"addr:city": "Mezzocorona", "addr:country": "IT", "addr:postcode": "38016", "amenity": "bar", "building": "yes", "contact:facebook": "https://www.facebook.com/hopscafe/", "contact:phone": "+39 0461 600870", "name": "HOP\u2019s Caf\u00e8"}}, {"type": "way", "id": 112398451, "nodes": [1277581566, 1277581950, 1277580918, 1277581337, 1277581566], "tags": {"amenity": "bar", "building": "yes", "name": "Chalet al Lago"}}, {"type": "way", "id": 112682632, "nodes": [1280282472, 11937216580, 1280282367, 1280282548, 1280282472], "tags": {"amenity": "bar", "building": "yes", "name": "Bar Lizzi", "opening_hours": "Tu-Sa 08:00-13:30,17:00-20:00; Su 08:00-13:00", "smoking": "outside", "wheelchair": "yes"}}, {"type": "way", "id": 116029569, "nodes": [1309442301, 1309442345, 11001797626, 1309442292, 1309442315, 1309442258, 1309442301], "tags": {"amenity": "bar", "building": "yes", "contact:phone": "+39 0461 1823397", "name": "Terrazza Tridente", "opening_hours": "Mo-Fr 07:00-19:00; Sa 00:00-00:00", "operator": "Santellina SNC di Lopez & C.", "outdoor_seating": "yes", "ref:vatin": "IT01841040221"}}, {"type": "way", "id": 117017149, "nodes": [1317984363, 1317984356, 1317984287, 1317984316, 1317996541, 1317996542, 9846542726, 1317984313, 1317984363], "tags": {"addr:city": "Salorno - Salurn", "addr:city:de": "Salurn", "addr:city:it": "Salorno", "addr:housenumber": "20", "addr:postcode": "39040", "addr:street": "Via Nazionale - Staatsstra\u00dfe", "addr:street:de": "Staatsstra\u00dfe", "addr:street:it": "Via Nazionale", "amenity": "pub", "building": "yes", "designation": "Comfort Hotel Erika - Carter House", "name": "Carter House"}}, {"type": "way", "id": 120227125, "nodes": [1348508640, 1348509039, 1348508811, 1348509261, 1348508640], "tags": {"addr:postcode": "38057", "amenity": "bar", "building": "public", "internet_access": "no", "internet_access:fee": "no", "name": "Bar Gretter", "opening_hours": "Mo-Sa 05:00-20:00", "phone": "+39 0461 531335", "smoking": "yes", "wheelchair": "yes"}}, {"type": "way", "id": 121266258, "nodes": [1358048266, 1358048267, 1358048262, 1358048261, 1358048266], "tags": {"addr:city": "Neumarkt - Egna", "addr:city:de": "Neumarkt", "addr:city:it": "Egna", "addr:hamlet": "Laag - Laghetti", "addr:hamlet:de": "Laag", "addr:hamlet:it": "Laghetti", "addr:housenumber": "9", "addr:postcode": "39044", "addr:street": "Reichstra\u00dfe - Via Nazionale", "addr:street:de": "Reichstra\u00dfe", "addr:street:it": "Via Nazionale", "amenity": "pub", "building": "yes", "name": "Jacky Pub", "website": "https://www.facebook.com/JACKY-Pub-Ristorante-1625139847738855/"}}, {"type": "way", "id": 160098056, "nodes": [1721724910, 1721724912, 1721724907, 1721724906, 1721724910], "tags": {"amenity": "bar", "building": "yes", "name": "La Toresela", "wikidata": "Q56779600"}}, {"type": "way", "id": 165116721, "nodes": [1766951961, 1766951964, 1766951962, 1766951957, 1766951961], "tags": {"addr:city": "Coredo", "addr:country": "IT", "addr:housenumber": "4", "addr:postcode": "38010", "addr:street": "Via La Torre", "amenity": "pub", "building": "yes", "name": "Chalet", "operator": "Luvara Sandro", "ref:vatin": "IT02240700225"}}, {"type": "way", "id": 219691201, "nodes": [2288304900, 2288304902, 2288304898, 2288304897, 2288304900], "tags": {"amenity": "bar", "building": "yes", "indoor_seating": "yes", "name": "Bar Pasticceria C&G", "outdoor_seating": "yes", "toilets": "yes", "wheelchair": "yes"}}, {"type": "way", "id": 228651871, "nodes": [2373083898, 2373083888, 2373083893, 2373083905, 2373083898], "tags": {"addr:city": "Mal\u00e9", "addr:postcode": "38027", "addr:street": "Localit\u00e0 Molini", "amenity": "bar", "brewery": "poretti;vin_brul\u00e8", "building": "yes", "name": "Bar del Pattinaggio", "smoking": "outside"}}, {"type": "way", "id": 229220957, "nodes": [2378421977, 2378422031, 2378422021, 2378422018, 2378421977], "tags": {"amenity": "bar", "building": "yes"}}, {"type": "way", "id": 261828601, "nodes": [2674524946, 2674524947, 2674524948, 2674524949, 2674524946], "tags": {"addr:city": "Baselga di Pin\u00e9", "addr:housenumber": "158", "addr:postcode": "38042", "addr:street": "Localit\u00e0 Campolongo", "amenity": "bar", "building": "yes", "name": "Bar alla Spiaggia", "operator": "Dallapiccola Andrea", "ref:vatin": "IT01403810227", "smoking": "outside", "website": "http://barallaspiaggia.com", "wheelchair": "yes"}}, {"type": "way", "id": 266724425, "nodes": [2722416011, 2722416010, 2722416007, 2722416008, 2722416011], "tags": {"addr:housenumber": "9", "addr:postcode": "38072", "addr:street": "Via Coste del Lago", "amenity": "bar", "building": "yes", "name": "Clandestino", "phone": "+39 339 4045240"}}, {"type": "way", "id": 275606673, "nodes": [2802428482, 2802428491, 2802428487, 2802428479, 2802428482], "tags": {"amenity": "bar", "building": "yes", "name": "Bar Tennis"}}, {"type": "way", "id": 374365314, "nodes": [3777422413, 3777422405, 3777422409, 3777422416, 3777422413], "tags": {"amenity": "bar", "building": "yes"}}, {"type": "way", "id": 434469211, "nodes": [4325620251, 4325620252, 4325620255, 4325620254, 10773693558, 4325620251], "tags": {"amenity": "bar", "building": "yes", "name": "Bar San Mauro"}}, {"type": "way", "id": 604763875, "nodes": [5737692418, 5737692419, 5737692420, 5737692417, 5737692418], "tags": {"addr:city": "Mal\u00e9", "addr:postcode": "38027", "addr:street": "Piazza Dante", "amenity": "bar", "brewery": "various", "building": "drinks", "building:levels": "1", "indoor_seating": "yes", "name": "Caff\u00e8 de Orz", "outdoor_seating": "yes", "roof:levels": "1", "roof:shape": "flat"}}, {"type": "way", "id": 1181716753, "nodes": [3105498292, 6537223832, 6537223831, 6537223830, 6537223829, 6537223823, 6537223822, 6537223828, 6537223827, 6537223826, 6537223825, 6537223824, 6256517065, 3105498295, 3105498296, 3105498297, 3105498292], "tags": {"amenity": "bar", "building": "yes", "indoor_seating": "yes", "name": "Bar Centrale", "outdoor_seating": "yes", "smoking": "outside"}}, {"type": "way", "id": 1240467725, "nodes": [11524961081, 11524961082, 11524961083, 11524961084, 11524961081], "tags": {"amenity": "bar", "building": "yes", "name": "Bar al sal\u00e8", "opening_hours": "Mo-Sa 06:00-20:00"}}, {"type": "way", "id": 1252972983, "nodes": [11646496446, 1051108032, 1051108034, 11646496447, 11646496448, 11646496446], "tags": {"amenity": "bar", "building": "yes"}}, {"type": "way", "id": 1284883907, "nodes": [11919926793, 11919926792, 11919926791, 11919926790, 11919926789, 11919926788, 11919926787, 11919926786, 11919926793], "tags": {"amenity": "bar", "building": "yes", "name": "Snow Bar"}}, {"type": "way", "id": 1303042581, "nodes": [12067801373, 12067801374, 12067801375, 12067801376, 12067801373], "tags": {"addr:city": "Vallelaghi", "addr:housenumber": "170/1", "addr:postcode": "38096", "addr:street": "Via Nazionale", "amenity": "bar", "building": "yes", "name": "chiosco/bar"}}]}