{"version": 0.6, "generator": "Overpass API 0.7.62.10 2d4cfc48", "osm3s": {"timestamp_osm_base": "2026-02-08T12:32:00Z", "copyright": "The data included in this document is from www.openstreetmap.org. The data is made available under ODbL."}, "elements": [{"type": "node", "id": 267130151, "lat": 46.4188457, "lon": 11.2514862, "tags": {"bench": "yes", "bin": "yes", "bus": "yes", "highway": "bus_stop", "name": "Kaltern, Bahnhof - Caldaro, Stazione", "name:de": "Kaltern, Bahnhof", "name:it": "Caldaro, Stazione", "public_transport": "platform", "ref:IFOPT": "it:22021:760:0:9425", "shelter": "yes"}}, {"type": "node", "id": 290011970, "lat": 46.683241, "lon": 11.0750589, "tags": {"bench": "yes", "bin": "yes", "bus": "yes", "highway": "bus_stop", "lit": "yes", "name": "Partschins, Busbahnhof - Parcines, Autostazione", "name:de": "Partschins, Busbahnhof", "name:it": "Parcines, Autostazione", "network": "Verkehrsverbund S\u00fcdtirol", "operator": "SASA;SiMobil GmbH", "passenger_information_display": "yes", "public_transport": "platform", "route_ref": "213;265;268", "shelter": "yes", "tactile_paving": "no", "wheelchair": "no"}}, {"type": "node", "id": 332741778, "lat": 46.4607066, "lon": 11.2865787, "tags": {"highway": "bus_stop", "name": "Jesuheim - Casa di Ges\u00f9", "name:de": "Jesuheim", "name:it": "Casa di Ges\u00f9", "operator": "SAD", "public_transport": "platform", "route_ref": "135.1", "shelter": "no", "source": "EppanOGD"}}, {"type": "node", "id": 386584194, "lat": 46.4532625, "lon": 11.269531, "tags": {"bench": "yes", "bin": "yes", "bus": "yes", "departures_board": "realtime", "highway": "bus_stop", "lit": "yes", "name": "Eppan, Bahnhof - Appiano, Stazione", "name:de": "Eppan, Bahnhof", "name:it": "Appiano, Stazione", "operator": "SAD", "passenger_information_display": "yes", "public_transport": "platform", "route_ref": "131;132;135.1;135.2;135.3;136;137;139", "shelter": "yes", "source": "EppanOGD", "tactile_paving": "yes", "wheelchair": "yes"}}, {"type": "node", "id": 418833529, "lat": 46.686204, "lon": 11.1585945, "tags": {"bench": "yes", "highway": "bus_stop", "name": "Dorf Tirol, Minigolf - Tirolo, Minigolf", "name:de": "Dorf Tirol, Minigolf", "name:it": "Tirolo, Minigolf", "network": "TVS", "operator": "STA", "public_transport": "platform", "shelter": "no"}}, {"type": "node", "id": 418833531, "lat": 46.6873639, "lon": 11.1569817, "tags": {"bench": "yes", "bin": "no", "highway": "bus_stop", "lit": "yes", "name": "Dorf Tirol, Tankstelle - Tirolo, Distributore", "name:de": "Dorf Tirol, Tankstelle", "name:it": "Tirolo, Distributore", "network": "TVS", "operator": "STA", "public_transport": "platform", "shelter": "no", "tactile_paving": "no"}}, {"type": "node", "id": 418833533, "lat": 46.6830822, "lon": 11.1613539, "tags": {"bench": "yes", "bin": "no", "highway": "bus_stop", "lit": "yes", "name": "Dorf Tirol, Schwimmbad - Tirolo, Lido", "name:de": "Dorf Tirol, Schwimmbad", "name:it": "Tirolo, Lido", "network": "TVS", "operator": "STA", "public_transport": "platform", "shelter": "no", "tactile_paving": "no"}}, {"type": "node", "id": 420891495, "lat": 46.6915465, "lon": 11.1543756, "tags": {"bench": "no", "highway": "bus_stop", "name": "Schulen - Scuole", "name:de": "Schulen", "name:it": "Scuole", "network": "TVS", "operator": "SASA", "public_transport": "platform", "shelter": "no"}}, {"type": "node", "id": 420891498, "lat": 46.6916275, "lon": 11.1546971, "tags": {"bench": "yes", "bin": "yes", "highway": "bus_stop", "lit": "yes", "name": "Schulen - Scuole", "name:de": "Schulen", "name:it": "Scuole", "network": "TVS", "operator": "SASA", "public_transport": "platform", "shelter": "no", "tactile_paving": "no"}}, {"type": "node", "id": 441770282, "lat": 46.4854923, "lon": 11.3000387, "tags": {"bus": "yes", "departures_board": "timetable", "highway": "bus_stop", "name": "Ponte Adige - Sigmundskron", "name:de": "Sigmundskron", "name:it": "Ponte Adige", "network": "TVS", "operator": "SASA;SAD", "public_transport": "platform", "route_ref": "132;136", "shelter": "no"}}, {"type": "node", "id": 443139063, "lat": 46.647919, "lon": 10.9793457, "tags": {"bench": "yes", "bin": "no", "highway": "bus_stop", "name": "Naturns, Abzweigung Schnalstal - Naturno, Bivio Val Senales", "name:de": "Naturns, Abzweigung Schnalstal", "name:it": "Naturno, Bivio Val Senales", "network": "TVS", "public_transport": "platform", "route_ref": "251;261;266", "shelter": "yes"}}, {"type": "node", "id": 443144481, "lat": 46.6845858, "lon": 10.9325714, "tags": {"bench": "no", "bin": "no", "bus": "yes", "highway": "bus_stop", "lit": "no", "name": "Schnals, Neuratheis - Senales, Ratiso Nuovo", "name:de": "Schnals, Neuratheis", "name:it": "Senales, Ratiso Nuovo", "network": "TVS", "public_transport": "platform", "route_ref": "261", "shelter": "no", "tactile_paving": "no"}}, {"type": "node", "id": 443144483, "lat": 46.6944122, "lon": 10.9272092, "tags": {"bench": "no", "bin": "no", "bus": "yes", "highway": "bus_stop", "lit": "no", "name": "Schnals, Nischler Sand - Senales, Nischler Sand", "name:de": "Schnals, Nischler Sand", "name:it": "Senales, Nischler Sand", "network": "TVS", "public_transport": "platform", "route_ref": "261", "shelter": "no", "tactile_paving": "no"}}, {"type": "node", "id": 443144485, "lat": 46.7051249, "lon": 10.9092334, "tags": {"bench": "no", "bus": "yes", "direction": "both", "highway": "bus_stop", "name": "Karthaus - Certosa", "name:de": "Karthaus", "name:it": "Certosa", "network": "TVS", "public_transport": "platform", "route_ref": "261", "shelter": "no"}}, {"type": "node", "id": 443422854, "lat": 46.6501519, "lon": 10.9918427, "tags": {"bench": "yes", "bus": "yes", "highway": "bus_stop", "name": "Naturns, Seilbahn Unterstell - Naturno, Funivia Unterstell", "name:de": "Naturns, Seilbahn Unterstell", "name:it": "Naturno, Funivia Unterstell", "network": "TVS", "public_transport": "platform", "route_ref": "251;261;266", "shelter": "yes"}}, {"type": "node", "id": 443424035, "lat": 46.6613589, "lon": 11.0390164, "tags": {"bench": "yes", "bin": "yes", "bus": "yes", "highway": "bus_stop", "lit": "yes", "name": "Abzweigung Plaus - Bivio Plaus", "name:de": "Abzweigung Plaus", "name:it": "Bivio Plaus", "network": "TVS", "public_transport": "platform", "route_ref": "251;261;266", "shelter": "yes", "tactile_paving": "no"}}, {"type": "node", "id": 443424037, "lat": 46.6703256, "lon": 11.0629444, "tags": {"bench": "yes", "bin": "yes", "bus": "yes", "departures_board": "timetable", "highway": "bus_stop", "name": "Rabland, Dorf - Rabl\u00e0, Paese", "name:de": "Rabland, Dorf", "name:it": "Rabl\u00e0, Paese", "network": "Verkehrsverbund S\u00fcdtirol", "operator": "SiMobil GmbH", "public_transport": "platform", "route_ref": "251;261;266", "shelter": "yes", "tactile_paving": "no"}}, {"type": "node", "id": 443424040, "lat": 46.6789218, "lon": 11.0883119, "tags": {"bench": "yes", "bin": "no", "departures_board": "timetable", "highway": "bus_stop", "name": "T\u00f6ll, Dorf - Tel, Paese", "name:de": "T\u00f6ll, Dorf", "name:it": "Tel, Paese", "network": "TVS", "operator": "STA", "public_transport": "platform", "route_ref": "213;251;261", "shelter": "yes"}}, {"type": "node", "id": 443424042, "lat": 46.6793033, "lon": 11.0645029, "tags": {"bus": "yes", "departures_board": "timetable", "highway": "bus_stop", "name": "Partschins, Texelbahn - Parcines, Funivia Texel", "name:de": "Partschins, Texelbahn", "name:it": "Parcines, Funivia Texel", "network": "Verkehrsverbund S\u00fcdtirol", "operator": "SiMobil GmbH", "public_transport": "platform", "route_ref": "266"}}, {"type": "node", "id": 443431045, "lat": 46.682707, "lon": 11.1058852, "tags": {"bench": "no", "departures_board": "timetable", "highway": "bus_stop", "name": "Mitterplars - Plars di Mezzo", "name:de": "Mitterplars", "name:en": "Mitterplars", "name:it": "Plars di Mezzo", "network": "TVS", "operator": "STA", "public_transport": "platform", "route_ref": "213;235;237", "shelter": "no", "wheelchair": "no"}}, {"type": "node", "id": 443431052, "lat": 46.6791352, "lon": 11.1268531, "tags": {"bench": "yes", "bin": "yes", "departures_board": "timetable", "highway": "bus_stop", "name": "Algund, Weingartnerstra\u00dfe - Lagundo, Via Weingartner", "name:de": "Algund, Weingartnerstra\u00dfe", "name:it": "Lagundo, Via Weingartner", "network": "TVS", "operator": "STA", "public_transport": "platform", "route_ref": "213;217;251;261", "shelter": "yes"}}, {"type": "node", "id": 443431058, "lat": 46.66365, "lon": 11.1592772, "tags": {"bench": "no", "bin": "yes", "highway": "bus_stop", "lit": "yes", "name": "Meran, Tennis - Merano, Tennis", "name:de": "Meran, Tennis", "name:it": "Merano, Tennis", "network": "TVS", "operator": "STA", "public_transport": "platform", "route_ref": "5;211;212;245;246", "shelter": "yes", "tactile_paving": "no"}}, {"type": "node", "id": 443431059, "lat": 46.6685488, "lon": 11.1590294, "tags": {"bench": "yes", "bin": "yes", "bus": "yes", "highway": "bus_stop", "lit": "no", "name": "Meran, Therme - Merano, Terme", "name:de": "Meran, Therme", "name:it": "Merano, Terme", "network": "TVS", "operator": "STA", "public_transport": "platform", "route_ref": "095;407;1A;1B;3;4;5;6;221;237;240;245;246", "shelter": "yes", "tactile_paving": "no"}}, {"type": "node", "id": 443431064, "lat": 46.6679914, "lon": 11.1661137, "tags": {"bench": "yes", "bin": "yes", "highway": "bus_stop", "lit": "yes", "name": "Meran, Plankensteinstra\u00dfe - Merano, Via Plankenstein", "name:de": "Meran, Plankensteinstra\u00dfe", "name:it": "Merano, Via Plankenstein", "network": "TVS", "operator": "STA", "public_transport": "platform", "route_ref": "221;225;231;240", "shelter": "yes", "tactile_paving": "no"}}, {"type": "node", "id": 443431066, "lat": 46.6703616, "lon": 11.169387, "tags": {"bench": "no", "highway": "bus_stop", "name": "St.-Georgen-Stra\u00dfe - Via S. Giorgio", "name:de": "St.-Georgen-Stra\u00dfe", "name:it": "Via S. Giorgio", "network": "TVS", "operator": "SASA;SAD", "public_transport": "platform", "route_ref": "221;240", "shelter": "no"}}, {"type": "node", "id": 443431075, "lat": 46.6887224, "lon": 11.1456068, "tags": {"bench": "no", "bin": "yes", "bus": "yes", "highway": "bus_stop", "name": "Tappeiner-Promenade - Passeggiata Tappeiner", "name:de": "Tappeiner-Promenade", "name:it": "Passeggiata Tappeiner", "network": "TVS", "operator": "STA", "public_transport": "platform", "shelter": "no", "wheelchair": "no"}}, {"type": "node", "id": 443431076, "lat": 46.6774456, "lon": 11.146296, "tags": {"bench": "yes", "bin": "yes", "departures_board": "timetable", "highway": "bus_stop", "name": "Meran, Lackner - Merano, Lackner", "name:de": "Meran, Lackner", "name:it": "Merano, Lackner", "network": "TVS", "operator": "STA", "public_transport": "platform", "route_ref": "213;217;235;251;261", "shelter": "no"}}, {"type": "node", "id": 443431078, "lat": 46.675935, "lon": 11.1522614, "tags": {"bench": "yes", "bin": "yes", "highway": "bus_stop", "name": "Meran, Altes Krankenhaus - Merano, Ospedale Vecchio", "name:de": "Meran, Altes Krankenhaus", "name:it": "Merano, Ospedale Vecchio", "network": "TVS", "old_name": "Meran, Krankenhaus - Merano, Ospedale", "old_name:de": "Meran, Krankenhaus", "old_name:it": "Merano, Ospedale", "operator": "STA", "public_transport": "platform", "route_ref": "210;211;213;217;221;225;240;245;246;251;261", "shelter": "no", "tactile_paving": "no"}}, {"type": "node", "id": 443431084, "lat": 46.6184963, "lon": 11.1418884, "tags": {"bench": "yes", "bin": "yes", "highway": "bus_stop", "lit": "yes", "name": "Lana, Busbahnhof - Lana, Autostazione", "name:de": "Lana, Busbahnhof", "name:it": "Lana, Autostazione", "network": "TVS", "operator": "STA", "public_transport": "platform", "route_ref": "214", "shelter": "yes", "tactile_paving": "no"}}, {"type": "node", "id": 443431089, "lat": 46.6319634, "lon": 11.1450638, "tags": {"bench": "yes", "bin": "yes", "highway": "bus_stop", "lit": "yes", "name": "Tscherms, Rathaus - Cermes, Municipio", "name:de": "Tscherms, Rathaus", "name:it": "Cermes, Municipio", "network": "TVS", "operator": "STA", "public_transport": "platform", "route_ref": "211;245;246", "shelter": "yes", "tactile_paving": "no"}}, {"type": "node", "id": 443449711, "lat": 46.6702402, "lon": 11.0619383, "tags": {"bench": "no", "bin": "no", "bus": "yes", "departures_board": "timetable", "highway": "bus_stop", "name": "Rabland, Dorf - Rabl\u00e0, Paese", "name:de": "Rabland, Dorf", "name:it": "Rabl\u00e0, Paese", "network": "Verkehrsverbund S\u00fcdtirol", "operator": "SiMobil GmbH", "public_transport": "platform", "route_ref": "251;261;266", "shelter": "no"}}, {"type": "node", "id": 443451133, "lat": 46.645582, "lon": 10.965375, "tags": {"bench": "yes", "highway": "bus_stop", "name": "Staben, Kirche - Stava, Chiesa", "name:de": "Staben, Kirche", "name:it": "Stava, Chiesa", "network": "TVS", "public_transport": "platform", "shelter": "no"}}, {"type": "node", "id": 448567079, "lat": 46.4267764, "lon": 11.3369622, "tags": {"bench": "yes", "bus": "yes", "highway": "bus_stop", "name": "Laives, Centro - Leifers, Zentrum", "name:de": "Leifers, Zentrum", "name:it": "Laives, Centro", "operator": "SASA", "public_transport": "platform", "route_ref": "110;111;112;114;120", "shelter": "yes"}}, {"type": "node", "id": 494578614, "lat": 46.543413, "lon": 11.2059417, "tags": {"bench": "yes", "bin": "yes", "bus": "yes", "highway": "bus_stop", "name": "Nals, Feuerwehr - Nalles, Vigili del Fuoco", "name:de": "Nals, Feuerwehr", "name:it": "Nalles, Vigili del Fuoco", "network": "TVS", "operator": "STA", "public_transport": "platform", "route_ref": "202;216", "shelter": "yes"}}, {"type": "node", "id": 538292893, "lat": 46.4864805, "lon": 11.3496931, "tags": {"bus": "yes", "highway": "bus_stop", "name": "Scuola Enrico Fermi - Enrico Fermi Schule", "name:de": "Enrico Fermi Schule", "name:it": "Scuola Enrico Fermi", "operator": "SASA", "public_transport": "platform", "route_ref": "7A;7B;14", "shelter": "yes"}}, {"type": "node", "id": 538308376, "lat": 46.4872422, "lon": 11.3458244, "tags": {"bus": "yes", "highway": "bus_stop", "name": "Via del Parco - Parkstra\u00dfe", "name:de": "Parkstra\u00dfe", "name:it": "Via del Parco", "operator": "SASA", "public_transport": "platform", "route_ref": "7B;10B;112", "shelter": "yes"}}, {"type": "node", "id": 538308381, "lat": 46.487538, "lon": 11.3461678, "tags": {"bus": "yes", "highway": "bus_stop", "name": "Via del Parco - Parkstra\u00dfe", "name:de": "Parkstra\u00dfe", "name:it": "Via del Parco", "operator": "SASA", "public_transport": "platform", "route_ref": "7A;10A;112", "shelter": "yes"}}, {"type": "node", "id": 538310214, "lat": 46.4858077, "lon": 11.3450417, "tags": {"bus": "yes", "highway": "bus_stop", "name": "Piazza Angela Nikoletti - Angela-Nikoletti-Platz", "name:de": "Angela-Nikoletti-Platz", "name:it": "Piazza Angela Nikoletti", "operator": "SASA", "public_transport": "platform", "route_ref": "7B;10B", "shelter": "yes"}}, {"type": "node", "id": 538310215, "lat": 46.4859394, "lon": 11.3452207, "tags": {"bus": "yes", "highway": "bus_stop", "name": "Piazza Angela Nikoletti - Angela-Nikoletti-Platz", "name:de": "Angela-Nikoletti-Platz", "name:it": "Piazza Angela Nikoletti", "operator": "SASA", "public_transport": "platform", "route_ref": "7A;10A"}}, {"type": "node", "id": 582635729, "lat": 46.5294075, "lon": 11.2492091, "tags": {"bench": "yes", "bin": "yes", "highway": "bus_stop", "lit": "yes", "name": "Terlan, Schulen - Terlano, Scuole", "name:de": "Terlan, Schulen", "name:it": "Terlano, Scuole", "network": "TVS", "operator": "STA", "public_transport": "platform", "route_ref": "201", "shelter": "yes", "tactile_paving": "no"}}, {"type": "node", "id": 590086028, "lat": 46.4232641, "lon": 11.3331016, "tags": {"bench": "yes", "bus": "yes", "check_date:shelter": "2025-03-22", "highway": "bus_stop", "name": "Laives, Posta - Leifers, Post", "name:de": "Leifers, Post", "name:it": "Laives, Posta", "operator": "SASA", "public_transport": "platform", "route_ref": "110;111;112;114;120", "shelter": "yes"}}, {"type": "node", "id": 590086142, "lat": 46.4234312, "lon": 11.3331406, "tags": {"bench": "no", "bin": "yes", "bus": "yes", "highway": "bus_stop", "name": "Laives, Posta - Leifers, Post", "name:de": "Leifers, Post", "name:it": "Laives, Posta", "operator": "SASA", "public_transport": "platform", "route_ref": "110;111;112;114;120", "shelter": "no", "tactile_paving": "no"}}, {"type": "node", "id": 595711176, "lat": 46.4059858, "lon": 11.3206607, "tags": {"bench": "no", "bin": "no", "bus": "yes", "highway": "bus_stop", "lit": "no", "name": "Via Aquila Nera - Schwarz-Adler-Stra\u00dfe", "name:de": "Schwarz-Adler-Stra\u00dfe", "name:it": "Via Aquila Nera", "network": "TVS", "operator": "SASA", "public_transport": "platform", "route_ref": "110;117", "shelter": "no", "tactile_paving": "no", "towards:de": "Branzoll", "towards:it": "Bronzolo"}}, {"type": "node", "id": 595711298, "lat": 46.4029879, "lon": 11.3186154, "tags": {"bench": "yes", "bin": "yes", "check_date:shelter": "2025-02-17", "highway": "bus_stop", "lit": "no", "name": "Bronzolo, Paese - Branzoll, Dorf", "name:de": "Branzoll, Dorf", "name:it": "Bronzolo, Paese", "operator": "SASA", "public_transport": "platform", "route_ref": "110;111", "shelter": "yes", "tactile_paving": "no"}}, {"type": "node", "id": 602491474, "lat": 46.6621122, "lon": 11.1766835, "tags": {"bench": "yes", "bin": "yes", "highway": "bus_stop", "lit": "yes", "name": "Finkweg - Via Fink", "name:de": "Finkweg", "name:it": "Via Fink", "operator": "SASA", "public_transport": "platform", "route_ref": "4", "shelter": "no", "tactile_paving": "no"}}, {"type": "node", "id": 602491476, "lat": 46.663511, "lon": 11.1745303, "tags": {"bench": "no", "bin": "no", "highway": "bus_stop", "lit": "yes", "name": "Feldweg - Via dei Campi", "name:de": "Feldweg", "name:it": "Via dei Campi", "operator": "SASA", "public_transport": "platform", "route_ref": "4", "shelter": "no", "tactile_paving": "no"}}, {"type": "node", "id": 602491479, "lat": 46.6652294, "lon": 11.1709252, "tags": {"bench": "no", "bin": "no", "bus": "yes", "highway": "bus_stop", "lit": "yes", "name": "Parinistra\u00dfe - Via Parini", "name:de": "Parinistra\u00dfe", "name:it": "Via Parini", "operator": "SASA", "public_transport": "platform", "route_ref": "4", "shelter": "no", "tactile_paving": "no"}}, {"type": "node", "id": 612790170, "lat": 46.4838764, "lon": 11.3472708, "tags": {"bus": "yes", "highway": "bus_stop", "name": "Via S. Vigilio - St.-Vigil-Stra\u00dfe", "name:de": "St.-Vigil-Stra\u00dfe", "name:it": "Via S. Vigilio", "operator": "SASA", "public_transport": "platform", "route_ref": "7A;7B;14"}}, {"type": "node", "id": 619378877, "lat": 46.4133163, "lon": 11.2435301, "tags": {"bench": "yes", "bin": "yes", "bus": "yes", "departures_board": "realtime", "highway": "bus_stop", "lit": "yes", "name": "Rottenburger Platz - Piazza Rottenburg", "name:de": "Rottenburger Platz", "name:it": "Piazza Rottenburg", "public_transport": "platform", "route_ref": "130;131;132;135.4;135.5;136", "shelter": "yes", "tactile_paving": "no", "wheelchair": "yes"}}, {"type": "node", "id": 619378878, "lat": 46.4130192, "lon": 11.2461624, "tags": {"bench": "yes", "bin": "no", "fixme": "exact position", "highway": "bus_stop", "lit": "yes", "name": "Marktplatz - Piazza Principale", "name:de": "Marktplatz", "name:it": "Piazza Principale", "public_transport": "platform", "shelter": "no", "tactile_paving": "no"}}, {"type": "node", "id": 620112685, "lat": 46.4622155, "lon": 11.2820265, "tags": {"amenity": "bicycle_parking", "highway": "bus_stop", "name": "Girlan Zentrum - Cornaiano Centro", "name:de": "Girlan Zentrum", "name:it": "Cornaiano Centro", "operator": "SAD", "public_transport": "platform", "route_ref": "132;135.1", "shelter": "yes", "source": "EppanOGD"}}, {"type": "node", "id": 630367297, "lat": 46.4032401, "lon": 11.3227928, "tags": {"bench": "yes", "bus": "yes", "highway": "bus_stop", "name": "Raif", "name:de": "Raif", "operator": "SASA", "public_transport": "platform", "route_ref": "110;120", "shelter": "no"}}, {"type": "node", "id": 630367299, "lat": 46.4007471, "lon": 11.3177705, "tags": {"highway": "bus_stop", "name": "Rione G\u00f6ller - G\u00f6llersiedlung", "name:de": "G\u00f6llersiedlung", "name:it": "Rione G\u00f6ller", "operator": "SASA", "public_transport": "platform", "route_ref": "110", "shelter": "yes", "towards:de": "Bozen", "towards:it": "Bolzano"}}, {"type": "node", "id": 631737647, "lat": 46.459761, "lon": 11.276499, "tags": {"bench": "yes", "bin": "yes", "highway": "bus_stop", "lit": "yes", "name": "Girlaner Stra\u00dfe - Via Cornaiano", "name:de": "Girlaner Stra\u00dfe", "name:it": "Via Cornaiano", "operator": "SAD", "public_transport": "platform", "route_ref": "132;135.1", "shelter": "yes", "source": "EppanOGD", "tactile_paving": "no"}}, {"type": "node", "id": 631737648, "lat": 46.45975, "lon": 11.276213, "tags": {"bench": "no", "bin": "no", "highway": "bus_stop", "lit": "yes", "name": "Girlaner Stra\u00dfe - Via Cornaiano", "name:de": "Girlaner Stra\u00dfe", "name:it": "Via Cornaiano", "operator": "SAD", "public_transport": "platform", "route_ref": "132;135.1", "shelter": "no", "source": "EppanOGD", "tactile_paving": "no"}}, {"type": "node", "id": 631737660, "lat": 46.4620697, "lon": 11.2820844, "tags": {"bench": "yes", "bin": "yes", "highway": "bus_stop", "lit": "no", "name": "Girlan Zentrum - Cornaiano Centro", "name:de": "Girlan Zentrum", "name:it": "Cornaiano Centro", "operator": "SAD", "public_transport": "platform", "route_ref": "132;135.1", "shelter": "yes", "source": "EppanOGD", "tactile_paving": "no"}}, {"type": "node", "id": 631737676, "lat": 46.4639174, "lon": 11.2891241, "tags": {"highway": "bus_stop", "name": "Kellerei Schreckbichl - Cantina Colterenzio", "name:de": "Kellerei Schreckbichl", "name:it": "Cantina Colterenzio", "public_transport": "platform", "shelter": "yes"}}, {"type": "node", "id": 631737677, "lat": 46.4640134, "lon": 11.288959, "tags": {"bench": "yes", "highway": "bus_stop", "name": "Kellerei Schreckbichl - Cantina Colterenzio", "name:de": "Kellerei Schreckbichl", "name:it": "Cantina Colterenzio", "public_transport": "platform", "shelter": "no"}}, {"type": "node", "id": 631751891, "lat": 46.4587556, "lon": 11.2593971, "tags": {"bus": "yes", "check_date:shelter": "2024-06-08", "highway": "bus_stop", "name": "Sankt Michael, Maderneid - San Michele, Maderneto", "name:de": "Sankt Michael, Maderneid", "name:it": "San Michele, Maderneto", "operator": "SAD", "public_transport": "platform", "route_ref": "135.2", "shelter": "no", "source": "EppanOGD"}}, {"type": "node", "id": 631751892, "lat": 46.4585848, "lon": 11.2593127, "tags": {"bus": "yes", "check_date:shelter": "2024-06-08", "highway": "bus_stop", "name": "Sankt Michael, Maderneid - San Michele, Maderneto", "name:de": "Sankt Michael, Maderneid", "name:it": "San Michele, Maderneto", "operator": "SAD", "public_transport": "platform", "route_ref": "135.2", "shelter": "no", "source": "EppanOGD"}}, {"type": "node", "id": 631751893, "lat": 46.4529249, "lon": 11.2685336, "tags": {"bench": "yes", "bin": "no", "bus": "yes", "covered": "yes", "departures_board": "timetable", "highway": "bus_stop", "lit": "no", "name": "Eppan, Bahnhof - Appiano, Stazione", "name:de": "Eppan, Bahnhof", "name:it": "Appiano, Stazione", "network": "TVS", "operator": "SAD", "public_transport": "platform", "ref:IFOPT": "it:22021:773:0:40889", "route_ref": "131;132;135.1;135.2;135.3;136;137;139", "shelter": "yes", "source": "EppanOGD", "tactile_paving": "yes"}}, {"type": "node", "id": 631751896, "lat": 46.4594552, "lon": 11.2636071, "tags": {"bench": "yes", "bin": "no", "highway": "bus_stop", "name": "Bozner Stra\u00dfe - Via Bolzano", "name:de": "Bozner Stra\u00dfe", "name:it": "Via Bolzano", "network": "TVS", "operator": "SAD", "public_transport": "platform", "shelter": "yes"}}, {"type": "node", "id": 631751897, "lat": 46.4595237, "lon": 11.2638163, "tags": {"bench": "no", "bin": "no", "bus": "yes", "highway": "bus_stop", "name": "Bozner Stra\u00dfe - Via Bolzano", "name:de": "Bozner Stra\u00dfe", "name:it": "Via Bolzano", "network": "TVS", "operator": "SAD", "public_transport": "platform", "shelter": "no"}}, {"type": "node", "id": 631751898, "lat": 46.461576, "lon": 11.260429, "tags": {"check_date:shelter": "2024-06-08", "highway": "bus_stop", "name": "Sankt Michael, Pfeiferm\u00fchle - San Michele, Pfeiferm\u00fchle", "name:de": "Sankt Michael, Pfeiferm\u00fchle", "name:it": "San Michele, Pfeiferm\u00fchle", "operator": "SAD", "public_transport": "platform", "route_ref": "135.2", "shelter": "no", "source": "EppanOGD"}}, {"type": "node", "id": 631751899, "lat": 46.461434, "lon": 11.260453, "tags": {"bench": "no", "bin": "no", "highway": "bus_stop", "name": "Sankt Michael, Pfeiferm\u00fchle - San Michele, Pfeiferm\u00fchle", "name:de": "Sankt Michael, Pfeiferm\u00fchle", "name:it": "San Michele, Pfeiferm\u00fchle", "operator": "SAD", "public_transport": "platform", "route_ref": "135.2", "shelter": "no", "source": "EppanOGD", "tactile_paving": "no"}}, {"type": "node", "id": 631751900, "lat": 46.4648919, "lon": 11.2607267, "tags": {"bench": "yes", "bus": "yes", "check_date:shelter": "2024-06-08", "highway": "bus_stop", "name": "Sankt Pauls, Paulser Stra\u00dfe - San Paolo, Via San Paolo", "name:de": "Sankt Pauls, Paulser Stra\u00dfe", "name:it": "San Paolo, Via San Paolo", "operator": "SAD", "public_transport": "platform", "route_ref": "135.2", "shelter": "no", "source": "EppanOGD", "wheelchair": "no"}}, {"type": "node", "id": 631751901, "lat": 46.4649971, "lon": 11.2609022, "tags": {"bench": "no", "bus": "yes", "check_date:shelter": "2024-06-08", "highway": "bus_stop", "name": "Sankt Pauls, Paulser Stra\u00dfe - San Paolo, Via San Paolo", "name:de": "Sankt Pauls, Paulser Stra\u00dfe", "name:it": "San Paolo, Via San Paolo", "operator": "SAD", "public_transport": "platform", "route_ref": "135.2", "shelter": "no", "source": "EppanOGD"}}, {"type": "node", "id": 631751924, "lat": 46.46872, "lon": 11.2698582, "tags": {"bench": "yes", "bus": "yes", "highway": "bus_stop", "name": "Abzweigung Sankt Pauls Eppan - Bivio San Paolo Appiano", "name:de": "Abzweigung Sankt Pauls Eppan", "name:it": "Bivio San Paolo Appiano", "network": "TVS", "operator": "SAD", "public_transport": "platform", "route_ref": "131;132;135.1;136;137", "shelter": "yes"}}, {"type": "node", "id": 631751925, "lat": 46.4685516, "lon": 11.2694603, "tags": {"bench": "yes", "bus": "yes", "highway": "bus_stop", "name": "Abzweigung Sankt Pauls Eppan - Bivio San Paolo Appiano", "name:de": "Abzweigung Sankt Pauls Eppan", "name:it": "Bivio San Paolo Appiano", "network": "TVS", "operator": "SAD", "public_transport": "platform", "route_ref": "131;132;135.1;136;137", "shelter": "yes"}}, {"type": "node", "id": 631751926, "lat": 46.4787796, "lon": 11.2835009, "tags": {"bench": "yes", "highway": "bus_stop", "name": "Frangart, Pillhof - Frangarto, Pillhof", "name:de": "Frangart, Pillhof", "name:it": "Frangarto, Pillhof", "network": "TVS", "operator": "SAD", "public_transport": "platform", "route_ref": "132;136", "shelter": "yes", "source": "survey"}}, {"type": "node", "id": 631751927, "lat": 46.4785277, "lon": 11.2831036, "tags": {"bench": "yes", "bin": "yes", "highway": "bus_stop", "lit": "yes", "name": "Frangart, Pillhof - Frangarto, Pillhof", "name:de": "Frangart, Pillhof", "name:it": "Frangarto, Pillhof", "network": "TVS", "operator": "SAD", "passenger_information_display": "yes", "public_transport": "platform", "route_ref": "131;132;135.2;136;137", "shelter": "yes", "source": "survey", "tactile_paving": "no"}}, {"type": "node", "id": 631751934, "lat": 46.4793783, "lon": 11.297439, "tags": {"bench": "yes", "bus": "yes", "highway": "bus_stop", "name": "Frangart, Zentrum - Frangarto, Centro", "name:de": "Frangart, Zentrum", "name:it": "Frangarto, Centro", "network": "TVS", "operator": "SAD", "public_transport": "platform", "shelter": "yes"}}, {"type": "node", "id": 631751935, "lat": 46.4798595, "lon": 11.2974575, "tags": {"bench": "yes", "highway": "bus_stop", "name": "Frangart, Zentrum - Frangarto, Centro", "name:de": "Frangart, Zentrum", "name:it": "Frangarto, Centro", "network": "TVS", "operator": "SAD", "public_transport": "platform", "shelter": "yes"}}, {"type": "node", "id": 631751942, "lat": 46.4816736, "lon": 11.2981605, "tags": {"highway": "bus_stop", "name": "Kaiserberg - Pi\u00e8 di Castello", "name:de": "Kaiserberg", "name:it": "Pi\u00e8 di Castello", "operator": "SAD", "public_transport": "platform"}}, {"type": "node", "id": 631751944, "lat": 46.4820706, "lon": 11.298525, "tags": {"highway": "bus_stop", "name": "Kaiserberg - Pi\u00e8 di Castello", "name:de": "Kaiserberg", "name:it": "Pi\u00e8 di Castello", "operator": "SAD", "public_transport": "platform"}}, {"type": "node", "id": 631751949, "lat": 46.4859296, "lon": 11.2967428, "tags": {"bus": "yes", "highway": "bus_stop", "name": "Stazione Ponte Adige - Bahnhof Sigmundskron", "name:de": "Bahnhof Sigmundskron", "name:it": "Stazione Ponte Adige", "operator": "SASA", "public_transport": "platform", "ref": "9", "route_ref": "9", "shelter": "no"}}, {"type": "node", "id": 631751950, "lat": 46.4854806, "lon": 11.2998663, "tags": {"bench": "no", "bus": "yes", "departures_board": "timetable", "highway": "bus_stop", "name": "Ponte Adige - Sigmundskron", "name:de": "Sigmundskron", "name:it": "Ponte Adige", "network": "TVS", "operator": "SASA;SAD", "public_transport": "platform", "route_ref": "9;132;136", "shelter": "no"}}, {"type": "node", "id": 632444712, "lat": 46.4179873, "lon": 11.332218, "tags": {"highway": "bus_stop", "name": "Laives, Caserma - Leifers, Kaserne", "name:de": "Leifers, Kaserne", "name:it": "Laives, Caserma", "operator": "SASA", "public_transport": "platform", "route_ref": "110;111;112;114;117;120", "shelter": "yes"}}, {"type": "node", "id": 632444713, "lat": 46.4291771, "lon": 11.343056, "tags": {"bench": "yes", "bin": "yes", "highway": "bus_stop", "name": "Laives, Camping - Leifers, Camping", "name:de": "Leifers, Camping", "name:it": "Laives, Camping", "operator": "SASA", "public_transport": "platform", "route_ref": "110;111;112;116;117;120", "shelter": "yes", "tactile_paving": "no", "wheelchair": "no"}}, {"type": "node", "id": 632798285, "lat": 46.4969776, "lon": 11.3551022, "tags": {"bench": "no", "bus": "yes", "highway": "bus_stop", "name": "Via Alto Adige - S\u00fcdtiroler Stra\u00dfe", "name:de": "S\u00fcdtiroler Stra\u00dfe", "name:it": "Via Alto Adige", "public_transport": "platform", "ref": "D", "route_ref": "1;3;5;7A;8;10A;12;14;110;111;N35", "shelter": "no"}}, {"type": "node", "id": 634164110, "lat": 46.4455103, "lon": 11.3375057, "tags": {"highway": "bus_stop", "name": "San Giacomo, Via Vurza - Sankt Jakob, Wurzerstra\u00dfe", "name:de": "Sankt Jakob, Wurzerstra\u00dfe", "name:it": "San Giacomo, Via Vurza", "operator": "SASA", "public_transport": "platform", "route_ref": "110;111;112", "shelter": "yes"}}, {"type": "node", "id": 634164111, "lat": 46.4488605, "lon": 11.3365291, "tags": {"highway": "bus_stop", "name": "Bar Posta", "name:de": "Bar Posta", "name:it": "Bar Posta", "operator": "SASA", "public_transport": "platform", "route_ref": "110;111;112"}}, {"type": "node", "id": 634164112, "lat": 46.4490498, "lon": 11.3366291, "tags": {"bus": "yes", "highway": "bus_stop", "name": "Bar Posta", "name:de": "Bar Posta", "name:it": "Bar Posta", "network": "TVS", "operator": "SASA", "public_transport": "platform", "route_ref": "110;111;112", "shelter": "yes"}}, {"type": "node", "id": 634164113, "lat": 46.4525132, "lon": 11.3355012, "tags": {"highway": "bus_stop", "name": "Via Pascoli - Pascolistra\u00dfe", "name:de": "Pascolistra\u00dfe", "name:it": "Via Pascoli", "operator": "SASA", "public_transport": "platform", "route_ref": "110;111;112"}}, {"type": "node", "id": 634164114, "lat": 46.45886, "lon": 11.3336214, "tags": {"bus": "yes", "highway": "bus_stop", "name": "San Giacomo, Scuole - Sankt Jakob, Schule", "name:de": "Sankt Jakob, Schule", "name:it": "San Giacomo, Scuole", "operator": "SASA", "public_transport": "platform", "route_ref": "110;111;112", "shelter": "no"}}, {"type": "node", "id": 634164115, "lat": 46.4586404, "lon": 11.3338429, "tags": {"highway": "bus_stop", "name": "San Giacomo, Scuole - Sankt Jakob, Schule", "name:de": "Sankt Jakob, Schule", "name:it": "San Giacomo, Scuole", "operator": "SASA", "public_transport": "platform", "route_ref": "110;111;112"}}, {"type": "node", "id": 634164116, "lat": 46.4602675, "lon": 11.3328577, "tags": {"highway": "bus_stop", "name": "San Giacomo, Centro - Sankt Jakob, Zentrum", "name:de": "Sankt Jakob, Zentrum", "name:it": "San Giacomo, Centro", "operator": "SASA", "public_transport": "platform", "route_ref": "110;111;112;120", "shelter": "yes"}}, {"type": "node", "id": 634164117, "lat": 46.4606611, "lon": 11.333232, "tags": {"bench": "yes", "bin": "yes", "bus": "yes", "highway": "bus_stop", "name": "San Giacomo, Centro - Sankt Jakob, Zentrum", "name:de": "Sankt Jakob, Zentrum", "name:it": "San Giacomo, Centro", "operator": "SASA", "public_transport": "platform", "route_ref": "110;111;112;120", "shelter": "yes", "tactile_paving": "no"}}, {"type": "node", "id": 634164118, "lat": 46.4628758, "lon": 11.3332295, "tags": {"highway": "bus_stop", "name": "Via Max Valier - Max-Valier-Stra\u00dfe", "name:de": "Max-Valier-Stra\u00dfe", "name:it": "Via Max Valier", "operator": "SASA", "public_transport": "platform", "route_ref": "110;111;112"}}, {"type": "node", "id": 634164119, "lat": 46.462556, "lon": 11.3334538, "tags": {"bus": "yes", "highway": "bus_stop", "name": "Via Max Valier - Max-Valier-Stra\u00dfe", "name:de": "Max-Valier-Stra\u00dfe", "name:it": "Via Max Valier", "network": "TVS", "operator": "SASA", "public_transport": "platform", "route_ref": "110;111;112", "shelter": "no"}}, {"type": "node", "id": 634164120, "lat": 46.4672025, "lon": 11.330789, "tags": {"bench": "yes", "bus": "yes", "highway": "bus_stop", "name": "Aeroporto - Flughafen", "name:de": "Flughafen", "name:it": "Aeroporto", "network": "TVS", "operator": "SASA", "public_transport": "platform", "route_ref": "10A;110;111", "shelter": "yes"}}, {"type": "node", "id": 634164122, "lat": 46.4430353, "lon": 11.34072, "tags": {"bench": "yes", "bus": "yes", "highway": "bus_stop", "name": "Zona produttiva Vurza - Handwerkerzone Wurzer", "name:de": "Handwerkerzone Wurzer", "name:it": "Zona produttiva Vurza", "network": "TVS", "operator": "SASA", "public_transport": "platform", "route_ref": "110;111;112", "shelter": "yes"}}, {"type": "node", "id": 634164123, "lat": 46.4423549, "lon": 11.3437752, "tags": {"bus": "yes", "highway": "bus_stop", "name": "Bivio La Costa - Abzweigung Seit", "name:de": "Abzweigung Seit", "name:it": "Bivio La Costa", "operator": "SASA", "public_transport": "platform", "route_ref": "110;111;112;117"}}, {"type": "node", "id": 635383448, "lat": 46.4968723, "lon": 11.3549387, "tags": {"bus": "yes", "highway": "bus_stop", "name": "Via Alto Adige - S\u00fcdtiroler Stra\u00dfe", "name:de": "S\u00fcdtiroler Stra\u00dfe", "name:it": "Via Alto Adige", "public_transport": "platform", "ref": "A", "route_ref": "1;7B;8;10B;14;15;110;111"}}, {"type": "node", "id": 635383451, "lat": 46.4963357, "lon": 11.3575111, "tags": {"bench": "yes", "bin": "yes", "bus": "yes", "highway": "bus_stop", "lit": "yes", "name": "Bolzano, Stazione C - Bozen, Bahnhof C", "name:de": "Bozen, Bahnhof C", "name:it": "Bolzano, Stazione C", "official_name": "Viale della Stazione A - Bahnhofsallee A", "operator": "SASA", "public_transport": "platform", "ref": "C", "route_ref": "120;201;204;N201", "shelter": "yes", "tactile_paving": "no", "website": "https://www.suedtirolmobil.info/fileadmin/pdf/SIZ/BHF_BZ25.pdf"}}, {"type": "node", "id": 640530418, "lat": 46.4949577, "lon": 11.3546176, "tags": {"bus": "yes", "highway": "bus_stop", "name": "Piazza Verdi - Verdiplatz", "name:de": "Verdiplatz", "name:it": "Piazza Verdi", "operator": "SASA", "public_transport": "platform", "route_ref": "1;6;7A;9;10A;18;111;131"}}, {"type": "node", "id": 640530421, "lat": 46.4945369, "lon": 11.3560103, "tags": {"bus": "yes", "highway": "bus_stop", "name": "Parcheggio Bolzano Centro - Parkhaus Bozen Mitte", "name:de": "Parkhaus Bozen Mitte", "name:it": "Parcheggio Bolzano Centro", "operator": "SASA", "public_transport": "platform", "route_ref": "1"}}, {"type": "node", "id": 640530424, "lat": 46.4949133, "lon": 11.3578706, "tags": {"bus": "yes", "highway": "bus_stop", "name": "Via Macello Loacker - Schlachthofstra\u00dfe Loacker", "name:de": "Schlachthofstra\u00dfe Loacker", "name:it": "Via Macello Loacker", "operator": "SASA", "public_transport": "platform", "route_ref": "1"}}, {"type": "node", "id": 642978575, "lat": 46.4932582, "lon": 11.3686344, "tags": {"bus": "yes", "highway": "bus_stop", "name": "Ponte Campiglio - Kampillerbr\u00fccke", "name:de": "Kampillerbr\u00fccke", "name:it": "Ponte Campiglio", "operator": "SASA", "public_transport": "platform", "shelter": "yes"}}, {"type": "node", "id": 642978579, "lat": 46.4953049, "lon": 11.3699703, "tags": {"bus": "yes", "highway": "bus_stop", "name": "Via Piani di Mezzo - Bozner-Boden-Mitterweg", "name:de": "Bozner-Boden-Mitterweg", "name:it": "Via Piani di Mezzo", "operator": "SASA", "public_transport": "platform", "route_ref": "1", "shelter": "yes"}}, {"type": "node", "id": 642978585, "lat": 46.4980192, "lon": 11.3654524, "tags": {"bus": "yes", "highway": "bus_stop", "name": "Via Canonico Michael Gamper - Kanonikus Michael Gamper Stra\u00dfe", "name:de": "Kanonikus Michael Gamper Stra\u00dfe", "name:it": "Via Canonico Michael Gamper", "operator": "SASA", "public_transport": "platform", "route_ref": "6;9;14;183", "shelter": "yes", "wheelchair": "yes"}}, {"type": "node", "id": 642978591, "lat": 46.4996508, "lon": 11.3636296, "tags": {"bench": "yes", "bin": "yes", "bus": "yes", "highway": "bus_stop", "lit": "yes", "name": "Funivia del Renon A - Rittner Seilbahn A", "name:de": "Rittner Seilbahn A", "name:it": "Funivia del Renon A", "network": "TVS", "operator": "SASA", "public_transport": "platform", "ref": "A", "route_ref": "6;8;9;14;163;183;B161", "shelter": "yes", "tactile_paving": "no", "wheelchair": "no"}}, {"type": "node", "id": 642984885, "lat": 46.4977499, "lon": 11.351806, "tags": {"bench": "yes", "bin": "yes", "bus": "yes", "highway": "bus_stop", "lit": "yes", "name": "Piazza Domenicani D - Dominikanerplatz D", "name:de": "Dominikanerplatz D", "name:it": "Piazza Domenicani D", "network": "TVS", "operator": "SASA;SAD", "public_transport": "platform", "ref": "D", "ref:IFOPT": "it:22021:467:0:5026", "route_ref": "1;3;5;7B;8;10B;12;14;15;110;111;132;136;150;156;201;204", "shelter": "no", "tactile_paving": "yes"}}, {"type": "node", "id": 642991452, "lat": 46.497881, "lon": 11.3517087, "tags": {"bench": "yes", "bin": "yes", "bus": "yes", "highway": "bus_stop", "lit": "yes", "name": "Piazza Domenicani B - Dominikanerplatz B", "name:de": "Dominikanerplatz B", "name:it": "Piazza Domenicani B", "network": "TVS", "operator": "SASA;SAD", "public_transport": "platform", "ref": "B", "route_ref": "132;133;136;150;152;156;201;204;N", "shelter": "yes", "tactile_paving": "no"}}, {"type": "node", "id": 645501596, "lat": 46.4965851, "lon": 11.3578879, "tags": {"bench": "yes", "bin": "yes", "bus": "yes", "highway": "bus_stop", "lit": "yes", "name": "Bolzano, Stazione A - Bozen, Bahnhof A", "name:de": "Bozen, Bahnhof A", "name:it": "Bolzano, Stazione A", "official_name": "Viale della Stazione B - Bahnhofsallee B", "operator": "SASA", "public_transport": "platform", "ref": "A", "route_ref": "6;8;9;14", "shelter": "yes", "tactile_paving": "no", "website": "https://www.suedtirolmobil.info/fileadmin/pdf/SIZ/BHF_BZ25.pdf"}}, {"type": "node", "id": 645767203, "lat": 46.4093874, "lon": 11.3281866, "tags": {"bench": "yes", "highway": "bus_stop", "name": "Cimitero di Bronzolo - Friedhof Branzoll", "name:de": "Friedhof Branzoll", "name:it": "Cimitero di Bronzolo", "operator": "SASA", "public_transport": "platform", "route_ref": "117", "shelter": "yes"}}, {"type": "node", "id": 645767236, "lat": 46.483962, "lon": 11.3206784, "tags": {"bench": "yes", "bin": "yes", "bus": "yes", "check_date:shelter": "2025-11-07", "highway": "bus_stop", "lit": "yes", "name": "Via Resia S. Pio X - Reschenstra\u00dfe Hl.-Pius X", "name:de": "Reschenstra\u00dfe Hl.-Pius X", "name:it": "Via Resia S. Pio X", "operator": "SASA", "public_transport": "platform", "route_ref": "3;6;10B", "shelter": "yes", "tactile_paving": "no"}}, {"type": "node", "id": 645767248, "lat": 46.485093, "lon": 11.3206188, "tags": {"bus": "yes", "highway": "bus_stop", "name": "Via Barletta - Barlettastra\u00dfe", "name:de": "Barlettastra\u00dfe", "name:it": "Via Barletta", "operator": "SASA", "public_transport": "platform", "route_ref": "3", "shelter": "yes"}}, {"type": "node", "id": 645767253, "lat": 46.4856061, "lon": 11.3220608, "tags": {"bus": "yes", "highway": "bus_stop", "name": "Via Bari - Baristra\u00dfe", "name:de": "Baristra\u00dfe", "name:it": "Via Bari", "operator": "SASA", "public_transport": "platform", "route_ref": "3", "shelter": "yes"}}, {"type": "node", "id": 645767258, "lat": 46.4864564, "lon": 11.3244435, "tags": {"bench": "yes", "bin": "yes", "bus": "yes", "check_date:shelter": "2025-11-08", "highway": "bus_stop", "lit": "yes", "name": "Parco delle Semirurali - Semiruralipark", "name:de": "Semiruralipark", "name:it": "Parco delle Semirurali", "operator": "SASA", "public_transport": "platform", "route_ref": "3;153", "shelter": "yes", "tactile_paving": "no"}}, {"type": "node", "id": 645767265, "lat": 46.4864597, "lon": 11.3243139, "tags": {"bus": "yes", "highway": "bus_stop", "name": "Parco delle Semirurali - Semiruralipark", "name:de": "Semiruralipark", "name:it": "Parco delle Semirurali", "operator": "SASA", "public_transport": "platform", "route_ref": "3", "shelter": "yes"}}, {"type": "node", "id": 645767268, "lat": 46.4877639, "lon": 11.326686, "tags": {"bench": "no", "bin": "yes", "bus": "yes", "highway": "bus_stop", "lit": "yes", "name": "S. Maria in Augia - Maria in der Au", "name:de": "Maria in der Au", "name:it": "S. Maria in Augia", "operator": "SASA", "public_transport": "platform", "route_ref": "3", "shelter": "no", "tactile_paving": "no"}}, {"type": "node", "id": 645767270, "lat": 46.4892094, "lon": 11.3254733, "tags": {"bus": "yes", "highway": "bus_stop", "name": "Via Montecassino - Montecassinostra\u00dfe", "name:de": "Montecassinostra\u00dfe", "name:it": "Via Montecassino", "operator": "SASA", "public_transport": "platform", "route_ref": "3;6;9", "shelter": "yes"}}, {"type": "node", "id": 645767279, "lat": 46.4902128, "lon": 11.3267147, "tags": {"bus": "yes", "highway": "bus_stop", "name": "Via Udine - Udinesstra\u00dfe", "name:de": "Udinestra\u00dfe", "name:it": "Via Udine", "operator": "SASA", "public_transport": "platform", "route_ref": "3;153", "shelter": "yes"}}, {"type": "node", "id": 645767284, "lat": 46.4883331, "lon": 11.3295931, "tags": {"bus": "yes", "highway": "bus_stop", "name": "Via Cagliari - Cagliari Stra\u00dfe", "name:de": "Cagliari Stra\u00dfe", "name:it": "Via Cagliari", "operator": "SASA", "public_transport": "platform", "route_ref": "3", "shelter": "yes"}}, {"type": "node", "id": 645767288, "lat": 46.48988, "lon": 11.329665, "tags": {"bench": "yes", "bin": "yes", "bus": "yes", "check_date:shelter": "2025-11-08", "highway": "bus_stop", "lit": "yes", "name": "Via Milano - Mailandstra\u00dfe", "name:de": "Mailandstra\u00dfe", "name:it": "Via Milano", "operator": "SASA", "public_transport": "platform", "route_ref": "3;153", "shelter": "yes", "tactile_paving": "no"}}, {"type": "node", "id": 645767298, "lat": 46.4895523, "lon": 11.3324903, "tags": {"bench": "yes", "bin": "yes", "bus": "yes", "check_date:shelter": "2025-11-08", "highway": "bus_stop", "lit": "yes", "name": "Via Aosta - Aostastra\u00dfe", "name:de": "Aosta Stra\u00dfe", "name:it": "Via Aosta", "operator": "SASA", "public_transport": "platform", "route_ref": "3;153", "shelter": "yes", "tactile_paving": "no"}}, {"type": "node", "id": 645767302, "lat": 46.4919238, "lon": 11.3324902, "tags": {"bus": "yes", "highway": "bus_stop", "name": "Via Palermo - Palermostra\u00dfe", "name:de": "Palermostra\u00dfe", "name:it": "Via Palermo", "operator": "SASA", "public_transport": "platform", "route_ref": "3"}}, {"type": "node", "id": 645767306, "lat": 46.4903683, "lon": 11.337279, "tags": {"bench": "yes", "bin": "yes", "bus": "yes", "check_date:shelter": "2025-11-08", "highway": "bus_stop", "lit": "yes", "name": "Piazza Matteotti - Matteotti Platz Provv.", "name:de": "Matteotti Platz", "name:it": "Piazza Matteotti", "operator": "SASA", "public_transport": "platform", "route_ref": "3;153", "shelter": "yes", "tactile_paving": "no"}}, {"type": "node", "id": 645767310, "lat": 46.4916847, "lon": 11.3366313, "tags": {"bus": "yes", "highway": "bus_stop", "name": "Regina Pacis", "name:de": "Regina Pacis", "name:it": "Regina Pacis", "operator": "SASA", "public_transport": "platform", "route_ref": "3;153", "shelter": "yes"}}, {"type": "node", "id": 645767320, "lat": 46.4836687, "lon": 11.3433302, "tags": {"bus": "yes", "highway": "bus_stop", "name": "Bolzano, Piazzetta Bersaglio - Bozen, Schie\u00dfstand-Platz", "name:de": "Bozen, Schie\u00dfstand-Platz", "name:it": "Bolzano, Piazzetta Bersaglio", "operator": "SASA", "public_transport": "platform", "route_ref": "10B;110;112;114;120", "shelter": "yes"}}, {"type": "node", "id": 645767325, "lat": 46.4844721, "lon": 11.344112, "tags": {"bench": "yes", "bus": "yes", "highway": "bus_stop", "name": "Bolzano, Piazzetta Bersaglio - Bozen, Schie\u00dfstand-Platz", "name:de": "Bozen, Schie\u00dfstand-Platz", "name:it": "Bolzano, Piazzetta Bersaglio", "network": "TVS", "operator": "SASA", "public_transport": "platform", "route_ref": "10A;110;112;114;120", "shelter": "yes"}}, {"type": "node", "id": 645767330, "lat": 46.4868448, "lon": 11.3434885, "tags": {"bus": "yes", "highway": "bus_stop", "name": "Via Roma Sottopasso - Romstra\u00dfe Unterf\u00fchrung", "name:de": "Romstra\u00dfe Unterf\u00fchrung", "name:it": "Via Roma Sottopasso", "operator": "SASA", "public_transport": "platform", "route_ref": "7A;110", "wheelchair": "no"}}, {"type": "node", "id": 645767336, "lat": 46.4912336, "lon": 11.3395978, "tags": {"bench": "no", "bin": "yes", "bus": "yes", "check_date:shelter": "2025-11-08", "highway": "bus_stop", "lit": "yes", "name": "Via Torino - Turinstra\u00dfe", "name:de": "Turinstra\u00dfe", "name:it": "Via Torino", "operator": "SASA", "public_transport": "platform", "route_ref": "3;153", "shelter": "yes", "tactile_paving": "no"}}, {"type": "node", "id": 645767337, "lat": 46.4917205, "lon": 11.3414045, "tags": {"bench": "yes", "bin": "yes", "bus": "yes", "check_date:shelter": "2025-11-08", "highway": "bus_stop", "lit": "yes", "name": "Via Firenze - Florenzstra\u00dfe", "name:de": "Florenzstra\u00dfe", "name:it": "Via Firenze", "operator": "SASA", "public_transport": "platform", "route_ref": "7A;110;111;18", "shelter": "yes", "tactile_paving": "no"}}, {"type": "node", "id": 645767342, "lat": 46.4921158, "lon": 11.3409383, "tags": {"bench": "yes", "bin": "yes", "bus": "yes", "highway": "bus_stop", "lit": "yes", "name": "Via Firenze - Florenzstra\u00dfe", "name:de": "Florenzstra\u00dfe", "name:it": "Via Firenze", "operator": "SASA", "public_transport": "platform", "route_ref": "3;153", "shelter": "yes", "tactile_paving": "no"}}, {"type": "node", "id": 645767345, "lat": 46.492304, "lon": 11.3414582, "tags": {"bench": "yes", "bin": "yes", "bus": "yes", "highway": "bus_stop", "lit": "yes", "name": "Via Firenze - Florenzstra\u00dfe", "name:de": "Florenzstra\u00dfe", "name:it": "Via Firenze", "network": "TVS", "operator": "SASA", "public_transport": "platform", "route_ref": "3;7B;18;110;111", "shelter": "yes", "tactile_paving": "no"}}, {"type": "node", "id": 645767347, "lat": 46.4935578, "lon": 11.3407525, "tags": {"bench": "yes", "bin": "yes", "bus": "yes", "highway": "bus_stop", "lit": "yes", "name": "Via di Novacella - Neustifterweg", "name:de": "Neustifterweg", "name:it": "Via di Novacella", "operator": "SASA", "public_transport": "platform", "route_ref": "3;7A;110;111;153;18", "shelter": "yes", "tactile_paving": "no"}}, {"type": "node", "id": 645767354, "lat": 46.4944285, "lon": 11.3405685, "tags": {"bench": "no", "bin": "yes", "bus": "yes", "highway": "bus_stop", "lit": "no", "name": "Via di Novacella - Neustifterweg", "name:de": "Neustifterweg", "name:it": "Via di Novacella", "network": "TVS", "operator": "SASA", "public_transport": "platform", "route_ref": "3;7B;18;110;111", "shelter": "no", "tactile_paving": "no"}}, {"type": "node", "id": 645767359, "lat": 46.4971961, "lon": 11.3399558, "tags": {"bench": "yes", "bin": "yes", "bus": "yes", "highway": "bus_stop", "lit": "yes", "name": "Tribunale - Gericht", "name:de": "Gericht", "name:it": "Tribunale", "operator": "SASA", "public_transport": "platform", "route_ref": "3;7A;8;110;111;153", "shelter": "yes", "tactile_paving": "no"}}, {"type": "node", "id": 645767365, "lat": 46.4980281, "lon": 11.3401492, "tags": {"bench": "yes", "bin": "yes", "bus": "yes", "check_date:shelter": "2024-07-17", "highway": "bus_stop", "lit": "yes", "name": "Tribunale - Gericht", "name:de": "Gericht", "name:it": "Tribunale", "network": "TVS", "operator": "SASA", "public_transport": "platform", "route_ref": "3;7B;8;110;111", "shelter": "yes", "tactile_paving": "no"}}, {"type": "node", "id": 645767378, "lat": 46.4976036, "lon": 11.3497611, "tags": {"bench": "no", "bin": "no", "bus": "yes", "highway": "bus_stop", "lit": "yes", "name": "MUSEION - MUSEION", "name:de": "MUSEION", "name:it": "MUSEION", "network": "TVS", "operator": "SASA", "public_transport": "platform", "route_ref": "1;3;5;7B;8;10B;12;14;15;110;111", "shelter": "no", "tactile_paving": "no", "wheelchair": "yes"}}, {"type": "node", "id": 645861024, "lat": 46.4527838, "lon": 11.3356068, "tags": {"bus": "yes", "highway": "bus_stop", "name": "Via Pascoli - Pascolistra\u00dfe", "name:de": "Pascolistra\u00dfe", "name:it": "Via Pascoli", "network": "TVS", "operator": "SASA", "public_transport": "platform", "route_ref": "110;111;112", "shelter": "yes"}}, {"type": "node", "id": 645861034, "lat": 46.4681851, "lon": 11.3345769, "tags": {"bench": "no", "bin": "yes", "highway": "bus_stop", "name": "Via Loris Musy - Loris-Musy-Stra\u00dfe", "name:de": "Loris-Musy-Stra\u00dfe", "name:it": "Via Loris Musy", "operator": "SASA", "public_transport": "platform", "route_ref": "10B;110;112;114;120", "shelter": "no"}}, {"type": "node", "id": 645861056, "lat": 46.4698873, "lon": 11.3356555, "tags": {"highway": "bus_stop", "name": "Maso della Pieve - Pfarrhof", "name:de": "Pfarrhof", "name:it": "Maso della Pieve", "operator": "SASA", "public_transport": "platform", "route_ref": "10B;110", "shelter": "yes"}}, {"type": "node", "id": 645861076, "lat": 46.437325, "lon": 11.3453486, "tags": {"bus": "yes", "highway": "bus_stop", "name": "Pineta - Steinmannwald", "name:de": "Steinmannwald", "name:it": "Pineta", "operator": "SASA", "public_transport": "platform", "route_ref": "110;111;112;117;120", "shelter": "no"}}, {"type": "node", "id": 645861087, "lat": 46.4379962, "lon": 11.345076, "tags": {"bench": "yes", "bus": "yes", "highway": "bus_stop", "name": "Pineta - Steinmannwald", "name:de": "Steinmannwald", "name:it": "Pineta", "operator": "SASA", "public_transport": "platform", "route_ref": "110;111;112;117;120", "shelter": "yes"}}, {"type": "node", "id": 645861098, "lat": 46.4426866, "lon": 11.344001, "tags": {"bench": "yes", "bus": "yes", "highway": "bus_stop", "name": "Bivio La Costa - Abzweigung Seit", "name:de": "Abzweigung Seit", "name:it": "Bivio La Costa", "operator": "SASA", "public_transport": "platform", "route_ref": "110;111;112;117", "shelter": "yes"}}, {"type": "node", "id": 646001995, "lat": 46.4992684, "lon": 11.3629221, "tags": {"bench": "yes", "bin": "yes", "bus": "yes", "highway": "bus_stop", "lit": "yes", "name": "Funivia del Renon C - Rittner Seilbahn C", "name:de": "Rittner Seilbahn C", "name:it": "Funivia del Renon C", "network": "TVS", "operator": "SASA", "public_transport": "platform", "ref": "C", "route_ref": "6;8;9;14;183", "shelter": "yes", "tactile_paving": "no"}}, {"type": "node", "id": 646002021, "lat": 46.5001805, "lon": 11.3608751, "tags": {"bench": "yes", "bin": "yes", "bus": "yes", "highway": "bus_stop", "lit": "yes", "name": "Piazza Dogana - Zollstange", "name:de": "Zollstange", "name:it": "Piazza Dogana", "network": "TVS", "operator": "SASA", "public_transport": "platform", "route_ref": "15", "shelter": "yes", "tactile_paving": "no"}}, {"type": "node", "id": 646018899, "lat": 46.4889533, "lon": 11.3315147, "tags": {"bus": "yes", "highway": "bus_stop", "name": "Scuola San-Filippo-Neri - San-Filippo-Neri-Schule", "name:de": "San-Filippo-Neri-Schule", "name:it": "Scuola San-Filippo-Neri", "operator": "SASA", "public_transport": "platform", "route_ref": "3", "shelter": "yes"}}, {"type": "node", "id": 646761575, "lat": 46.4995837, "lon": 11.3478117, "tags": {"bench": "no", "bin": "yes", "bus": "yes", "highway": "bus_stop", "lit": "yes", "name": "Via Rosmini - Rosministra\u00dfe", "name:de": "Rosministra\u00dfe", "name:it": "Via Rosmini", "network": "TVS", "operator": "SASA", "public_transport": "platform", "route_ref": "1;3;5;7B;8;10B;12;14;15;110;111", "shelter": "no", "tactile_paving": "no"}}, {"type": "node", "id": 646761580, "lat": 46.5005488, "lon": 11.3403207, "tags": {"bench": "no", "bin": "yes", "bus": "yes", "highway": "bus_stop", "lit": "yes", "name": "Via Cesare Battisti - Cesare-Battisti-Stra\u00dfe", "name:de": "Cesare-Battisti-Stra\u00dfe", "name:it": "Via Cesare Battisti", "operator": "SASA", "public_transport": "platform", "route_ref": "3;7A;8;110;111", "shelter": "yes", "tactile_paving": "no"}}, {"type": "node", "id": 646761592, "lat": 46.5004206, "lon": 11.3408728, "tags": {"bench": "yes", "bin": "yes", "bus": "yes", "check_date:shelter": "2024-05-06", "highway": "bus_stop", "lit": "yes", "name": "Via Cesare Battisti - Cesare-Battisti-Stra\u00dfe", "name:de": "Cesare-Battisti-Stra\u00dfe", "name:it": "Via Cesare Battisti", "network": "TVS", "operator": "SASA", "public_transport": "platform", "route_ref": "3;7B;8;110;111", "shelter": "yes", "tactile_paving": "no"}}, {"type": "node", "id": 646761604, "lat": 46.5003445, "lon": 11.3439523, "tags": {"bench": "yes", "bin": "no", "bus": "yes", "highway": "bus_stop", "lit": "yes", "name": "Piazza Vittoria - Siegesplatz", "name:de": "Siegesplatz", "name:it": "Piazza Vittoria", "operator": "SASA", "public_transport": "platform", "route_ref": "3;7A;8;110;111", "shelter": "no", "tactile_paving": "no"}}, {"type": "node", "id": 646761616, "lat": 46.5001963, "lon": 11.3449175, "tags": {"bench": "no", "bin": "no", "bus": "yes", "highway": "bus_stop", "lit": "yes", "name": "Piazza Vittoria - Siegesplatz", "name:de": "Siegesplatz", "name:it": "Piazza Vittoria", "network": "TVS", "operator": "SASA", "public_transport": "platform", "route_ref": "3;7B;8;110;111", "shelter": "no", "tactile_paving": "no"}}, {"type": "node", "id": 646761622, "lat": 46.5013284, "lon": 11.3451444, "tags": {"bench": "yes", "bin": "yes", "bus": "yes", "highway": "bus_stop", "lit": "yes", "name": "Parco Petrarca - Petrarcapark", "name:de": "Petrarcapark", "name:it": "Parco Petrarca", "operator": "SASA", "public_transport": "platform", "route_ref": "1;12;14;150;156", "shelter": "yes", "tactile_paving": "no"}}, {"type": "node", "id": 646761628, "lat": 46.4994281, "lon": 11.3492963, "tags": {"bench": "yes", "bin": "yes", "bus": "yes", "highway": "bus_stop", "lit": "yes", "name": "Via Cassa di Risparmio - Sparkassenstra\u00dfe", "name:de": "Sparkassenstra\u00dfe", "name:it": "Via Cassa di Risparmio", "operator": "SASA", "public_transport": "platform", "route_ref": "1;3;5;7A;8;10A;12;14;110;111", "shelter": "no", "tactile_paving": "no"}}, {"type": "node", "id": 646761639, "lat": 46.4989675, "lon": 11.3508547, "tags": {"bench": "no", "bin": "yes", "bus": "yes", "highway": "bus_stop", "lit": "yes", "name": "Piazza Universit\u00e0 - Universit\u00e4tsplatz", "name:de": "Universit\u00e4tsplatz", "name:it": "Piazza Universit\u00e0", "operator": "SASA", "public_transport": "platform", "route_ref": "1;3;5;7A;8;10A;12;14;110;111", "shelter": "no", "tactile_paving": "no", "wheelchair": "yes"}}, {"type": "node", "id": 646767356, "lat": 46.4295115, "lon": 11.3442292, "tags": {"bench": "yes", "bus": "yes", "highway": "bus_stop", "name": "Laives, Camping - Leifers, Camping", "name:de": "Leifers, Camping", "name:it": "Laives, Camping", "operator": "SASA", "public_transport": "platform", "route_ref": "110;111;112;117;120", "shelter": "yes"}}, {"type": "node", "id": 646837288, "lat": 46.47559, "lon": 11.3325289, "tags": {"bench": "yes", "bin": "no", "highway": "bus_stop", "lit": "yes", "name": "Via Pietro Gobetti - Pietro-Gobetti-Stra\u00dfe", "name:de": "Pietro-Gobetti-Stra\u00dfe", "name:it": "Via Pietro Gobetti", "operator": "SASA", "public_transport": "platform", "route_ref": "6;110;111;18", "shelter": "yes", "tactile_paving": "no"}}, {"type": "node", "id": 646837342, "lat": 46.4819106, "lon": 11.3306704, "tags": {"bench": "yes", "bin": "yes", "highway": "bus_stop", "name": "TIS", "name:de": "TIS", "name:it": "TIS", "operator": "SASA", "public_transport": "platform", "route_ref": "6;111;18", "shelter": "yes", "tactile_paving": "no"}}, {"type": "node", "id": 646837358, "lat": 46.4793062, "lon": 11.3330552, "tags": {"bench": "yes", "bin": "yes", "bus": "yes", "full_name": "Bolzano, NOI - Bozen, NOI", "full_name:de": "Bozen, NOI", "full_name:it": "Bolzano, NOI", "highway": "bus_stop", "name": "NOI", "name:de": "NOI", "name:it": "NOI", "network": "TVS", "operator": "SASA", "public_transport": "platform", "route_ref": "110;111;18", "shelter": "yes", "wheelchair": "no"}}, {"type": "node", "id": 646837391, "lat": 46.4849478, "lon": 11.3369754, "tags": {"bus": "yes", "highway": "bus_stop", "name": "Via Lancia SEAB - Lanciastra\u00dfe SEAB", "name:de": "Lanciastra\u00dfe SEAB", "name:it": "Via Lancia SEAB", "operator": "SASA", "public_transport": "platform", "route_ref": "111;18"}}, {"type": "node", "id": 650348433, "lat": 46.4949503, "lon": 11.3917995, "tags": {"bus": "yes", "highway": "bus_stop", "name": "Kardaun, Brennerstra\u00dfe - Cardano, Via Brennero", "name:de": "Kardaun, Brennerstra\u00dfe", "name:it": "Cardano, Via Brennero", "operator": "SASA", "public_transport": "platform", "route_ref": "8;114;170", "shelter": "yes"}}, {"type": "node", "id": 651635000, "lat": 46.6369248, "lon": 11.1761044, "tags": {"bench": "yes", "bin": "yes", "bus": "yes", "highway": "bus_stop", "lit": "yes", "name": "Via Enrico Fermi - Enrico-Fermi-Stra\u00dfe", "name:de": "Enrico-Fermi-Stra\u00dfe", "name:it": "Via Enrico Fermi", "network": "STA", "network:wikidata": "Q21971377", "operator": "STA", "public_transport": "platform", "route_ref": "201;210", "shelter": "yes", "tactile_paving": "no"}}, {"type": "node", "id": 664461827, "lat": 46.6779046, "lon": 11.1186841, "tags": {"bench": "yes", "bin": "yes", "highway": "bus_stop", "name": "Forst - Foresta", "name:de": "Forst", "name:it": "Foresta", "network": "TVS", "operator": "STA", "public_transport": "platform", "route_ref": "217", "shelter": "yes", "wheelchair": "no"}}, {"type": "node", "id": 664463011, "lat": 46.6793582, "lon": 11.1477766, "tags": {"bench": "yes", "bin": "yes", "highway": "bus_stop", "lit": "yes", "name": "K\u00f6nig Laurin - Via Laurin", "name:de": "K\u00f6nig Laurin", "name:it": "Via Laurin", "network": "TVS", "operator": "SASA", "public_transport": "platform", "route_ref": "3", "shelter": "yes", "tactile_paving": "no", "wheelchair": "limited"}}, {"type": "node", "id": 664463040, "lat": 46.6776064, "lon": 11.1522577, "tags": {"bench": "yes", "bin": "yes", "highway": "bus_stop", "lit": "yes", "name": "Meran, Krankenhaus Rossinistra\u00dfe - Merano, Ospedale Via Rossini", "name:de": "Meran, Krankenhaus Rossinistra\u00dfe", "name:it": "Merano, Ospedale Via Rossini", "network": "TVS", "old_name": "Altes Krankenhaus - Ospedale Vecchio", "old_name:de": "Altes Krankenhaus", "old_name:it": "Ospedale Vecchio", "operator": "STA", "public_transport": "platform", "route_ref": "4", "shelter": "yes", "tactile_paving": "yes", "wheelchair": "limited"}}, {"type": "node", "id": 686752401, "lat": 46.6665771, "lon": 11.0687163, "tags": {"departures_board": "timetable", "highway": "bus_stop", "name": "Rabland, Bahnhof - Rabl\u00e0, Stazione", "name:de": "Rabland, Bahnhof", "name:it": "Rabl\u00e0, Stazione", "network": "Verkehrsverbund S\u00fcdtirol", "operator": "SiMobil GmbH", "public_transport": "platform", "route_ref": "266", "source": "https://www.sii.bz.it/de/siitimetablesquery;https://www.sii.bz.it/it/siitimetablesquery", "wheelchair": "yes"}}, {"type": "node", "id": 691989169, "lat": 46.496261, "lon": 10.8996994, "tags": {"highway": "bus_stop", "name": "St. Gertraud, Beiwasser - San Gertrude, Beiwasser", "name:de": "St. Gertraud, Beiwasser", "name:it": "San Gertrude, Beiwasser", "network": "TVS", "public_transport": "platform", "route_ref": "245", "shelter": "yes"}}, {"type": "node", "id": 691989175, "lat": 46.5062223, "lon": 10.9176774, "tags": {"highway": "bus_stop", "name": "St. Nikolaus, Doppler - San Nicol\u00f2, Doppler", "name:de": "St. Nikolaus, Doppler", "name:it": "San Nicol\u00f2, Doppler", "network": "TVS", "public_transport": "platform", "route_ref": "245"}}, {"type": "node", "id": 691989282, "lat": 46.5093138, "lon": 10.9238661, "tags": {"highway": "bus_stop", "name": "St. Nikolaus - San Nicol\u00f2", "name:de": "St. Nikolaus", "name:it": "San Nicol\u00f2", "network": "TVS", "public_transport": "platform", "route_ref": "245"}}, {"type": "node", "id": 691989288, "lat": 46.4973893, "lon": 10.9063099, "tags": {"highway": "bus_stop", "name": "St. Nikolaus, Sporthof - San Nicol\u00f2, Sporthof", "name:de": "St. Nikolaus, Sporthof", "name:it": "San Nicol\u00f2, Sporthof", "network": "TVS", "public_transport": "platform", "route_ref": "245"}}, {"type": "node", "id": 691989405, "lat": 46.5004755, "lon": 10.9116643, "tags": {"highway": "bus_stop", "name": "St. Nikolaus, Au - San Nicol\u00f2, Au", "name:de": "St. Nikolaus, Au", "name:it": "San Nicol\u00f2, Au", "network": "TVS", "public_transport": "platform", "route_ref": "245", "shelter": "yes"}}, {"type": "node", "id": 691989752, "lat": 46.4968618, "lon": 10.905255, "tags": {"highway": "bus_stop", "name": "St. Nikolaus, Sporthof - San Nicol\u00f2, Sporthof", "name:de": "St. Nikolaus, Sporthof", "name:it": "San Nicol\u00f2, Sporthof", "network": "TVS", "public_transport": "platform", "route_ref": "245"}}, {"type": "node", "id": 691990026, "lat": 46.5004721, "lon": 10.9110967, "tags": {"highway": "bus_stop", "name": "St. Nikolaus, Au - San Nicol\u00f2, Au", "name:de": "St. Nikolaus, Au", "name:it": "San Nicol\u00f2, Au", "network": "TVS", "public_transport": "platform", "route_ref": "245"}}, {"type": "node", "id": 691990362, "lat": 46.5062023, "lon": 10.9180185, "tags": {"highway": "bus_stop", "name": "St. Nikolaus, Doppler - San Nicol\u00f2, Doppler", "name:de": "St. Nikolaus, Doppler", "name:it": "San Nicol\u00f2, Doppler", "network": "TVS", "public_transport": "platform", "route_ref": "245"}}, {"type": "node", "id": 717517246, "lat": 46.6292418, "lon": 10.9118127, "tags": {"bench": "yes", "bin": "yes", "highway": "bus_stop", "lit": "yes", "name": "Abzweigung Galsaun - Bivio Colsano", "name:de": "Abzweigung Galsaun", "name:it": "Bivio Colsano", "network": "TVS", "public_transport": "platform", "route_ref": "267", "shelter": "yes", "tactile_paving": "no"}}, {"type": "node", "id": 728455086, "lat": 46.4951185, "lon": 11.3315407, "tags": {"bench": "no", "bus": "yes", "highway": "bus_stop", "name": "Via Amalfi - Amalfistra\u00dfe", "name:de": "Amalfistra\u00dfe", "name:it": "Via Amalfi", "operator": "SASA", "public_transport": "platform", "route_ref": "6;8;9;110", "shelter": "yes"}}, {"type": "node", "id": 728651605, "lat": 46.6711061, "lon": 11.2094412, "tags": {"bench": "yes", "bin": "no", "bus": "yes", "highway": "bus_stop", "lit": "no", "name": "Seilbahn Meran 2000 - Funivie Merano 2000", "name:de": "Seilbahn Meran 2000", "name:it": "Funivie Merano 2000", "operator": "SASA", "public_transport": "platform", "route_ref": "1A", "shelter": "yes", "source": "survey", "source:date": "2023-04-23", "tactile_paving": "no"}}, {"type": "node", "id": 729750264, "lat": 46.6893383, "lon": 11.1877071, "tags": {"bench": "yes", "highway": "bus_stop", "name": "Schenna, Dorf - Scena, Paese", "name:de": "Schenna, Dorf", "name:it": "Scena, Paese", "network": "TVS", "operator": "STA", "public_transport": "platform", "route_ref": "232;233"}}, {"type": "node", "id": 729750272, "lat": 46.6896371, "lon": 11.1876163, "tags": {"bench": "yes", "bin": "yes", "highway": "bus_stop", "lit": "yes", "name": "Schenna, Dorf - Scena, Paese", "name:de": "Schenna, Dorf", "name:it": "Scena, Paese", "network": "TVS", "operator": "STA", "public_transport": "platform", "route_ref": "231;232;233", "shelter": "yes", "tactile_paving": "no"}}, {"type": "node", "id": 730640807, "lat": 46.6869473, "lon": 11.1890101, "tags": {"bench": "yes", "bin": "yes", "highway": "bus_stop", "name": "Schenna, Abzweigung Verdins - Scena, Bivio Verdins", "name:de": "Schenna, Abzweigung Verdins", "name:it": "Scena, Bivio Verdins", "network": "TVS", "operator": "STA", "public_transport": "platform", "route_ref": "232;233", "shelter": "no", "tactile_paving": "no"}}, {"type": "node", "id": 730640825, "lat": 46.6856561, "lon": 11.1888006, "tags": {"bench": "no", "bin": "yes", "highway": "bus_stop", "lit": "yes", "name": "Schenna, Tannerhof - Scena, Tannerhof", "name:de": "Schenna, Tannerhof", "name:it": "Scena, Tannerhof", "network": "TVS", "operator": "STA", "passenger_information_display": "yes", "public_transport": "platform", "route_ref": "231;232", "shelter": "no", "tactile_paving": "no"}}, {"type": "node", "id": 730693880, "lat": 46.6862764, "lon": 11.1014595, "tags": {"bench": "yes", "bin": "yes", "bus": "yes", "departures_board": "timetable", "ferry": "no", "highway": "bus_stop", "light_rail": "no", "monorail": "no", "name": "Oberplars - Plars di Sopra", "name:de": "Oberplars", "name:it": "Plars di Sopra", "network": "TVS", "operator": "STA", "public_transport": "platform", "route_ref": "235", "shelter": "no", "subway": "no", "train": "no", "tram": "no", "trolleybus": "no"}}, {"type": "node", "id": 731091505, "lat": 46.6691596, "lon": 11.1739545, "tags": {"bench": "yes", "bin": "yes", "highway": "bus_stop", "name": "Meran, Brunnenplatz - Merano, Piazza Fontana", "name:de": "Meran, Brunnenplatz", "name:it": "Merano, Piazza Fontana", "network": "TVS", "operator": "STA", "public_transport": "platform", "route_ref": "1A;1B;3;225;231", "seasonal": "no", "shelter": "no", "tactile_paving": "no"}}, {"type": "node", "id": 731091512, "lat": 46.6693694, "lon": 11.1741352, "tags": {"bench": "yes", "bin": "yes", "highway": "bus_stop", "lit": "yes", "name": "Meran, Brunnenplatz - Merano, Piazza Fontana", "name:de": "Meran, Brunnenplatz", "name:it": "Merano, Piazza Fontana", "network": "TVS", "operator": "STA", "public_transport": "platform", "route_ref": "1A;1B;3;225;231", "seasonal": "no", "shelter": "no", "tactile_paving": "no"}}, {"type": "node", "id": 731946846, "lat": 46.698689, "lon": 11.2020737, "tags": {"bench": "yes", "highway": "bus_stop", "name": "Schenna, Taser Seilbahn - Scena, Funivia Taser", "name:de": "Schenna, Taser Seilbahn", "name:it": "Scena, Funivia Taser", "network": "TVS", "operator": "STA", "public_transport": "platform", "route_ref": "233", "shelter": "no", "tactile_paving": "no"}}, {"type": "node", "id": 732348834, "lat": 46.6929513, "lon": 11.1891619, "tags": {"bench": "yes", "highway": "bus_stop", "name": "Schenna, Schule - Scena, Scuola", "name:de": "Schenna, Schule", "name:it": "Scena, Scuola", "network": "TVS", "operator": "STA", "public_transport": "platform", "route_ref": "231", "shelter": "yes"}}, {"type": "node", "id": 736899608, "lat": 46.7021721, "lon": 11.1580636, "tags": {"bench": "yes", "direction": "both", "highway": "bus_stop", "name": "Tiroler Kreuz - Tirolo Croce", "name:de": "Tiroler Kreuz", "name:it": "Tirolo Croce", "network": "TVS", "operator": "SASA", "public_transport": "platform", "shelter": "no"}}, {"type": "node", "id": 738911969, "lat": 46.6780482, "lon": 10.9374049, "tags": {"bench": "no", "highway": "bus_stop", "name": "Schnals, Hof am Wasser - Senales, Hof am Wasser", "name:de": "Schnals, Hof am Wasser", "name:it": "Senales, Hof am Wasser", "network": "TVS", "public_transport": "platform", "route_ref": "261", "shelter": "no"}}, {"type": "node", "id": 738912484, "lat": 46.6891739, "lon": 10.9341869, "tags": {"bench": "no", "bin": "yes", "bus": "yes", "highway": "bus_stop", "lit": "no", "name": "Katharinaberg - Monte Santa Caterina", "name:de": "Katharinaberg", "name:it": "Monte Santa Caterina", "network": "TVS", "public_transport": "platform", "route_ref": "261", "shelter": "no", "tactile_paving": "no"}}, {"type": "node", "id": 747253428, "lat": 46.7118371, "lon": 11.2045183, "tags": {"bench": "yes", "bus": "yes", "highway": "bus_stop", "name": "Verdins", "network": "STA", "network:wikidata": "Q21971377", "operator": "STA", "public_transport": "platform", "shelter": "yes"}}, {"type": "node", "id": 759467439, "lat": 46.6608348, "lon": 11.0373324, "tags": {"bench": "no", "bin": "no", "bus": "yes", "highway": "bus_stop", "lit": "yes", "name": "Abzweigung Plaus - Bivio Plaus", "name:de": "Abzweigung Plaus", "name:it": "Bivio Plaus", "network": "TVS", "public_transport": "platform", "route_ref": "251;261;266", "shelter": "no", "tactile_paving": "no"}}, {"type": "node", "id": 768139389, "lat": 46.5541859, "lon": 11.1794617, "tags": {"bench": "yes", "bin": "yes", "bus": "yes", "covered": "yes", "highway": "bus_stop", "lit": "yes", "name": "Prissian - Prissiano", "name:de": "Prissian", "name:it": "Prissiano", "network": "TVS", "operator": "STA", "public_transport": "platform", "route_ref": "216", "shelter": "yes", "tactile_paving": "no"}}, {"type": "node", "id": 768139521, "lat": 46.5636396, "lon": 11.1695735, "tags": {"highway": "bus_stop", "name": "Tisens, Dorfplatz - Tesimo, Piazza Paese", "name:de": "Tisens, Dorfplatz", "name:it": "Tesimo, Piazza Paese", "network": "TVS", "operator": "STA", "public_transport": "platform", "route_ref": "216", "shelter": "no"}}, {"type": "node", "id": 768139523, "lat": 46.5682486, "lon": 11.1676956, "tags": {"highway": "bus_stop", "name": "Tisens, Longnui - Tesimo, Longnui", "name:de": "Tisens, Longnui", "name:it": "Tesimo, Longnui", "network": "TVS", "operator": "STA", "public_transport": "platform", "route_ref": "216"}}, {"type": "node", "id": 768139539, "lat": 46.5491966, "lon": 11.210295, "tags": {"bench": "no", "bin": "no", "bus": "yes", "highway": "bus_stop", "name": "Lichtenburg", "name:de": "Lichtenburg", "name:it": "Lichtenburg", "operator": "SASA", "public_transport": "platform", "route_ref": "202;216", "shelter": "no"}}, {"type": "node", "id": 769077815, "lat": 46.4950383, "lon": 11.3387175, "tags": {"bench": "yes", "bin": "yes", "bus": "yes", "highway": "bus_stop", "lit": "no", "name": "Piazza Adriano - Hadrianplatz", "name:de": "Hadrianplatz", "name:it": "Piazza Adriano", "network": "TVS", "operator": "SASA;SAD", "public_transport": "platform", "route_ref": "6;8;9;131;137;204", "shelter": "no", "tactile_paving": "no", "wheelchair": "yes"}}, {"type": "node", "id": 822070646, "lat": 46.6451995, "lon": 11.1797872, "tags": {"bench": "no", "bin": "no", "highway": "bus_stop", "lit": "yes", "name": "Vittorio-Veneto-Platz - Piazza Vittorio Veneto", "name:de": "Vittorio-Veneto-Platz", "name:it": "Piazza Vittorio Veneto", "network": "TVS", "operator": "STA", "public_transport": "platform", "route_ref": "210", "shelter": "yes", "source": "survey", "tactile_paving": "no"}}, {"type": "node", "id": 822070647, "lat": 46.6452554, "lon": 11.179865, "tags": {"bench": "yes", "bin": "yes", "highway": "bus_stop", "lit": "no", "name": "Vittorio-Veneto-Platz - Piazza Vittorio Veneto", "name:de": "Vittorio-Veneto-Platz", "name:it": "Piazza Vittorio Veneto", "network": "TVS", "operator": "STA", "public_transport": "platform", "route_ref": "210", "shelter": "yes", "source": "survey", "tactile_paving": "no"}}, {"type": "node", "id": 835146458, "lat": 46.4898675, "lon": 11.3184114, "tags": {"bus": "yes", "highway": "bus_stop", "name": "Campi Resia - Reschensportpl\u00e4tze", "name:de": "Reschensportpl\u00e4tze", "name:it": "Campi Resia", "operator": "SASA", "public_transport": "platform", "route_ref": "5", "shelter": "yes"}}, {"type": "node", "id": 835146470, "lat": 46.4972852, "lon": 11.3360031, "tags": {"bench": "yes", "bin": "yes", "bus": "yes", "highway": "bus_stop", "lit": "yes", "name": "Via Roen Asilo - Roenstra\u00dfe Kindergarten", "name:de": "Roenstra\u00dfe Kindergarten", "name:it": "Via Roen Asilo", "operator": "SASA", "public_transport": "platform", "route_ref": "5", "shelter": "yes", "tactile_paving": "no"}}, {"type": "node", "id": 835146472, "lat": 46.4923581, "lon": 11.3229, "tags": {"bus": "yes", "highway": "bus_stop", "name": "Passaggio Walter Tobagi - Walter-Tobagi-Weg", "name:de": "Walter-Tobagi-Weg", "name:it": "Passaggio Walter Tobagi", "operator": "SASA", "public_transport": "platform", "route_ref": "5", "shelter": "yes"}}, {"type": "node", "id": 835146476, "lat": 46.4940311, "lon": 11.33274, "tags": {"bus": "yes", "highway": "bus_stop", "name": "Via della Visitazione - Mariaheimweg", "name:de": "Mariaheimweg", "name:it": "Via della Visitazione", "operator": "SASA", "public_transport": "platform", "route_ref": "5", "shelter": "yes"}}, {"type": "node", "id": 835146488, "lat": 46.4929486, "lon": 11.3271832, "tags": {"bench": "yes", "bus": "yes", "highway": "bus_stop", "name": "Scuola Albert Schweitzer - Albert-Schweitzer-Schule", "name:de": "Albert-Schweitzer-Schule", "name:it": "Scuola Albert Schweitzer", "operator": "SASA", "public_transport": "platform", "route_ref": "5;6;9"}}, {"type": "node", "id": 835146491, "lat": 46.4962028, "lon": 11.3336582, "tags": {"bus": "yes", "highway": "bus_stop", "name": "Via Roen Scuola Superiore - Roenstra\u00dfe Oberschule", "name:de": "Roenstra\u00dfe Oberschule", "name:it": "Via Roen Scuola Superiore", "operator": "SASA", "public_transport": "platform", "route_ref": "5", "shelter": "yes"}}, {"type": "node", "id": 835146494, "lat": 46.5004997, "lon": 11.3366673, "tags": {"bus": "yes", "highway": "bus_stop", "name": "Via Duca d'Aosta - Duca D'Aosta Stra\u00dfe", "name:de": "Duca D'Aosta Stra\u00dfe", "name:it": "Via Duca d'Aosta", "operator": "SASA", "public_transport": "platform", "route_ref": "5"}}, {"type": "node", "id": 835146497, "lat": 46.4912731, "lon": 11.3207837, "tags": {"bench": "yes", "highway": "bus_stop", "name": "Via Gutenberg - Gutenbergstra\u00dfe", "name:de": "Gutenbergstra\u00dfe", "name:it": "Via Gutenberg", "operator": "SASA", "public_transport": "platform", "route_ref": "5", "shelter": "yes"}}, {"type": "node", "id": 835146500, "lat": 46.4924716, "lon": 11.3293008, "tags": {"bus": "yes", "highway": "bus_stop", "name": "Scuola J. H. Pestalozzi - J. H. Pestalozzi Schule", "name:de": "J. H. Pestalozzi Schule", "name:it": "Scuola J. H. Pestalozzi", "operator": "SASA", "public_transport": "platform", "route_ref": "5", "shelter": "yes"}}, {"type": "node", "id": 886386574, "lat": 46.4188863, "lon": 11.2511661, "tags": {"bus": "yes", "departures_board": "timetable", "highway": "bus_stop", "name": "Kaltern, Bahnhof - Caldaro, Stazione", "name:de": "Kaltern, Bahnhof", "name:it": "Caldaro, Stazione", "operator": "SAD", "public_transport": "platform", "ref:IFOPT": "it:22021:760:0:9426", "shelter": "yes"}}, {"type": "node", "id": 936119945, "lat": 46.6975377, "lon": 11.1951548, "tags": {"bench": "no", "highway": "bus_stop", "name": "Schenna, Tiefenbrunn - Scena, Tiefenbrunn", "name:de": "Schenna, Tiefenbrunn", "name:it": "Scena, Tiefenbrunn", "network": "TVS", "operator": "STA", "public_transport": "platform", "route_ref": "231", "shelter": "no"}}, {"type": "node", "id": 1005404263, "lat": 46.536623, "lon": 11.2419876, "tags": {"bench": "yes", "highway": "bus_stop", "name": "Unterkreuth - Novale di Sotto", "name:de": "Unterkreuth", "name:it": "Novale di Sotto", "network": "TVS", "operator": "STA", "public_transport": "platform", "route_ref": "201", "shelter": "no"}}, {"type": "node", "id": 1026932674, "lat": 46.6874231, "lon": 11.1411941, "tags": {"bench": "yes", "bin": "no", "bus": "yes", "highway": "bus_stop", "lit": "no", "name": "Friedhof Gratsch - Cimitero Quarazze", "name:de": "Friedhof Gratsch", "name:it": "Cimitero Quarazze", "network": "TVS", "operator": "STA", "public_transport": "platform", "shelter": "no", "tactile_paving": "no", "wheelchair": "no"}}, {"type": "node", "id": 1026932680, "lat": 46.6866505, "lon": 11.141981, "tags": {"bus": "yes", "highway": "bus_stop", "name": "Friedhof Gratsch - Cimitero Quarazze", "name:de": "Friedhof Gratsch", "name:it": "Cimitero Quarazze", "network": "TVS", "operator": "STA", "public_transport": "platform", "wheelchair": "no"}}, {"type": "node", "id": 1026932743, "lat": 46.6899728, "lon": 11.1423489, "tags": {"bench": "yes", "bin": "no", "bus": "yes", "highway": "bus_stop", "name": "Kircher", "name:de": "Kircher", "name:it": "Kircher", "network": "TVS", "operator": "STA", "public_transport": "platform", "shelter": "no", "tactile_paving": "no", "wheelchair": "no"}}, {"type": "node", "id": 1054508249, "lat": 46.502954, "lon": 11.3343703, "tags": {"bench": "yes", "bin": "yes", "bus": "yes", "highway": "bus_stop", "lit": "yes", "name": "Piazza Gries - Grieser Platz", "name:de": "Grieser Platz", "name:it": "Piazza Gries", "network": "TVS", "operator": "SASA;SAD", "public_transport": "platform", "route_ref": "10B;132;136;201", "shelter": "yes", "tactile_paving": "no"}}, {"type": "node", "id": 1066180545, "lat": 46.4996206, "lon": 11.3091639, "tags": {"bench": "yes", "highway": "bus_stop", "name": "Ospedale - Krankenhaus", "name:de": "Krankenhaus", "name:it": "Ospedale", "operator": "SASA", "public_transport": "platform", "route_ref": "8;10A;132;136;201", "shelter": "yes"}}, {"type": "node", "id": 1070452912, "lat": 46.5085611, "lon": 11.3451833, "tags": {"bus": "yes", "highway": "bus_stop", "name": "Via Fago Scuole - Fagenstra\u00dfe Schulen", "name:de": "Fagenstra\u00dfe Schulen", "name:it": "Via Fago Scuole", "network": "TVS", "operator": "SASA", "public_transport": "platform", "route_ref": "1;12;14", "shelter": "yes", "wheelchair": "yes"}}, {"type": "node", "id": 1070452913, "lat": 46.5067579, "lon": 11.3389473, "tags": {"bench": "yes", "bin": "yes", "bus": "yes", "highway": "bus_stop", "lit": "yes", "name": "Via Defregger - Defregger Stra\u00dfe", "name:de": "Defregger Stra\u00dfe", "name:it": "Via Defregger", "network": "TVS", "operator": "SASA", "public_transport": "platform", "route_ref": "1;12;14", "shelter": "yes", "tactile_paving": "no"}}, {"type": "node", "id": 1070454057, "lat": 46.5141769, "lon": 11.3526289, "tags": {"bus": "yes", "highway": "bus_stop", "name": "Funivia San Genesio - Seilbahn Jenesien", "name:de": "Seilbahn Jenesien", "name:it": "Funivia San Genesio", "network": "TVS", "operator": "SASA", "public_transport": "platform", "route_ref": "12;14;150", "shelter": "yes"}}, {"type": "node", "id": 1075327296, "lat": 46.5076443, "lon": 11.341206, "tags": {"bus": "yes", "highway": "bus_stop", "name": "Villa Serena", "name:de": "Villa Serena", "name:it": "Villa Serena", "operator": "SASA", "public_transport": "platform", "route_ref": "1;12;14"}}, {"type": "node", "id": 1129427007, "lat": 46.5055744, "lon": 11.3547244, "tags": {"bench": "no", "bin": "yes", "bus": "yes", "highway": "bus_stop", "lit": "no", "name": "Via S. Osvaldo - Oswaldweg", "name:de": "Oswaldweg", "name:it": "Via S. Osvaldo", "operator": "SASA", "public_transport": "platform", "route_ref": "15", "shelter": "no", "tactile_paving": "no"}}, {"type": "node", "id": 1139854945, "lat": 46.6802821, "lon": 11.151163, "tags": {"bench": "yes", "bin": "no", "highway": "bus_stop", "lit": "yes", "name": "Karl-Wolf-Stra\u00dfe - Via Karl Wolf", "name:de": "Karl-Wolf-Stra\u00dfe", "name:it": "Via Karl Wolf", "operator": "SASA;SAD", "public_transport": "platform", "route_ref": "3;236", "shelter": "yes", "tactile_paving": "no"}}, {"type": "node", "id": 1139857965, "lat": 46.6823002, "lon": 11.1474271, "tags": {"bench": "yes", "bin": "yes", "highway": "bus_stop", "lit": "yes", "name": "Gratsch - Quarazze", "name:de": "Gratsch", "name:it": "Quarazze", "network": "TVS", "operator": "SASA;SAD", "public_transport": "platform", "route_ref": "3;236", "shelter": "yes", "tactile_paving": "no"}}, {"type": "node", "id": 1151743834, "lat": 46.647843, "lon": 10.9761702, "tags": {"bench": "no", "bus": "yes", "departures_board": "timetable", "highway": "bus_stop", "name": "Parkplatz Juval/Vinschgerbauernladen", "name:it": "Parcheggio Juval/Bottega dei contadini", "network": "Juvalshuttle", "operator": "Michaela Kaserer, Gr\u00fcblstra\u00dfe 24, 39028 Schlanders, Italien", "public_transport": "platform", "shelter": "no"}}, {"type": "node", "id": 1151744922, "lat": 46.65096, "lon": 10.9699157, "tags": {"bus": "yes", "highway": "bus_stop", "name": "Schlosswirt/Oberortel/Einstieg Waalweg", "name:it": "Osteria Schlosswirt/Sentiero della roggia", "network": "Juvalshuttle", "operator": "Michaela Kaserer, Gr\u00fcblstra\u00dfe 24, 39028 Schlanders, Italien", "public_transport": "stop_position"}}, {"type": "node", "id": 1213248334, "lat": 46.5873937, "lon": 11.0862851, "tags": {"highway": "bus_stop", "name": "St. Pankraz, Heizwerk - San Pancrazio, Teleriscaldamento", "name:de": "St. Pankraz, Heizwerk", "name:it": "San Pancrazio, Teleriscaldamento", "network": "TVS", "public_transport": "platform", "route_ref": "245", "shelter": "yes"}}, {"type": "node", "id": 1213249218, "lat": 46.5867945, "lon": 11.0868592, "tags": {"highway": "bus_stop", "name": "St. Pankraz, Heizwerk - San Pancrazio, Teleriscaldamento", "name:de": "St. Pankraz, Heizwerk", "name:it": "San Pancrazio, Teleriscaldamento", "network": "TVS", "public_transport": "platform", "route_ref": "245"}}, {"type": "node", "id": 1213250362, "lat": 46.5845994, "lon": 11.0855775, "tags": {"highway": "bus_stop", "name": "St. Pankraz, Kressbrunn - San Pancrazio, Kressbrunn", "name:de": "St. Pankraz, Kressbrunn", "name:it": "San Pancrazio, Kressbrunn", "network": "TVS", "public_transport": "platform", "route_ref": "245"}}, {"type": "node", "id": 1213250552, "lat": 46.5845084, "lon": 11.0857223, "tags": {"highway": "bus_stop", "name": "St. Pankraz, Kressbrunn - San Pancrazio, Kressbrunn", "name:de": "St. Pankraz, Kressbrunn", "name:it": "San Pancrazio, Kressbrunn", "network": "TVS", "public_transport": "platform", "route_ref": "245"}}, {"type": "node", "id": 1213270482, "lat": 46.5807675, "lon": 11.0815211, "tags": {"highway": "bus_stop", "name": "St. Pankraz, Tiefgass - San Pancrazio, Tiefgass", "name:de": "St. Pankraz, Tiefgass", "name:it": "San Pancrazio, Tiefgass", "network": "TVS", "public_transport": "platform", "route_ref": "245"}}, {"type": "node", "id": 1213271000, "lat": 46.5806711, "lon": 11.081182, "tags": {"highway": "bus_stop", "name": "St. Pankraz, Tiefgass - San Pancrazio, Tiefgass", "name:de": "St. Pankraz, Tiefgass", "name:it": "San Pancrazio, Tiefgass", "network": "TVS", "public_transport": "platform", "route_ref": "245"}}, {"type": "node", "id": 1241718412, "lat": 46.485078, "lon": 11.263263, "tags": {"bench": "yes", "bin": "yes", "highway": "bus_stop", "name": "Abzweigung Missian - Bivio Missiano", "name:de": "Abzweigung Missian", "name:it": "Bivio Missiano", "operator": "SAD", "public_transport": "platform", "route_ref": "135.2", "shelter": "yes", "source": "EppanOGD", "tactile_paving": "no"}}, {"type": "node", "id": 1273778716, "lat": 46.4187504, "lon": 11.3057404, "tags": {"highway": "bus_stop", "name": "Masetta - Wachsbleiche", "name:de": "Wachsbleiche", "name:it": "Masetta", "operator": "SASA", "public_transport": "platform", "route_ref": "117"}}, {"type": "node", "id": 1273779366, "lat": 46.4133273, "lon": 11.3054809, "tags": {"highway": "bus_stop", "name": "Vadena Centro - Pfatten, Dorf", "name:de": "Pfatten, Dorf", "name:it": "Vadena Centro", "public_transport": "platform"}}, {"type": "node", "id": 1286407799, "lat": 46.466324, "lon": 11.247038, "tags": {"bench": "no", "bin": "no", "check_date:shelter": "2024-05-14", "description": "City Bus", "highway": "bus_stop", "lit": "no", "name": "Eppan Berg, Resch - Appiano Monte, Resch", "name:de": "Eppan Berg, Resch", "name:it": "Appiano Monte, Resch", "operator": "SAD", "public_transport": "platform", "route_ref": "135.1", "shelter": "no", "source": "EppanOGD", "tactile_paving": "no"}}, {"type": "node", "id": 1286407803, "lat": 46.4679871, "lon": 11.247544, "tags": {"bench": "no", "bin": "no", "check_date:shelter": "2024-05-14", "description": "City Bus", "highway": "bus_stop", "lit": "no", "name": "Eppan Berg, Spitaler - Appiano Monte, Spitaler", "name:de": "Eppan Berg, Spitaler", "name:it": "Appiano Monte, Spitaler", "operator": "SAD", "public_transport": "platform", "route_ref": "135.1", "shelter": "no", "source": "EppanOGD", "tactile_paving": "no"}}, {"type": "node", "id": 1318912563, "lat": 46.5512605, "lon": 11.1440765, "tags": {"highway": "bus_stop", "name": "Gfrill - Caprile", "name:de": "Gfrill", "name:it": "Caprile", "network": "TVS", "public_transport": "platform", "route_ref": "246", "wheelchair": "no"}}, {"type": "node", "id": 1318912739, "lat": 46.5387742, "lon": 11.1273696, "tags": {"highway": "bus_stop", "name": "Bad Gfrill - Bagni di Caprile", "name:de": "Bad Gfrill", "name:it": "Bagni di Caprile", "network": "TVS", "public_transport": "platform", "route_ref": "246"}}, {"type": "node", "id": 1319380851, "lat": 46.5118355, "lon": 11.1083558, "tags": {"bench": "yes", "highway": "bus_stop", "name": "Unsere Liebe Frau im Walde - Senale", "name:de": "Unsere Liebe Frau im Walde", "name:it": "Senale", "network": "TVS", "public_transport": "platform", "route_ref": "246", "shelter": "yes"}}, {"type": "node", "id": 1319382632, "lat": 46.5295938, "lon": 11.111905, "tags": {"bench": "yes", "highway": "bus_stop", "name": "Gampenpass - Passo Palade", "name:de": "Gampenpass", "name:it": "Passo Palade", "network": "TVS", "public_transport": "platform", "route_ref": "246", "shelter": "yes"}}, {"type": "node", "id": 1363076082, "lat": 46.6634854, "lon": 11.1779025, "tags": {"bench": "yes", "bin": "no", "highway": "bus_stop", "lit": "yes", "name": "Orazio-Gaigher-Stra\u00dfe - Via Orazio Gaigher", "name:de": "Orazio-Gaigher-Stra\u00dfe", "name:it": "Via Orazio Gaigher", "operator": "SASA", "public_transport": "platform", "route_ref": "4", "shelter": "no", "tactile_paving": "no"}}, {"type": "node", "id": 1363076086, "lat": 46.6617356, "lon": 11.1791151, "tags": {"bench": "yes", "bin": "yes", "highway": "bus_stop", "lit": "yes", "name": "Pienzenauweg - Via Pienzenau", "name:de": "Pienzenauweg", "name:it": "Via Pienzenau", "operator": "SASA", "public_transport": "platform", "route_ref": "4", "shelter": "no", "tactile_paving": "no"}}, {"type": "node", "id": 1363076088, "lat": 46.6673629, "lon": 11.1741478, "tags": {"bench": "yes", "highway": "bus_stop", "name": "Lorenz B\u00f6hler", "name:de": "Lorenz B\u00f6hler", "name:it": "Lorenz B\u00f6hler", "operator": "SASA", "public_transport": "platform", "route_ref": "4", "shelter": "no"}}, {"type": "node", "id": 1363076089, "lat": 46.6658341, "lon": 11.1707593, "tags": {"bench": "no", "bin": "no", "highway": "bus_stop", "name": "Maiser Park - Parco di Maia", "name:de": "Maiser Park", "name:it": "Parco di Maia", "operator": "SASA", "public_transport": "platform", "route_ref": "4", "shelter": "no", "tactile_paving": "no"}}, {"type": "node", "id": 1363076090, "lat": 46.6604547, "lon": 11.1814381, "tags": {"bench": "yes", "bin": "yes", "highway": "bus_stop", "lit": "yes", "name": "Tanner", "name:de": "Tanner", "name:it": "Tanner", "operator": "SASA", "public_transport": "platform", "route_ref": "4", "shelter": "yes", "tactile_paving": "no"}}, {"type": "node", "id": 1363076091, "lat": 46.6548509, "lon": 11.1843688, "tags": {"bench": "yes", "bin": "no", "highway": "bus_stop", "name": "Schie\u00dfstand - Poligono", "name:de": "Schie\u00dfstand", "name:it": "Poligono", "operator": "SASA", "public_transport": "platform", "route_ref": "4", "shelter": "yes", "tactile_paving": "no"}}, {"type": "node", "id": 1363076093, "lat": 46.6612533, "lon": 11.1837733, "tags": {"bench": "yes", "bin": "no", "bus": "yes", "highway": "bus_stop", "lit": "yes", "local_ref": "B", "name": "Trauttmansdorff", "name:de": "Trauttmansdorff", "name:it": "Trauttmansdorff", "operator": "SASA", "public_transport": "platform", "route_ref": "4", "shelter": "yes", "tactile_paving": "yes"}}, {"type": "node", "id": 1363076095, "lat": 46.6617476, "lon": 11.1786882, "tags": {"bench": "yes", "bin": "no", "highway": "bus_stop", "lit": "yes", "name": "Pienzenauweg - Via Pienzenau", "name:de": "Pienzenauweg", "name:it": "Via Pienzenau", "operator": "SASA", "public_transport": "platform", "route_ref": "4", "shelter": "no", "tactile_paving": "no"}}, {"type": "node", "id": 1363076099, "lat": 46.6707738, "lon": 11.1589208, "tags": {"bench": "yes", "bin": "yes", "check_date:shelter": "2022-08-12", "departures_board": "realtime", "highway": "bus_stop", "lit": "yes", "name": "Theaterplatz - Piazza Teatro", "name:de": "Theaterplatz", "name:it": "Piazza Teatro", "network": "TVS", "operator": "SASA", "public_transport": "platform", "route_ref": "1A;1B;2;4;6;211;212;221;231;237", "shelter": "yes", "tactile_paving": "no", "wheelchair": "no"}}, {"type": "node", "id": 1363076100, "lat": 46.6645974, "lon": 11.1773343, "tags": {"bench": "yes", "bin": "no", "highway": "bus_stop", "lit": "no", "name": "Mayr-Nusser-Stra\u00dfe - Via Mayr Nusser", "name:de": "Mayr-Nusser-Stra\u00dfe", "name:it": "Via Mayr Nusser", "operator": "SASA", "public_transport": "platform", "route_ref": "4", "shelter": "no", "tactile_paving": "no"}}, {"type": "node", "id": 1363077004, "lat": 46.4914784, "lon": 11.3206465, "tags": {"highway": "bus_stop", "local_ref": "via Gutenberg - Gutenberg Strasse", "name": "Via Gutenberg - Gutenbergstra\u00dfe", "name:de": "Gutenbergstra\u00dfe", "name:it": "Via Gutenberg", "operator": "SASA", "public_transport": "platform", "route_ref": "5", "shelter": "yes"}}, {"type": "node", "id": 1363077005, "lat": 46.4929138, "lon": 11.3150559, "tags": {"highway": "bus_stop", "name": "Stadio Europa - Europa Stadium", "name:de": "Europa Stadium", "name:it": "Stadio Europa", "operator": "SASA", "public_transport": "platform", "route_ref": "9;10B", "shelter": "yes"}}, {"type": "node", "id": 1363077011, "lat": 46.4910886, "lon": 11.3161444, "tags": {"bench": "yes", "bin": "yes", "check_date:shelter": "2024-12-07", "highway": "bus_stop", "name": "Palasport - Stadthalle", "name:de": "Stadthalle", "name:it": "Palasport", "operator": "SASA", "public_transport": "platform", "route_ref": "9;10B", "shelter": "yes"}}, {"type": "node", "id": 1363077013, "lat": 46.489955, "lon": 11.3203836, "tags": {"bus": "yes", "highway": "bus_stop", "name": "Via Parma - Parma Stra\u00dfe", "name:de": "Parma Stra\u00dfe", "name:it": "Via Parma", "operator": "SASA", "public_transport": "platform"}}, {"type": "node", "id": 1369011963, "lat": 46.6831916, "lon": 11.1932977, "tags": {"bench": "yes", "highway": "bus_stop", "name": "Schenna, Rodelstein - Scena, Rodelstein", "name:de": "Schenna, Rodelstein", "name:it": "Scena, Rodelstein", "network": "TVS", "operator": "STA", "public_transport": "platform", "route_ref": "233", "shelter": "no"}}, {"type": "node", "id": 1369011970, "lat": 46.690425, "lon": 11.1955296, "tags": {"bench": "no", "highway": "bus_stop", "name": "Schenna, Krebis - Scena, Krebis", "name:de": "Schenna, Krebis", "name:it": "Scena, Krebis", "network": "TVS", "operator": "STA", "public_transport": "platform", "route_ref": "233", "shelter": "no"}}, {"type": "node", "id": 1369137953, "lat": 46.6939174, "lon": 11.1989374, "tags": {"bench": "no", "bin": "no", "highway": "bus_stop", "name": "Schenna, Farmer - Scena, Farmer", "name:de": "Schenna, Farmer", "name:it": "Scena, Farmer", "network": "TVS", "operator": "STA", "public_transport": "platform", "route_ref": "233", "shelter": "no", "tactile_paving": "no"}}, {"type": "node", "id": 1373227266, "lat": 46.4105657, "lon": 10.9681002, "tags": {"bench": "yes", "bin": "yes", "bus": "yes", "highway": "bus_stop", "lit": "yes", "name": "Bresimo", "public_transport": "platform", "shelter": "yes", "tactile_paving": "no"}}, {"type": "node", "id": 1373230018, "lat": 46.4151899, "lon": 10.9852383, "tags": {"highway": "bus_stop", "name": "Baselga di Bresimo", "public_transport": "platform", "shelter": "no"}}, {"type": "node", "id": 1387615714, "lat": 46.6860276, "lon": 11.1895105, "tags": {"bench": "no", "bin": "no", "highway": "bus_stop", "lit": "no", "name": "Schenna, Minigolf - Scena, Minigolf", "name:de": "Schenna, Minigolf", "name:it": "Scena, Minigolf", "network": "TVS", "operator": "STA", "public_transport": "platform", "route_ref": "233", "shelter": "no", "tactile_paving": "no"}}, {"type": "node", "id": 1387787713, "lat": 46.6939256, "lon": 11.1987952, "tags": {"bench": "no", "highway": "bus_stop", "name": "Schenna, Farmer - Scena, Farmer", "name:de": "Schenna, Farmer", "name:it": "Scena, Farmer", "network": "TVS", "operator": "STA", "public_transport": "platform", "route_ref": "233", "shelter": "no"}}, {"type": "node", "id": 1387787714, "lat": 46.6904296, "lon": 11.195362, "tags": {"bench": "no", "bin": "no", "highway": "bus_stop", "lit": "no", "name": "Schenna, Krebis - Scena, Krebis", "name:de": "Schenna, Krebis", "name:it": "Scena, Krebis", "network": "TVS", "operator": "STA", "public_transport": "platform", "route_ref": "233", "shelter": "no", "tactile_paving": "no"}}, {"type": "node", "id": 1387787715, "lat": 46.6955002, "lon": 11.2006684, "tags": {"bench": "no", "highway": "bus_stop", "name": "Schenna, Moareben - Scena, Moareben", "name:de": "Schenna, Moareben", "name:it": "Scena, Moareben", "network": "TVS", "operator": "STA", "public_transport": "platform", "route_ref": "233", "shelter": "no"}}, {"type": "node", "id": 1387787716, "lat": 46.6961266, "lon": 11.2002607, "tags": {"bench": "no", "highway": "bus_stop", "name": "Schenna, Moareben - Scena, Moareben", "name:de": "Schenna, Moareben", "name:it": "Scena, Moareben", "network": "TVS", "operator": "STA", "public_transport": "platform", "route_ref": "233", "shelter": "no"}}, {"type": "node", "id": 1397550198, "lat": 46.5021894, "lon": 11.3183164, "tags": {"bus": "yes", "highway": "bus_stop", "local_ref": "10B", "name": "Via S. Maurizio - Moritzingerweg", "name:de": "Moritzingerweg", "name:it": "Via S. Maurizio", "operator": "SASA", "public_transport": "platform", "route_ref": "10B", "shelter": "no"}}, {"type": "node", "id": 1397550753, "lat": 46.5022248, "lon": 11.318191, "tags": {"bus": "yes", "highway": "bus_stop", "local_ref": "10A", "name": "Via S. Maurizio - Moritzingerweg", "name:de": "Moritzingerweg", "name:it": "Via S. Maurizio", "operator": "SASA", "public_transport": "platform", "route_ref": "10A"}}, {"type": "node", "id": 1519826192, "lat": 46.6165256, "lon": 11.1450568, "tags": {"bench": "yes", "bin": "yes", "highway": "bus_stop", "lit": "yes", "name": "Lana, Rathaus - Lana, Municipio", "name:de": "Lana, Rathaus", "name:it": "Lana, Municipio", "network": "TVS", "operator": "STA", "public_transport": "platform", "route_ref": "211;214;215", "shelter": "yes", "tactile_paving": "no"}}, {"type": "node", "id": 1676777637, "lat": 46.4804588, "lon": 11.3152699, "tags": {"bench": "no", "bus": "yes", "covered": "no", "highway": "bus_stop", "name": "Casanova - Kaiserau", "name:de": "Kaiserau", "name:it": "Casanova", "operator": "SASA", "public_transport": "platform", "route_ref": "3", "shelter": "no"}}, {"type": "node", "id": 1676777641, "lat": 46.4831245, "lon": 11.3199414, "tags": {"highway": "bus_stop", "name": "Via Ortles - Ortlerstra\u00dfe", "name:de": "Ortlerstra\u00dfe", "name:it": "Via Ortles", "operator": "SASA", "public_transport": "platform", "route_ref": "3"}}, {"type": "node", "id": 1702585711, "lat": 46.4132893, "lon": 11.2439153, "tags": {"bench": "yes", "bin": "yes", "departures_board": "timetable", "highway": "bus_stop", "lit": "yes", "name": "Rottenburger Platz - Piazza Rottenburg", "name:de": "Rottenburger Platz", "name:it": "Piazza Rottenburg", "passenger_information_display": "yes", "public_transport": "platform", "route_ref": "130;131;132;135.4;135.5;136;138", "shelter": "yes", "tactile_paving": "no", "wheelchair": "yes"}}, {"type": "node", "id": 1720823304, "lat": 46.4078793, "lon": 11.2348199, "tags": {"bench": "yes", "bin": "yes", "bus": "yes", "departures_board": "timetable", "highway": "bus_stop", "lit": "yes", "name": "Mendelbahn - Funicolare della Mendola", "name:de": "Mendelbahn", "name:it": "Funicolare della Mendola", "network": "TVS", "operator": "SAD", "public_transport": "platform", "route_ref": "132;135.4", "shelter": "yes", "tactile_paving": "no"}}, {"type": "node", "id": 1721667253, "lat": 46.5355275, "lon": 11.326759, "tags": {"bench": "yes", "bin": "no", "bus": "yes", "highway": "bus_stop", "lit": "no", "name": "Abzweigung Nobls - Bivio Montoppio", "name:de": "Abzweigung Nobls", "name:it": "Bivio Montoppio", "network": "TVS", "operator": "STA", "public_transport": "platform", "route_ref": "156;157", "shelter": "yes", "tactile_paving": "no"}}, {"type": "node", "id": 1721667254, "lat": 46.5377563, "lon": 11.3300322, "tags": {"bench": "yes", "bin": "no", "direction": "both", "highway": "bus_stop", "lit": "no", "name": "Oberdorf", "name:de": "Oberdorf", "name:it": "Oberdorf", "network": "TVS", "operator": "STA", "public_transport": "platform", "route_ref": "156;157;158", "shelter": "yes", "tactile_paving": "no"}}, {"type": "node", "id": 1728044168, "lat": 46.5008239, "lon": 11.3450089, "tags": {"bench": "yes", "bin": "yes", "bus": "yes", "highway": "bus_stop", "lit": "yes", "name": "Parco Petrarca - Petrarca Park", "name:de": "Petrarca Park", "name:it": "Parco Petrarca", "operator": "SASA", "public_transport": "platform", "route_ref": "3;5;7A;8;10A;110", "shelter": "yes", "tactile_paving": "yes"}}, {"type": "node", "id": 1737649276, "lat": 46.5840361, "lon": 11.2571236, "tags": {"highway": "bus_stop", "name": "M\u00f6lten, Binder - Meltina, Binder", "name:de": "M\u00f6lten, Binder", "name:it": "Meltina, Binder", "network": "TVS", "operator": "STA", "public_transport": "platform", "route_ref": "204"}}, {"type": "node", "id": 1741127628, "lat": 46.6796225, "lon": 11.1330459, "tags": {"bench": "yes", "departures_board": "timetable", "highway": "bus_stop", "name": "Algund, Einkaufszentrum - Lagundo, Centro Commerciale", "name:de": "Algund, Einkaufszentrum", "name:it": "Lagundo, Centro Commerciale", "network": "TVS", "operator": "STA", "public_transport": "platform", "route_ref": "213;217;251;261", "shelter": "yes"}}, {"type": "node", "id": 1741921028, "lat": 46.4816175, "lon": 11.3414056, "tags": {"bench": "yes", "bus": "yes", "highway": "bus_stop", "name": "Piazza Oltrisarco - Oberauer Platz", "name:de": "Oberauer Platz", "name:it": "Piazza Oltrisarco", "network": "TVS", "operator": "SASA", "public_transport": "platform", "route_ref": "10A;110", "shelter": "yes"}},